GPGGA Base Position,,,,,,,,,,,,,,,GPGGA End Position,,,,,,,,,,,,,,,Base Latitude,Base Longitude,End Latitude,End Longitude,Node Count, Extra Tether Length,Node Address,X,Y,Z,Unscaled Pressure,Depth,Node Address,X,Y,Z,Unscaled Pressure,Depth,Node Address,X,Y,Z,Unscaled Pressure,Depth,Node Address,X,Y,Z,Unscaled Pressure,Depth,Node Address,X,Y,Z,Unscaled Pressure,Depth,Node Address,X,Y,Z,Unscaled Pressure,Depth,Time
$GPGGA,144130.560,3554.7404,N,01430.4238,E,1,5,1,0, M,0, M,0,*7D,$GPGGA,144130.562,3554.7404,N,01430.4238,E,1,5,1,-1.892808, M,0, M,0,*7E,35.9123398369199,14.5070633332937,35.9123398369,14.5070633333,1,0.00,,3/28/2013 3:41:30 PM
$GPGGA,144131.572,3554.7404,N,01430.4238,E,1,5,1,0, M,0, M,0,*7F,$GPGGA,144131.572,3554.7404,N,01430.4238,E,1,5,1,-1.892808, M,0, M,0,*7E,35.9123398803995,14.5070633332999,35.9123398804,14.5070633333,1,0.00,,3/28/2013 3:41:31 PM
$GPGGA,144132.586,3554.7404,N,01430.4238,E,1,5,1,0, M,0, M,0,*77,$GPGGA,144132.586,3554.7404,N,01430.4238,E,1,5,1,-1.98961828571429, M,0, M,0,*74,35.9123399147492,14.5070633332757,35.9123399147,14.5070633333,1,0.00,,3/28/2013 3:41:32 PM
$GPGGA,144133.600,3554.7404,N,01430.4238,E,1,5,1,0, M,0, M,0,*7B,$GPGGA,144133.600,3554.7404,N,01430.4238,E,1,5,1,-1.99457187096774, M,0, M,0,*7A,35.9123400684022,14.507063332952,35.9123400684,14.507063333,1,0.00,,3/28/2013 3:41:33 PM
$GPGGA,144134.614,3554.7404,N,01430.4238,E,1,5,1,0, M,0, M,0,*79,$GPGGA,144134.614,3554.7404,N,01430.4238,E,1,5,1,-2.08309028571429, M,0, M,0,*7C,35.9123404325955,14.5070633349746,35.9123404326,14.507063335,1,0.00,,3/28/2013 3:41:34 PM
$GPGGA,144135.628,3554.7404,N,01430.4238,E,1,5,1,0, M,0, M,0,*77,$GPGGA,144135.628,3554.7404,N,01430.4238,E,1,5,1,-2.10312, M,0, M,0,*47,35.9123406155365,14.5070633373852,35.9123406155,14.5070633374,1,0.00,,3/28/2013 3:41:35 PM
$GPGGA,144136.642,3554.7404,N,01430.4238,E,1,5,1,0, M,0, M,0,*78,$GPGGA,144136.642,3554.7404,N,01430.4238,E,1,5,1,-2.10312, M,0, M,0,*48,35.9123407615164,14.5070633391975,35.9123407615,14.5070633392,1,0.00,,3/28/2013 3:41:36 PM
$GPGGA,144137.656,3554.7405,N,01430.4238,E,1,5,1,0, M,0, M,0,*7D,$GPGGA,144137.656,3554.7405,N,01430.4238,E,1,5,1,-1.94622057142857, M,0, M,0,*7B,35.9123411097979,14.5070633462653,35.9123411098,14.5070633463,1,0.00,,3/28/2013 3:41:37 PM
$GPGGA,144138.670,3554.7405,N,01430.4238,E,1,5,1,0, M,0, M,0,*76,$GPGGA,144138.670,3554.7405,N,01430.4238,E,1,5,1,-1.892808, M,0, M,0,*77,35.9123412771983,14.5070633513767,35.9123412772,14.5070633514,1,0.00,,3/28/2013 3:41:38 PM
$GPGGA,144139.684,3554.7405,N,01430.4238,E,1,5,1,0, M,0, M,0,*7C,$GPGGA,144139.684,3554.7405,N,01430.4238,E,1,5,1,-1.892808, M,0, M,0,*7D,35.9123419970886,14.5070633780018,35.9123419971,14.507063378,1,0.00,,3/28/2013 3:41:39 PM
$GPGGA,144140.698,3554.7406,N,01430.4238,E,1,5,1,0, M,0, M,0,*7C,$GPGGA,144140.698,3554.7406,N,01430.4238,E,1,5,1,-1.892808, M,0, M,0,*7D,35.9123425036442,14.5070633997288,35.9123425036,14.5070633997,1,0.00,,3/28/2013 3:41:40 PM
$GPGGA,144141.712,3554.7406,N,01430.4238,E,1,5,1,0, M,0, M,0,*7E,$GPGGA,144141.712,3554.7406,N,01430.4238,E,1,5,1,-1.88173894736842, M,0, M,0,*70,35.9123429297475,14.5070634154736,35.9123429297,14.5070634155,1,0.00,,3/28/2013 3:41:41 PM
$GPGGA,144142.727,3554.7406,N,01430.4238,E,1,5,1,0, M,0, M,0,*7B,$GPGGA,144142.727,3554.7406,N,01430.4238,E,1,5,1,-0.0934720000000005, M,0, M,0,*76,35.9123435705913,14.507063441318,35.9123435706,14.5070634413,1,0.00,,3/28/2013 3:41:42 PM
$GPGGA,144143.740,3554.7406,N,01430.4238,E,1,5,1,0, M,0, M,0,*7B,$GPGGA,144143.740,3554.7406,N,01430.4238,E,1,5,1,-0.0133531428571432, M,0, M,0,*76,35.9123438600974,14.5070634519338,35.9123438601,14.5070634519,1,0.00,,3/28/2013 3:41:43 PM
$GPGGA,144144.754,3554.7407,N,01430.4238,E,1,5,1,0, M,0, M,0,*78,$GPGGA,144144.754,3554.7407,N,01430.4238,E,1,5,1,-0.0701040000000012, M,0, M,0,*7A,35.9123445731474,14.5070634692422,35.9123445731,14.5070634692,1,0.00,,3/28/2013 3:41:44 PM
$GPGGA,144145.768,3554.7407,N,01430.4238,E,1,5,1,0, M,0, M,0,*76,$GPGGA,144145.768,3554.7407,N,01430.4238,E,1,5,1,-0.174720738461538, M,0, M,0,*43,35.9123449330214,14.5070634720431,35.912344933,14.507063472,1,0.00,,3/28/2013 3:41:45 PM
$GPGGA,144146.783,3554.7407,N,01430.4238,E,1,5,1,0, M,0, M,0,*70,$GPGGA,144146.783,3554.7407,N,01430.4238,E,1,5,1,-0.0634274285714301, M,0, M,0,*7C,35.912345218002,14.5070634698149,35.912345218,14.5070634698,1,0.00,,3/28/2013 3:41:46 PM
$GPGGA,144147.797,3554.7407,N,01430.4238,E,1,5,1,0, M,0, M,0,*74,$GPGGA,144147.797,3554.7407,N,01430.4238,E,1,5,1,0.0634274285714291, M,0, M,0,*5D,35.912345437152,14.5070632515541,35.9123454372,14.5070632516,1,0.00,,3/28/2013 3:41:47 PM
$GPGGA,144148.810,3554.7407,N,01430.4238,E,1,5,1,0, M,0, M,0,*7B,$GPGGA,144148.810,3554.7407,N,01430.4238,E,1,5,1,0.0166914285714282, M,0, M,0,*5D,35.9123456607269,14.507063258553,35.9123456607,14.5070632586,1,0.00,,3/28/2013 3:41:48 PM
$GPGGA,144149.824,3554.7408,N,01430.4238,E,1,5,1,0, M,0, M,0,*72,$GPGGA,144149.824,3554.7408,N,01430.4238,E,1,5,1,-0.0767805714285723, M,0, M,0,*71,35.9123465439426,14.5070632966676,35.9123465439,14.5070632967,1,0.00,,3/28/2013 3:41:49 PM
$GPGGA,144150.838,3554.7408,N,01430.4238,E,1,5,1,0, M,0, M,0,*77,$GPGGA,144150.838,3554.7408,N,01430.4238,E,1,5,1,-0.196958857142858, M,0, M,0,*46,35.9123474746013,14.5070633469971,35.9123474746,14.507063347,1,0.00,,3/28/2013 3:41:50 PM
$GPGGA,144151.852,3554.7409,N,01430.4238,E,1,5,1,0, M,0, M,0,*7B,$GPGGA,144151.852,3554.7409,N,01430.4238,E,1,5,1,-0.146884571428571, M,0, M,0,*41,35.912348651531,14.5070634148254,35.9123486515,14.5070634148,1,0.00,,3/28/2013 3:41:51 PM
$GPGGA,144152.866,3554.7410,N,01430.4238,E,1,5,1,0, M,0, M,0,*77,$GPGGA,144152.866,3554.7410,N,01430.4238,E,1,5,1,0.0166914285714282, M,0, M,0,*51,35.9123500341752,14.5070634937116,35.9123500342,14.5070634937,1,0.00,,3/28/2013 3:41:52 PM
$GPGGA,144153.880,3554.7410,N,01430.4238,E,1,5,1,0, M,0, M,0,*7E,$GPGGA,144153.880,3554.7410,N,01430.4238,E,1,5,1,0, M,0, M,0,*7E,35.9123506337803,14.5070635236108,35.9123506338,14.5070635236,1,0.00,,3/28/2013 3:41:53 PM
$GPGGA,144154.894,3554.7406,N,01430.4238,E,1,5,1,0, M,0, M,0,*7B,$GPGGA,144154.894,3554.7410,N,01430.4229,E,1,5,1,0.0292099999999983, M,0, M,0,*59,35.9123432072518,14.5070633756938,35.9123494543,14.5070486471,2,0.00,,3/28/2013 3:41:54 PM
$GPGGA,144155.909,3554.7406,N,01430.4238,E,1,5,1,0, M,0, M,0,*7F,$GPGGA,144155.909,3554.7410,N,01430.4229,E,1,5,1,0.0262889999999999, M,0, M,0,*50,35.9123432072518,14.5070633756938,35.9123497055,14.50704879,2,0.00,,3/28/2013 3:41:55 PM
$GPGGA,144156.923,3554.7406,N,01430.4238,E,1,5,1,0, M,0, M,0,*74,$GPGGA,144156.923,3554.7410,N,01430.4230,E,1,5,1,-0.0920115000000008, M,0, M,0,*7E,35.9123432072518,14.5070633756938,35.9123500475,14.5070492203,2,0.00,,3/28/2013 3:41:56 PM
$GPGGA,144157.936,3554.7406,N,01430.4238,E,1,5,1,0, M,0, M,0,*71,$GPGGA,144157.936,3554.7410,N,01430.4230,E,1,5,1,-0.203739750000001, M,0, M,0,*42,35.9123432072518,14.5070633756938,35.9123502636,14.5070497388,2,0.00,,3/28/2013 3:41:57 PM
$GPGGA,144158.950,3554.7406,N,01430.4238,E,1,5,1,0, M,0, M,0,*7E,$GPGGA,144158.950,3554.7410,N,01430.4230,E,1,5,1,-0.149253677419356, M,0, M,0,*40,35.9123432072518,14.5070633756938,35.9123503305,14.5070501035,2,0.00,,3/28/2013 3:41:58 PM
$GPGGA,144159.964,3554.7406,N,01430.4238,E,1,5,1,0, M,0, M,0,*78,$GPGGA,144159.964,3554.7410,N,01430.4230,E,1,5,1,0, M,0, M,0,*77,35.9123432072518,14.5070633756938,35.9123502235,14.5070500495,2,0.00,,3/28/2013 3:41:59 PM
$GPGGA,144200.978,3554.7406,N,01430.4238,E,1,5,1,0, M,0, M,0,*7A,$GPGGA,144200.978,3554.7410,N,01430.4230,E,1,5,1,0.0610583225806449, M,0, M,0,*50,35.9123432072518,14.5070633756938,35.9123500421,14.5070496851,2,0.00,,3/28/2013 3:42:00 PM
$GPGGA,144201.992,3554.7406,N,01430.4238,E,1,5,1,0, M,0, M,0,*7F,$GPGGA,144201.992,3554.7410,N,01430.4230,E,1,5,1,0.210311999999999, M,0, M,0,*67,35.9123432072518,14.5070633756938,35.9123504359,14.5070497049,2,0.00,,3/28/2013 3:42:01 PM
$GPGGA,144203.006,3554.7406,N,01430.4238,E,1,5,1,0, M,0, M,0,*79,$GPGGA,144203.006,3554.7410,N,01430.4230,E,1,5,1,0.0262889999999999, M,0, M,0,*5E,35.9123432072518,14.5070633756938,35.9123502586,14.5070498068,2,0.00,,3/28/2013 3:42:03 PM
$GPGGA,144204.020,3554.7406,N,01430.4238,E,1,5,1,0, M,0, M,0,*7A,$GPGGA,144204.020,3554.7410,N,01430.4230,E,1,5,1,-0.00657225000000052, M,0, M,0,*40,35.9123432072518,14.5070633756938,35.912350214,14.5070502086,2,0.00,,3/28/2013 3:42:04 PM
$GPGGA,144205.035,3554.7406,N,01430.4238,E,1,5,1,0, M,0, M,0,*7F,$GPGGA,144205.035,3554.7410,N,01430.4231,E,1,5,1,-0.162822193548387, M,0, M,0,*41,35.9123432072518,14.5070633756938,35.9123501235,14.507050964,2,0.00,,3/28/2013 3:42:05 PM
$GPGGA,144206.049,3554.7406,N,01430.4238,E,1,5,1,0, M,0, M,0,*77,$GPGGA,144206.049,3554.7410,N,01430.4231,E,1,5,1,-0.282606750000001, M,0, M,0,*41,35.9123432072518,14.5070633756938,35.9123502733,14.5070517648,2,0.00,,3/28/2013 3:42:06 PM
$GPGGA,144207.063,3554.7406,N,01430.4238,E,1,5,1,0, M,0, M,0,*7E,$GPGGA,144207.063,3554.7410,N,01430.4230,E,1,5,1,-0.0328612500000004, M,0, M,0,*7F,35.9123432072518,14.5070633756938,35.9123497702,14.5070502641,2,0.00,,3/28/2013 3:42:07 PM
$GPGGA,144208.077,3554.7406,N,01430.4238,E,1,5,1,0, M,0, M,0,*74,$GPGGA,144208.077,3554.7409,N,01430.4229,E,1,5,1,0.00678425806451537, M,0, M,0,*60,35.9123432072518,14.5070633756938,35.9123486386,14.5070491394,2,0.00,,3/28/2013 3:42:08 PM
$GPGGA,144209.090,3554.7406,N,01430.4238,E,1,5,1,0, M,0, M,0,*7C,$GPGGA,144209.090,3554.7409,N,01430.4229,E,1,5,1,0.108342545454545, M,0, M,0,*64,35.9123432072518,14.5070633756938,35.9123490121,14.5070489443,2,0.00,,3/28/2013 3:42:09 PM
$GPGGA,144210.104,3554.7406,N,01430.4238,E,1,5,1,0, M,0, M,0,*78,$GPGGA,144210.104,3554.7410,N,01430.4229,E,1,5,1,0.184022999999999, M,0, M,0,*65,35.9123432072518,14.5070633756938,35.9123494513,14.507049005,2,0.00,,3/28/2013 3:42:10 PM
$GPGGA,144211.118,3554.7406,N,01430.4238,E,1,5,1,0, M,0, M,0,*74,$GPGGA,144211.118,3554.7410,N,01430.4230,E,1,5,1,0.00678425806451537, M,0, M,0,*60,35.9123432072518,14.5070633756938,35.9123500114,14.5070496151,2,0.00,,3/28/2013 3:42:11 PM
$GPGGA,144212.132,3554.7406,N,01430.4238,E,1,5,1,0, M,0, M,0,*7F,$GPGGA,144212.132,3554.7410,N,01430.4230,E,1,5,1,-0.144589500000001, M,0, M,0,*42,35.9123432072518,14.5070633756938,35.9123499968,14.50705014,2,0.00,,3/28/2013 3:42:12 PM
$GPGGA,144213.146,3554.7406,N,01430.4238,E,1,5,1,0, M,0, M,0,*7D,$GPGGA,144213.146,3554.7410,N,01430.4230,E,1,5,1,-0.203739750000001, M,0, M,0,*4E,35.9123432072518,14.5070633756938,35.9123500486,14.5070507262,2,0.00,,3/28/2013 3:42:13 PM
$GPGGA,144214.160,3554.7406,N,01430.4238,E,1,5,1,0, M,0, M,0,*7E,$GPGGA,144214.160,3554.7410,N,01430.4231,E,1,5,1,-0.1971675, M,0, M,0,*49,35.9123432072518,14.5070633756938,35.9123504354,14.5070512005,2,0.00,,3/28/2013 3:42:14 PM
$GPGGA,144215.174,3554.7406,N,01430.4238,E,1,5,1,0, M,0, M,0,*7A,$GPGGA,144215.174,3554.7410,N,01430.4230,E,1,5,1,-0.0722947500000003, M,0, M,0,*7D,35.9123432072518,14.5070633756938,35.9123497613,14.5070504182,2,0.00,,3/28/2013 3:42:15 PM
$GPGGA,144216.188,3554.7406,N,01430.4238,E,1,5,1,0, M,0, M,0,*7A,$GPGGA,144216.188,3554.7410,N,01430.4230,E,1,5,1,0.0985837499999991, M,0, M,0,*5F,35.9123432072518,14.5070633756938,35.9123493568,14.5070493506,2,0.00,,3/28/2013 3:42:16 PM
$GPGGA,144217.202,3554.7406,N,01430.4238,E,1,5,1,0, M,0, M,0,*7A,$GPGGA,144217.202,3554.7410,N,01430.4230,E,1,5,1,0.0328612499999993, M,0, M,0,*59,35.9123432072518,14.5070633756938,35.9123493968,14.5070493652,2,0.00,,3/28/2013 3:42:17 PM
$GPGGA,144218.216,3554.7406,N,01430.4238,E,1,5,1,0, M,0, M,0,*70,$GPGGA,144218.216,3554.7410,N,01430.4230,E,1,5,1,0, M,0, M,0,*7F,35.9123432072518,14.5070633756938,35.9123493083,14.507049483,2,0.00,,3/28/2013 3:42:18 PM
$GPGGA,144219.230,3554.7406,N,01430.4238,E,1,5,1,0, M,0, M,0,*75,$GPGGA,144219.230,3554.7410,N,01430.4230,E,1,5,1,-0.105156000000001, M,0, M,0,*4E,35.9123432072518,14.5070633756938,35.9123496943,14.5070500787,2,0.00,,3/28/2013 3:42:19 PM
$GPGGA,144220.245,3554.7406,N,01430.4238,E,1,5,1,0, M,0, M,0,*7D,$GPGGA,144220.245,3554.7410,N,01430.4230,E,1,5,1,-0.16430625, M,0, M,0,*70,35.9123432072518,14.5070633756938,35.9123500029,14.5070504603,2,0.00,,3/28/2013 3:42:20 PM
$GPGGA,144221.258,3554.7406,N,01430.4238,E,1,5,1,0, M,0, M,0,*70,$GPGGA,144221.258,3554.7410,N,01430.4230,E,1,5,1,-0.210312, M,0, M,0,*7F,35.9123432072518,14.5070633756938,35.9123497698,14.5070503919,2,0.00,,3/28/2013 3:42:21 PM
$GPGGA,144222.273,3554.7406,N,01430.4238,E,1,5,1,0, M,0, M,0,*7A,$GPGGA,144222.273,3554.7416,N,01430.4193,E,1,5,1,-0.0963930000000011, M,0, M,0,*7C,35.9123432072518,14.5070633756938,35.912360741,14.5069890637,3,0.00,,3/28/2013 3:42:22 PM
$GPGGA,144223.287,3554.7406,N,01430.4238,E,1,5,1,0, M,0, M,0,*70,$GPGGA,144223.287,3554.7415,N,01430.4192,E,1,5,1,0, M,0, M,0,*71,35.9123432072518,14.5070633756938,35.9123579039,14.506987391,3,0.00,,3/28/2013 3:42:23 PM
$GPGGA,144224.301,3554.7406,N,01430.4238,E,1,5,1,0, M,0, M,0,*78,$GPGGA,144224.301,3554.7414,N,01430.4191,E,1,5,1,0, M,0, M,0,*7B,35.9123432072518,14.5070633756938,35.9123567101,14.5069857908,3,0.00,,3/28/2013 3:42:24 PM
$GPGGA,144225.315,3554.7406,N,01430.4238,E,1,5,1,0, M,0, M,0,*7C,$GPGGA,144225.315,3554.7413,N,01430.4192,E,1,5,1,0, M,0, M,0,*7B,35.9123432072518,14.5070633756938,35.9123543261,14.5069858845,3,0.00,,3/28/2013 3:42:25 PM
$GPGGA,144226.329,3554.7406,N,01430.4238,E,1,5,1,0, M,0, M,0,*70,$GPGGA,144226.329,3554.7413,N,01430.4192,E,1,5,1,0, M,0, M,0,*77,35.9123432072518,14.5070633756938,35.9123545741,14.5069860899,3,0.00,,3/28/2013 3:42:26 PM
$GPGGA,144227.343,3554.7406,N,01430.4238,E,1,5,1,0, M,0, M,0,*7D,$GPGGA,144227.343,3554.7413,N,01430.4193,E,1,5,1,-0.130193142857144, M,0, M,0,*4D,35.9123432072518,14.5070633756938,35.9123548972,14.5069877194,3,0.00,,3/28/2013 3:42:27 PM
$GPGGA,144228.356,3554.7406,N,01430.4238,E,1,5,1,0, M,0, M,0,*76,$GPGGA,144228.356,3554.7412,N,01430.4193,E,1,5,1,-0.11016342857143, M,0, M,0,*7C,35.9123432072518,14.5070633756938,35.912352569,14.5069875761,3,0.00,,3/28/2013 3:42:28 PM
$GPGGA,144229.370,3554.7406,N,01430.4238,E,1,5,1,0, M,0, M,0,*73,$GPGGA,144229.370,3554.7413,N,01430.4193,E,1,5,1,-0.140208, M,0, M,0,*79,35.9123432072518,14.5070633756938,35.9123557293,14.5069879492,3,0.00,,3/28/2013 3:42:29 PM
$GPGGA,144230.384,3554.7406,N,01430.4238,E,1,5,1,0, M,0, M,0,*70,$GPGGA,144230.384,3554.7413,N,01430.4193,E,1,5,1,-0.200297142857142, M,0, M,0,*41,35.9123432072518,14.5070633756938,35.9123550708,14.5069885582,3,0.00,,3/28/2013 3:42:30 PM
$GPGGA,144231.398,3554.7406,N,01430.4238,E,1,5,1,0, M,0, M,0,*7C,$GPGGA,144231.398,3554.7412,N,01430.4193,E,1,5,1,-0.124275272727273, M,0, M,0,*4C,35.9123432072518,14.5070633756938,35.9123531925,14.5069884862,3,0.00,,3/28/2013 3:42:31 PM
$GPGGA,144232.412,3554.7406,N,01430.4238,E,1,5,1,0, M,0, M,0,*7A,$GPGGA,144232.412,3554.7413,N,01430.4193,E,1,5,1,0, M,0, M,0,*7C,35.9123432072518,14.5070633756938,35.9123554863,14.5069878547,3,0.00,,3/28/2013 3:42:32 PM
$GPGGA,144233.426,3554.7406,N,01430.4238,E,1,5,1,0, M,0, M,0,*7C,$GPGGA,144233.426,3554.7412,N,01430.4192,E,1,5,1,0, M,0, M,0,*7A,35.9123432072518,14.5070633756938,35.912353029,14.5069871127,3,0.00,,3/28/2013 3:42:33 PM
$GPGGA,144234.440,3554.7406,N,01430.4238,E,1,5,1,0, M,0, M,0,*7B,$GPGGA,144234.440,3554.7412,N,01430.4192,E,1,5,1,0, M,0, M,0,*7D,35.9123432072518,14.5070633756938,35.9123540607,14.50698679,3,0.00,,3/28/2013 3:42:34 PM
$GPGGA,144235.454,3554.7406,N,01430.4238,E,1,5,1,0, M,0, M,0,*7F,$GPGGA,144235.454,3554.7411,N,01430.4193,E,1,5,1,-0.0901337142857155, M,0, M,0,*7B,35.9123432072518,14.5070633756938,35.9123523281,14.5069878539,3,0.00,,3/28/2013 3:42:35 PM
$GPGGA,144236.468,3554.7406,N,01430.4238,E,1,5,1,0, M,0, M,0,*73,$GPGGA,144236.468,3554.7412,N,01430.4193,E,1,5,1,-0.086036727272727, M,0, M,0,*4B,35.9123432072518,14.5070633756938,35.9123529238,14.506987537,3,0.00,,3/28/2013 3:42:36 PM
$GPGGA,144237.482,3554.7406,N,01430.4238,E,1,5,1,0, M,0, M,0,*76,$GPGGA,144237.482,3554.7412,N,01430.4193,E,1,5,1,-0.140208, M,0, M,0,*7D,35.9123432072518,14.5070633756938,35.9123539316,14.5069881649,3,0.00,,3/28/2013 3:42:37 PM
$GPGGA,144238.496,3554.7406,N,01430.4238,E,1,5,1,0, M,0, M,0,*7C,$GPGGA,144238.496,3554.7413,N,01430.4193,E,1,5,1,-0.170252571428572, M,0, M,0,*47,35.9123432072518,14.5070633756938,35.9123543347,14.5069881546,3,0.00,,3/28/2013 3:42:38 PM
$GPGGA,144239.511,3554.7406,N,01430.4238,E,1,5,1,0, M,0, M,0,*73,$GPGGA,144239.511,3554.7413,N,01430.4193,E,1,5,1,-0.152954181818182, M,0, M,0,*4A,35.9123432072518,14.5070633756938,35.9123542048,14.5069879627,3,0.00,,3/28/2013 3:42:39 PM
$GPGGA,144240.525,3554.7406,N,01430.4238,E,1,5,1,0, M,0, M,0,*7A,$GPGGA,144240.525,3554.7412,N,01430.4193,E,1,5,1,-0.0300445714285726, M,0, M,0,*76,35.9123432072518,14.5070633756938,35.9123533331,14.506987633,3,0.00,,3/28/2013 3:42:40 PM
$GPGGA,144241.539,3554.7406,N,01430.4238,E,1,5,1,0, M,0, M,0,*76,$GPGGA,144241.539,3554.7410,N,01430.4179,E,1,5,1,0, M,0, M,0,*77,35.9123432072518,14.5070633756938,35.9123508209,14.5069651437,3,2.00,,3/28/2013 3:42:41 PM
$GPGGA,144242.553,3554.7406,N,01430.4238,E,1,5,1,0, M,0, M,0,*79,$GPGGA,144242.553,3554.7410,N,01430.4166,E,1,5,1,-0.060089142857143, M,0, M,0,*49,35.9123432072518,14.5070633756938,35.9123500761,14.5069428839,3,4.00,,3/28/2013 3:42:42 PM
$GPGGA,144243.567,3554.7406,N,01430.4238,E,1,5,1,0, M,0, M,0,*7F,$GPGGA,144243.567,3554.7409,N,01430.4167,E,1,5,1,-0.170252571428572, M,0, M,0,*44,35.9123432072518,14.5070633756938,35.9123483755,14.5069442916,3,4.00,,3/28/2013 3:42:43 PM
$GPGGA,144244.580,3554.7406,N,01430.4238,E,1,5,1,0, M,0, M,0,*71,$GPGGA,144244.580,3554.7413,N,01430.4168,E,1,5,1,-0.210312, M,0, M,0,*73,35.9123432072518,14.5070633756938,35.912355281,14.5069460227,3,4.00,,3/28/2013 3:42:44 PM
$GPGGA,144245.594,3554.7406,N,01430.4238,E,1,5,1,0, M,0, M,0,*75,$GPGGA,144245.594,3554.7413,N,01430.4167,E,1,5,1,-0.150222857142857, M,0, M,0,*4A,35.9123432072518,14.5070633756938,35.9123556419,14.5069456224,3,4.00,,3/28/2013 3:42:45 PM
$GPGGA,144246.608,3554.7406,N,01430.4238,E,1,5,1,0, M,0, M,0,*70,$GPGGA,144246.608,3554.7416,N,01430.4166,E,1,5,1,0.0100148571428572, M,0, M,0,*56,35.9123432072518,14.5070633756938,35.9123596546,14.5069439996,3,4.00,,3/28/2013 3:42:46 PM
$GPGGA,144247.622,3554.7406,N,01430.4238,E,1,5,1,0, M,0, M,0,*79,$GPGGA,144247.622,3554.7411,N,01430.4165,E,1,5,1,0, M,0, M,0,*74,35.9123432072518,14.5070633756938,35.9123519603,14.5069423465,3,4.00,,3/28/2013 3:42:47 PM
$GPGGA,144248.636,3554.7406,N,01430.4238,E,1,5,1,0, M,0, M,0,*73,$GPGGA,144248.636,3554.7407,N,01430.4165,E,1,5,1,0.0300445714285715, M,0, M,0,*5F,35.9123432072518,14.5070633756938,35.9123449917,14.5069416748,3,4.00,,3/28/2013 3:42:48 PM
$GPGGA,144249.650,3554.7406,N,01430.4238,E,1,5,1,0, M,0, M,0,*72,$GPGGA,144249.650,3554.7408,N,01430.4165,E,1,5,1,0.0300445714285715, M,0, M,0,*51,35.9123432072518,14.5070633756938,35.912346589,14.5069420861,3,4.00,,3/28/2013 3:42:49 PM
$GPGGA,144250.664,3554.7406,N,01430.4238,E,1,5,1,0, M,0, M,0,*7D,$GPGGA,144250.664,3554.7410,N,01430.4166,E,1,5,1,-0.160237714285715, M,0, M,0,*4E,35.9123432072518,14.5070633756938,35.9123506711,14.5069435413,3,4.00,,3/28/2013 3:42:50 PM
$GPGGA,144251.678,3554.7406,N,01430.4238,E,1,5,1,0, M,0, M,0,*71,$GPGGA,144251.678,3554.7420,N,01430.4168,E,1,5,1,-0.210312, M,0, M,0,*73,35.9123432072518,14.5070633756938,35.9123673378,14.506946684,3,4.00,,3/28/2013 3:42:51 PM
$GPGGA,144252.692,3554.7406,N,01430.4238,E,1,5,1,0, M,0, M,0,*76,$GPGGA,144252.692,3554.7428,N,01430.4170,E,1,5,1,-0.100148571428572, M,0, M,0,*47,35.9123432072518,14.5070633756938,35.9123794112,14.5069501001,3,4.00,,3/28/2013 3:42:52 PM
$GPGGA,144253.706,3554.7406,N,01430.4238,E,1,5,1,0, M,0, M,0,*7B,$GPGGA,144253.706,3554.7425,N,01430.4168,E,1,5,1,0, M,0, M,0,*7C,35.9123432072518,14.5070633756938,35.912374535,14.5069470076,3,4.00,,3/28/2013 3:42:53 PM
$GPGGA,144254.720,3554.7406,N,01430.4238,E,1,5,1,0, M,0, M,0,*78,$GPGGA,144254.720,3554.7422,N,01430.4166,E,1,5,1,0, M,0, M,0,*76,35.9123432072518,14.5070633756938,35.9123692298,14.5069438787,3,4.00,,3/28/2013 3:42:54 PM
$GPGGA,144255.734,3554.7406,N,01430.4238,E,1,5,1,0, M,0, M,0,*7C,$GPGGA,144255.734,3554.7419,N,01430.4165,E,1,5,1,0.0400594285714276, M,0, M,0,*55,35.9123432072518,14.5070633756938,35.9123643134,14.5069422867,3,4.00,,3/28/2013 3:42:55 PM
$GPGGA,144256.749,3554.7406,N,01430.4238,E,1,5,1,0, M,0, M,0,*75,$GPGGA,144256.749,3554.7420,N,01430.4166,E,1,5,1,0.0100148571428572, M,0, M,0,*56,35.9123432072518,14.5070633756938,35.9123668809,14.5069437733,3,4.00,,3/28/2013 3:42:56 PM
$GPGGA,144257.763,3554.7406,N,01430.4238,E,1,5,1,0, M,0, M,0,*7C,$GPGGA,144257.763,3554.7426,N,01430.4169,E,1,5,1,0, M,0, M,0,*79,35.9123432072518,14.5070633756938,35.9123773274,14.5069487483,3,4.00,,3/28/2013 3:42:57 PM
$GPGGA,144258.777,3554.7406,N,01430.4238,E,1,5,1,0, M,0, M,0,*76,$GPGGA,144258.777,3554.7428,N,01430.4171,E,1,5,1,-0.0191192727272737, M,0, M,0,*72,35.9123432072518,14.5070633756938,35.9123806231,14.5069513275,3,4.00,,3/28/2013 3:42:58 PM
$GPGGA,144259.791,3554.7406,N,01430.4238,E,1,5,1,0, M,0, M,0,*7F,$GPGGA,144259.791,3554.7427,N,01430.4170,E,1,5,1,-0.11016342857143, M,0, M,0,*7E,35.9123432072518,14.5070633756938,35.9123789808,14.5069507834,3,4.00,,3/28/2013 3:42:59 PM
$GPGGA,144300.805,3554.7406,N,01430.4238,E,1,5,1,0, M,0, M,0,*70,$GPGGA,144300.805,3554.7428,N,01430.4171,E,1,5,1,-0.200297142857142, M,0, M,0,*45,35.9123432072518,14.5070633756938,35.9123802771,14.5069514163,3,4.00,,3/28/2013 3:43:00 PM
$GPGGA,144301.819,3554.7406,N,01430.4238,E,1,5,1,0, M,0, M,0,*7C,$GPGGA,144301.819,3554.7428,N,01430.4170,E,1,5,1,-0.180267428571429, M,0, M,0,*44,35.9123432072518,14.5070633756938,35.9123803993,14.5069501501,3,4.00,,3/28/2013 3:43:01 PM
$GPGGA,144302.833,3554.7406,N,01430.4238,E,1,5,1,0, M,0, M,0,*77,$GPGGA,144302.833,3554.7430,N,01430.4170,E,1,5,1,0, M,0, M,0,*7D,35.9123432072518,14.5070633756938,35.9123825996,14.506950653,3,4.00,,3/28/2013 3:43:02 PM
$GPGGA,144303.846,3554.7406,N,01430.4238,E,1,5,1,0, M,0, M,0,*74,$GPGGA,144303.846,3554.7422,N,01430.4167,E,1,5,1,0, M,0, M,0,*7B,35.9123432072518,14.5070633756938,35.9123701302,14.5069442266,3,4.00,,3/28/2013 3:43:03 PM
$GPGGA,144304.860,3554.7406,N,01430.4238,E,1,5,1,0, M,0, M,0,*77,$GPGGA,144304.860,3554.7425,N,01430.4168,E,1,5,1,0, M,0, M,0,*70,35.9123432072518,14.5070633756938,35.9123748418,14.5069459575,3,4.00,,3/28/2013 3:43:04 PM
$GPGGA,144305.874,3554.7406,N,01430.4238,E,1,5,1,0, M,0, M,0,*73,$GPGGA,144305.874,3554.7423,N,01430.4167,E,1,5,1,0, M,0, M,0,*7D,35.9123432072518,14.5070633756938,35.9123716343,14.5069450858,3,4.00,,3/28/2013 3:43:05 PM
$GPGGA,144306.888,3554.7406,N,01430.4238,E,1,5,1,0, M,0, M,0,*73,$GPGGA,144306.888,3554.7424,N,01430.4167,E,1,5,1,-0.0100148571428582, M,0, M,0,*77,35.9123432072518,14.5070633756938,35.9123730727,14.5069451826,3,4.00,,3/28/2013 3:43:06 PM
$GPGGA,144307.902,3554.7406,N,01430.4238,E,1,5,1,0, M,0, M,0,*71,$GPGGA,144307.902,3554.7428,N,01430.4170,E,1,5,1,-0.140208, M,0, M,0,*7E,35.9123432072518,14.5070633756938,35.9123797766,14.5069498761,3,4.00,,3/28/2013 3:43:07 PM
$GPGGA,144308.916,3554.7406,N,01430.4238,E,1,5,1,0, M,0, M,0,*7B,$GPGGA,144308.916,3554.7427,N,01430.4170,E,1,5,1,-0.200752363636364, M,0, M,0,*42,35.9123432072518,14.5070633756938,35.91237903,14.5069501277,3,4.00,,3/28/2013 3:43:08 PM
$GPGGA,144309.930,3554.7406,N,01430.4238,E,1,5,1,0, M,0, M,0,*7E,$GPGGA,144309.930,3554.7430,N,01430.4172,E,1,5,1,-0.200297142857142, M,0, M,0,*41,35.9123432072518,14.5070633756938,35.9123828869,14.5069525109,3,4.00,,3/28/2013 3:43:09 PM
$GPGGA,144310.944,3554.7406,N,01430.4238,E,1,5,1,0, M,0, M,0,*75,$GPGGA,144310.944,3554.7427,N,01430.4169,E,1,5,1,-0.0764770909090917, M,0, M,0,*71,35.9123432072518,14.5070633756938,35.912378518,14.5069488064,3,4.00,,3/28/2013 3:43:10 PM
$GPGGA,144311.958,3554.7406,N,01430.4238,E,1,5,1,0, M,0, M,0,*79,$GPGGA,144311.958,3554.7427,N,01430.4169,E,1,5,1,0, M,0, M,0,*7D,35.9123432072518,14.5070633756938,35.9123788541,14.5069477123,3,4.00,,3/28/2013 3:43:11 PM
$GPGGA,144312.972,3554.7406,N,01430.4238,E,1,5,1,0, M,0, M,0,*72,$GPGGA,144312.972,3554.7424,N,01430.4167,E,1,5,1,0, M,0, M,0,*7B,35.9123432072518,14.5070633756938,35.9123737386,14.5069450019,3,4.00,,3/28/2013 3:43:12 PM
$GPGGA,144313.986,3554.7406,N,01430.4238,E,1,5,1,0, M,0, M,0,*78,$GPGGA,144313.986,3554.7419,N,01430.4166,E,1,5,1,0, M,0, M,0,*7E,35.9123432072518,14.5070633756938,35.9123652433,14.5069428206,3,4.00,,3/28/2013 3:43:13 PM
$GPGGA,144315.001,3554.7406,N,01430.4238,E,1,5,1,0, M,0, M,0,*78,$GPGGA,144315.001,3554.7421,N,01430.4167,E,1,5,1,-0.0400594285714286, M,0, M,0,*7A,35.9123432072518,14.5070633756938,35.9123680081,14.5069443806,3,4.00,,3/28/2013 3:43:15 PM
$GPGGA,144316.015,3554.7406,N,01430.4238,E,1,5,1,0, M,0, M,0,*7E,$GPGGA,144316.015,3554.7418,N,01430.4168,E,1,5,1,-0.210312, M,0, M,0,*77,35.9123432072518,14.5070633756938,35.9123641343,14.5069458817,3,4.00,,3/28/2013 3:43:16 PM
$GPGGA,144317.029,3554.7406,N,01430.4238,E,1,5,1,0, M,0, M,0,*70,$GPGGA,144317.029,3554.7419,N,01430.4168,E,1,5,1,-0.180267428571429, M,0, M,0,*43,35.9123432072518,14.5070633756938,35.912365377,14.5069463615,3,4.00,,3/28/2013 3:43:17 PM
$GPGGA,144318.043,3554.7406,N,01430.4238,E,1,5,1,0, M,0, M,0,*73,$GPGGA,144318.043,3554.7422,N,01430.4168,E,1,5,1,-0.190282285714286, M,0, M,0,*41,35.9123432072518,14.5070633756938,35.9123701813,14.5069474798,3,4.00,,3/28/2013 3:43:18 PM
$GPGGA,144319.057,3554.7406,N,01430.4238,E,1,5,1,0, M,0, M,0,*77,$GPGGA,144319.057,3554.7420,N,01430.4167,E,1,5,1,-0.028678909090909, M,0, M,0,*43,35.9123432072518,14.5070633756938,35.912367355,14.5069455097,3,4.00,,3/28/2013 3:43:19 PM
$GPGGA,144320.071,3554.7406,N,01430.4238,E,1,5,1,0, M,0, M,0,*79,$GPGGA,144320.071,3554.7423,N,01430.4168,E,1,5,1,0, M,0, M,0,*78,35.9123432072518,14.5070633756938,35.9123714273,14.5069458895,3,4.00,,3/28/2013 3:43:20 PM
$GPGGA,144321.085,3554.7406,N,01430.4238,E,1,5,1,0, M,0, M,0,*73,$GPGGA,144321.085,3554.7418,N,01430.4167,E,1,5,1,-0.0801188571428573, M,0, M,0,*72,35.9123432072518,14.5070633756938,35.9123625274,14.506945505,3,4.00,,3/28/2013 3:43:21 PM
$GPGGA,144322.099,3554.7406,N,01430.4238,E,1,5,1,0, M,0, M,0,*7D,$GPGGA,144322.099,3554.7420,N,01430.4167,E,1,5,1,0, M,0, M,0,*70,35.9123432072518,14.5070633756938,35.9123672587,14.5069453441,3,4.00,,3/28/2013 3:43:22 PM
$GPGGA,144323.113,3554.7406,N,01430.4238,E,1,5,1,0, M,0, M,0,*7F,$GPGGA,144323.113,3554.7419,N,01430.4168,E,1,5,1,-0.100148571428572, M,0, M,0,*45,35.9123432072518,14.5070633756938,35.9123650825,14.5069459021,3,4.00,,3/28/2013 3:43:23 PM
$GPGGA,144324.126,3554.7406,N,01430.4238,E,1,5,1,0, M,0, M,0,*7E,$GPGGA,144324.126,3554.7416,N,01430.4168,E,1,5,1,-0.11016342857143, M,0, M,0,*74,35.9123432072518,14.5070633756938,35.9123602881,14.5069460523,3,4.00,,3/28/2013 3:43:24 PM
$GPGGA,144325.140,3554.7406,N,01430.4238,E,1,5,1,0, M,0, M,0,*7F,$GPGGA,144325.140,3554.7422,N,01430.4168,E,1,5,1,0, M,0, M,0,*7F,35.9123432072518,14.5070633756938,35.9123691932,14.5069460431,3,4.00,,3/28/2013 3:43:25 PM
$GPGGA,144326.154,3554.7406,N,01430.4238,E,1,5,1,0, M,0, M,0,*79,$GPGGA,144326.154,3554.7415,N,01430.4166,E,1,5,1,-0.0200297142857143, M,0, M,0,*75,35.9123432072518,14.5070633756938,35.9123579569,14.506943825,3,4.00,,3/28/2013 3:43:26 PM
$GPGGA,144327.168,3554.7406,N,01430.4238,E,1,5,1,0, M,0, M,0,*77,$GPGGA,144327.168,3554.7414,N,01430.4166,E,1,5,1,0, M,0, M,0,*7C,35.9123432072518,14.5070633756938,35.9123572281,14.5069431338,3,4.00,,3/28/2013 3:43:27 PM
$GPGGA,144328.182,3554.7406,N,01430.4238,E,1,5,1,0, M,0, M,0,*7C,$GPGGA,144328.182,3554.7417,N,01430.4166,E,1,5,1,-0.0100148571428582, M,0, M,0,*79,35.9123432072518,14.5070633756938,35.9123623203,14.5069441188,3,4.00,,3/28/2013 3:43:28 PM
$GPGGA,144329.196,3554.7406,N,01430.4238,E,1,5,1,0, M,0, M,0,*78,$GPGGA,144329.196,3554.7412,N,01430.4167,E,1,5,1,-0.0400594285714286, M,0, M,0,*7A,35.9123432072518,14.5070633756938,35.9123537786,14.506944647,3,4.00,,3/28/2013 3:43:29 PM
$GPGGA,144330.210,3554.7406,N,01430.4238,E,1,5,1,0, M,0, M,0,*7D,$GPGGA,144330.210,3554.7417,N,01430.4167,E,1,5,1,-0.0191192727272737, M,0, M,0,*72,35.9123432072518,14.5070633756938,35.9123616421,14.506945822,3,4.00,,3/28/2013 3:43:30 PM
$GPGGA,144331.224,3554.7406,N,01430.4238,E,1,5,1,0, M,0, M,0,*7B,$GPGGA,144331.224,3554.7412,N,01430.4167,E,1,5,1,-0.0300445714285726, M,0, M,0,*7C,35.9123432072518,14.5070633756938,35.9123538992,14.5069445234,3,4.00,,3/28/2013 3:43:31 PM
$GPGGA,144332.239,3554.7406,N,01430.4238,E,1,5,1,0, M,0, M,0,*74,$GPGGA,144332.239,3554.7418,N,01430.4167,E,1,5,1,0, M,0, M,0,*72,35.9123432072518,14.5070633756938,35.9123626294,14.5069448241,3,4.00,,3/28/2013 3:43:32 PM
$GPGGA,144333.253,3554.7406,N,01430.4238,E,1,5,1,0, M,0, M,0,*79,$GPGGA,144333.253,3554.7415,N,01430.4167,E,1,5,1,-0.060089142857143, M,0, M,0,*4D,35.9123432072518,14.5070633756938,35.9123589177,14.5069454667,3,4.00,,3/28/2013 3:43:33 PM
$GPGGA,144334.267,3554.7406,N,01430.4238,E,1,5,1,0, M,0, M,0,*79,$GPGGA,144334.267,3554.7416,N,01430.4168,E,1,5,1,-0.00955963636363742, M,0, M,0,*4C,35.9123432072518,14.5070633756938,35.912359268,14.5069458551,3,4.00,,3/28/2013 3:43:34 PM
$GPGGA,144335.281,3554.7406,N,01430.4238,E,1,5,1,0, M,0, M,0,*70,$GPGGA,144335.281,3554.7419,N,01430.4168,E,1,5,1,0, M,0, M,0,*78,35.9123432072518,14.5070633756938,35.9123643385,14.5069464592,3,4.00,,3/28/2013 3:43:35 PM
$GPGGA,144336.295,3554.7406,N,01430.4238,E,1,5,1,0, M,0, M,0,*76,$GPGGA,144336.295,3554.7414,N,01430.4167,E,1,5,1,0, M,0, M,0,*7C,35.9123432072518,14.5070633756938,35.9123573994,14.5069458133,3,4.00,,3/28/2013 3:43:36 PM
$GPGGA,144337.309,3554.7406,N,01430.4238,E,1,5,1,0, M,0, M,0,*73,$GPGGA,144337.309,3554.7418,N,01430.4167,E,1,5,1,0, M,0, M,0,*75,35.9123432072518,14.5070633756938,35.9123625774,14.5069458185,3,4.00,,3/28/2013 3:43:37 PM
$GPGGA,144338.323,3554.7406,N,01430.4238,E,1,5,1,0, M,0, M,0,*74,$GPGGA,144338.323,3554.7416,N,01430.4166,E,1,5,1,0, M,0, M,0,*7D,35.9123432072518,14.5070633756938,35.9123600227,14.5069439721,3,4.00,,3/28/2013 3:43:38 PM
$GPGGA,144339.337,3554.7406,N,01430.4238,E,1,5,1,0, M,0, M,0,*70,$GPGGA,144339.337,3554.7416,N,01430.4166,E,1,5,1,0, M,0, M,0,*79,35.9123432072518,14.5070633756938,35.9123595052,14.5069434985,3,4.00,,3/28/2013 3:43:39 PM
$GPGGA,144340.351,3554.7406,N,01430.4238,E,1,5,1,0, M,0, M,0,*7E,$GPGGA,144340.351,3554.7416,N,01430.4167,E,1,5,1,-0.114715636363637, M,0, M,0,*45,35.9123432072518,14.5070633756938,35.9123605985,14.5069448336,3,4.00,,3/28/2013 3:43:40 PM
$GPGGA,144341.365,3554.7406,N,01430.4238,E,1,5,1,0, M,0, M,0,*78,$GPGGA,144341.365,3554.7413,N,01430.4167,E,1,5,1,0, M,0, M,0,*75,35.9123432072518,14.5070633756938,35.9123551651,14.5069442986,3,4.00,,3/28/2013 3:43:41 PM
$GPGGA,144342.379,3554.7406,N,01430.4238,E,1,5,1,0, M,0, M,0,*76,$GPGGA,144342.379,3554.7414,N,01430.4166,E,1,5,1,0.0200297142857132, M,0, M,0,*50,35.9123432072518,14.5070633756938,35.9123558911,14.5069429362,3,4.00,,3/28/2013 3:43:42 PM
$GPGGA,144343.393,3554.7406,N,01430.4238,E,1,5,1,0, M,0, M,0,*73,$GPGGA,144343.393,3554.7415,N,01430.4164,E,1,5,1,0.330490285714285, M,0, M,0,*6A,35.9123432072518,14.5070633756938,35.9123576948,14.5069402096,3,4.00,,3/28/2013 3:43:43 PM
$GPGGA,144344.406,3554.7406,N,01430.4238,E,1,5,1,0, M,0, M,0,*7F,$GPGGA,144344.406,3554.7412,N,01430.4163,E,1,5,1,0.470698285714286, M,0, M,0,*6C,35.9123432072518,14.5070633756938,35.9123536717,14.5069386076,3,4.00,,3/28/2013 3:43:44 PM
$GPGGA,144345.420,3554.7406,N,01430.4238,E,1,5,1,0, M,0, M,0,*7A,$GPGGA,144345.420,3554.7414,N,01430.4162,E,1,5,1,0.681010285714286, M,0, M,0,*64,35.9123432072518,14.5070633756938,35.9123563421,14.5069370636,3,4.00,,3/28/2013 3:43:45 PM
$GPGGA,144346.434,3554.7406,N,01430.4238,E,1,5,1,0, M,0, M,0,*7C,$GPGGA,144346.434,3554.7408,N,01430.4161,E,1,5,1,0.901337142857142, M,0, M,0,*66,35.9123432072518,14.5070633756938,35.9123465146,14.5069355874,3,4.00,,3/28/2013 3:43:46 PM
$GPGGA,144347.448,3554.7406,N,01430.4238,E,1,5,1,0, M,0, M,0,*76,$GPGGA,144347.448,3554.7407,N,01430.4161,E,1,5,1,0.891322285714285, M,0, M,0,*67,35.9123432072518,14.5070633756938,35.9123448529,14.5069353819,3,4.00,,3/28/2013 3:43:47 PM
$GPGGA,144348.462,3554.7406,N,01430.4238,E,1,5,1,0, M,0, M,0,*71,$GPGGA,144348.462,3554.7409,N,01430.4161,E,1,5,1,0.783890181818181, M,0, M,0,*63,35.9123432072518,14.5070633756938,35.9123489856,14.506935356,3,4.00,,3/28/2013 3:43:48 PM
$GPGGA,144349.477,3554.7406,N,01430.4238,E,1,5,1,0, M,0, M,0,*74,$GPGGA,144349.477,3554.7410,N,01430.4162,E,1,5,1,0.640950857142857, M,0, M,0,*68,35.9123432072518,14.5070633756938,35.9123508198,14.5069360946,3,4.00,,3/28/2013 3:43:49 PM
$GPGGA,144350.491,3554.7406,N,01430.4238,E,1,5,1,0, M,0, M,0,*74,$GPGGA,144350.491,3554.7413,N,01430.4162,E,1,5,1,0.630935999999999, M,0, M,0,*61,35.9123432072518,14.5070633756938,35.9123551985,14.5069371203,3,4.00,,3/28/2013 3:43:50 PM
$GPGGA,144351.505,3554.7406,N,01430.4238,E,1,5,1,0, M,0, M,0,*79,$GPGGA,144351.505,3554.7411,N,01430.4162,E,1,5,1,0.630935999999999, M,0, M,0,*6E,35.9123432072518,14.5070633756938,35.9123510004,14.5069369964,3,4.00,,3/28/2013 3:43:51 PM
$GPGGA,144352.519,3554.7406,N,01430.4238,E,1,5,1,0, M,0, M,0,*77,$GPGGA,144352.519,3554.7413,N,01430.4163,E,1,5,1,0.630935999999999, M,0, M,0,*63,35.9123432072518,14.5070633756938,35.9123543303,14.5069376339,3,4.00,,3/28/2013 3:43:52 PM
$GPGGA,144353.533,3554.7406,N,01430.4238,E,1,5,1,0, M,0, M,0,*7E,$GPGGA,144353.533,3554.7412,N,01430.4162,E,1,5,1,0.630935999999999, M,0, M,0,*6A,35.9123432072518,14.5070633756938,35.912353465,14.5069369983,3,4.00,,3/28/2013 3:43:53 PM
$GPGGA,144354.547,3554.7406,N,01430.4238,E,1,5,1,0, M,0, M,0,*7A,$GPGGA,144354.547,3554.7412,N,01430.4162,E,1,5,1,0.600891428571428, M,0, M,0,*68,35.9123432072518,14.5070633756938,35.9123528596,14.5069373176,3,4.00,,3/28/2013 3:43:54 PM
$GPGGA,144355.561,3554.7406,N,01430.4238,E,1,5,1,0, M,0, M,0,*7F,$GPGGA,144355.561,3554.7413,N,01430.4163,E,1,5,1,0.440653714285714, M,0, M,0,*67,35.9123432072518,14.5070633756938,35.9123551605,14.5069381658,3,4.00,,3/28/2013 3:43:55 PM
$GPGGA,144356.575,3554.7406,N,01430.4238,E,1,5,1,0, M,0, M,0,*79,$GPGGA,144356.575,3554.7411,N,01430.4163,E,1,5,1,0.370549714285713, M,0, M,0,*68,35.9123432072518,14.5070633756938,35.9123509241,14.5069375845,3,4.00,,3/28/2013 3:43:56 PM
$GPGGA,144357.589,3554.7406,N,01430.4238,E,1,5,1,0, M,0, M,0,*7B,$GPGGA,144357.589,3554.7408,N,01430.4162,E,1,5,1,0.340505142857142, M,0, M,0,*6A,35.9123432072518,14.5070633756938,35.9123470279,14.5069368223,3,4.00,,3/28/2013 3:43:57 PM
$GPGGA,144358.603,3554.7406,N,01430.4238,E,1,5,1,0, M,0, M,0,*75,$GPGGA,144358.603,3554.7405,N,01430.4163,E,1,5,1,0.280415999999999, M,0, M,0,*66,35.9123432072518,14.5070633756938,35.9123421535,14.5069378063,3,4.00,,3/28/2013 3:43:58 PM
$GPGGA,144359.617,3554.7406,N,01430.4238,E,1,5,1,0, M,0, M,0,*71,$GPGGA,144359.617,3554.7406,N,01430.4162,E,1,5,1,0.210311999999999, M,0, M,0,*6A,35.9123432072518,14.5070633756938,35.9123432069,14.5069367571,3,4.00,,3/28/2013 3:43:59 PM
$GPGGA,144400.631,3554.7406,N,01430.4238,E,1,5,1,0, M,0, M,0,*7E,$GPGGA,144400.631,3554.7405,N,01430.4162,E,1,5,1,0.229431272727273, M,0, M,0,*63,35.9123432072518,14.5070633756938,35.9123414398,14.5069362617,3,4.00,,3/28/2013 3:44:00 PM
$GPGGA,144401.645,3554.7406,N,01430.4238,E,1,5,1,0, M,0, M,0,*7C,$GPGGA,144401.645,3554.7412,N,01430.4153,E,1,5,1,0.2313432, M,0, M,0,*6F,35.9123432072518,14.5070633756938,35.9123531385,14.5069224185,4,0.00,,3/28/2013 3:44:01 PM
$GPGGA,144402.659,3554.7406,N,01430.4238,E,1,5,1,0, M,0, M,0,*72,$GPGGA,144402.659,3554.7412,N,01430.4152,E,1,5,1,0.4074795, M,0, M,0,*6A,35.9123432072518,14.5070633756938,35.9123536913,14.5069195598,4,0.00,,3/28/2013 3:44:02 PM
$GPGGA,144403.672,3554.7406,N,01430.4238,E,1,5,1,0, M,0, M,0,*7A,$GPGGA,144403.672,3554.7412,N,01430.4152,E,1,5,1,0.420624, M,0, M,0,*58,35.9123432072518,14.5070633756938,35.9123539223,14.5069205771,4,0.00,,3/28/2013 3:44:03 PM
$GPGGA,144404.686,3554.7406,N,01430.4238,E,1,5,1,0, M,0, M,0,*76,$GPGGA,144404.686,3554.7414,N,01430.4148,E,1,5,1,0.420624, M,0, M,0,*59,35.9123432072518,14.5070633756938,35.9123561686,14.5069138069,4,0.00,,3/28/2013 3:44:04 PM
$GPGGA,144405.700,3554.7406,N,01430.4238,E,1,5,1,0, M,0, M,0,*78,$GPGGA,144405.700,3554.7416,N,01430.4149,E,1,5,1,0.499490999999999, M,0, M,0,*62,35.9123432072518,14.5070633756938,35.9123598772,14.5069143645,4,0.00,,3/28/2013 3:44:05 PM
$GPGGA,144406.715,3554.7406,N,01430.4238,E,1,5,1,0, M,0, M,0,*7F,$GPGGA,144406.715,3554.7413,N,01430.4148,E,1,5,1,0.657224999999999, M,0, M,0,*68,35.9123432072518,14.5070633756938,35.9123549232,14.5069140415,4,0.00,,3/28/2013 3:44:06 PM
$GPGGA,144407.729,3554.7406,N,01430.4238,E,1,5,1,0, M,0, M,0,*71,$GPGGA,144407.729,3554.7416,N,01430.4146,E,1,5,1,0.8018145, M,0, M,0,*65,35.9123432072518,14.5070633756938,35.9123593624,14.5069096505,4,0.00,,3/28/2013 3:44:07 PM
$GPGGA,144408.743,3554.7406,N,01430.4238,E,1,5,1,0, M,0, M,0,*72,$GPGGA,144408.743,3554.7418,N,01430.4147,E,1,5,1,0.841247999999999, M,0, M,0,*6D,35.9123432072518,14.5070633756938,35.9123635197,14.5069112758,4,0.00,,3/28/2013 3:44:08 PM
$GPGGA,144409.758,3554.7406,N,01430.4238,E,1,5,1,0, M,0, M,0,*79,$GPGGA,144409.758,3554.7418,N,01430.4146,E,1,5,1,0.841247999999999, M,0, M,0,*67,35.9123432072518,14.5070633756938,35.9123627218,14.5069103261,4,0.00,,3/28/2013 3:44:09 PM
$GPGGA,144410.772,3554.7406,N,01430.4238,E,1,5,1,0, M,0, M,0,*79,$GPGGA,144410.772,3554.7418,N,01430.4145,E,1,5,1,0.841247999999999, M,0, M,0,*64,35.9123432072518,14.5070633756938,35.9123632546,14.5069090323,4,0.00,,3/28/2013 3:44:10 PM
$GPGGA,144411.785,3554.7406,N,01430.4238,E,1,5,1,0, M,0, M,0,*70,$GPGGA,144411.785,3554.7414,N,01430.4142,E,1,5,1,0.8132064, M,0, M,0,*69,35.9123432072518,14.5070633756938,35.9123570537,14.5069041593,4,0.00,,3/28/2013 3:44:11 PM
$GPGGA,144412.799,3554.7406,N,01430.4238,E,1,5,1,0, M,0, M,0,*7E,$GPGGA,144412.799,3554.7412,N,01430.4143,E,1,5,1,0.617791499999999, M,0, M,0,*61,35.9123432072518,14.5070633756938,35.912353459,14.5069052796,4,0.00,,3/28/2013 3:44:12 PM
$GPGGA,144413.814,3554.7406,N,01430.4238,E,1,5,1,0, M,0, M,0,*75,$GPGGA,144413.814,3554.7414,N,01430.4143,E,1,5,1,0.289178999999999, M,0, M,0,*63,35.9123432072518,14.5070633756938,35.9123561659,14.5069049643,4,0.00,,3/28/2013 3:44:13 PM
$GPGGA,144414.827,3554.7406,N,01430.4238,E,1,5,1,0, M,0, M,0,*72,$GPGGA,144414.827,3554.7417,N,01430.4138,E,1,5,1,0.0262889999999999, M,0, M,0,*59,35.9123432072518,14.5070633756938,35.9123616084,14.5068973044,4,1.00,,3/28/2013 3:44:14 PM
$GPGGA,144415.841,3554.7406,N,01430.4238,E,1,5,1,0, M,0, M,0,*73,$GPGGA,144415.841,3554.7418,N,01430.4139,E,1,5,1,0.0394334999999999, M,0, M,0,*53,35.9123432072518,14.5070633756938,35.912362518,14.5068986378,4,1.00,,3/28/2013 3:44:15 PM
$GPGGA,144416.855,3554.7406,N,01430.4238,E,1,5,1,0, M,0, M,0,*75,$GPGGA,144416.855,3554.7414,N,01430.4138,E,1,5,1,0.210311999999999, M,0, M,0,*62,35.9123432072518,14.5070633756938,35.9123567108,14.5068961915,4,1.00,,3/28/2013 3:44:16 PM
$GPGGA,144417.869,3554.7406,N,01430.4238,E,1,5,1,0, M,0, M,0,*7B,$GPGGA,144417.869,3554.7416,N,01430.4137,E,1,5,1,0.210311999999999, M,0, M,0,*61,35.9123432072518,14.5070633756938,35.9123605726,14.5068957374,4,1.00,,3/28/2013 3:44:17 PM
$GPGGA,144418.883,3554.7406,N,01430.4238,E,1,5,1,0, M,0, M,0,*70,$GPGGA,144418.883,3554.7417,N,01430.4138,E,1,5,1,0.210311999999999, M,0, M,0,*64,35.9123432072518,14.5070633756938,35.9123611565,14.506896182,4,1.00,,3/28/2013 3:44:18 PM
$GPGGA,144419.897,3554.7406,N,01430.4238,E,1,5,1,0, M,0, M,0,*74,$GPGGA,144419.897,3554.7415,N,01430.4138,E,1,5,1,0.210311999999999, M,0, M,0,*62,35.9123432072518,14.5070633756938,35.9123576897,14.5068967049,4,1.00,,3/28/2013 3:44:19 PM
$GPGGA,144420.911,3554.7406,N,01430.4238,E,1,5,1,0, M,0, M,0,*71,$GPGGA,144420.911,3554.7419,N,01430.4139,E,1,5,1,0.210311999999999, M,0, M,0,*6A,35.9123432072518,14.5070633756938,35.9123650435,14.5068980318,4,1.00,,3/28/2013 3:44:20 PM
$GPGGA,144421.925,3554.7406,N,01430.4238,E,1,5,1,0, M,0, M,0,*77,$GPGGA,144421.925,3554.7418,N,01430.4139,E,1,5,1,0.0394334999999999, M,0, M,0,*57,35.9123432072518,14.5070633756938,35.9123638136,14.5068976488,4,1.00,,3/28/2013 3:44:21 PM
$GPGGA,144422.938,3554.7406,N,01430.4238,E,1,5,1,0, M,0, M,0,*78,$GPGGA,144422.938,3554.7417,N,01430.4138,E,1,5,1,0.0525779999999998, M,0, M,0,*56,35.9123432072518,14.5070633756938,35.9123608616,14.5068968198,4,1.00,,3/28/2013 3:44:22 PM
$GPGGA,144423.953,3554.7406,N,01430.4238,E,1,5,1,0, M,0, M,0,*74,$GPGGA,144423.953,3554.7421,N,01430.4139,E,1,5,1,0.0131445, M,0, M,0,*6B,35.9123432072518,14.5070633756938,35.9123683866,14.5068976401,4,1.00,,3/28/2013 3:44:23 PM
$GPGGA,144424.968,3554.7406,N,01430.4238,E,1,5,1,0, M,0, M,0,*7B,$GPGGA,144424.968,3554.7416,N,01430.4138,E,1,5,1,0.170878499999999, M,0, M,0,*62,35.9123432072518,14.5070633756938,35.9123597523,14.5068970317,4,1.00,,3/28/2013 3:44:24 PM
$GPGGA,144425.981,3554.7406,N,01430.4238,E,1,5,1,0, M,0, M,0,*7D,$GPGGA,144425.981,3554.7416,N,01430.4138,E,1,5,1,0.210311999999999, M,0, M,0,*68,35.9123432072518,14.5070633756938,35.9123602625,14.5068969455,4,1.00,,3/28/2013 3:44:25 PM
$GPGGA,144426.995,3554.7406,N,01430.4238,E,1,5,1,0, M,0, M,0,*7B,$GPGGA,144426.995,3554.7419,N,01430.4138,E,1,5,1,0.236600999999999, M,0, M,0,*60,35.9123432072518,14.5070633756938,35.9123650043,14.5068969914,4,1.00,,3/28/2013 3:44:26 PM
$GPGGA,144428.009,3554.7406,N,01430.4238,E,1,5,1,0, M,0, M,0,*79,$GPGGA,144428.009,3554.7416,N,01430.4138,E,1,5,1,0.184022999999999, M,0, M,0,*61,35.9123432072518,14.5070633756938,35.9123601599,14.5068973665,4,1.00,,3/28/2013 3:44:28 PM
$GPGGA,144429.023,3554.7406,N,01430.4238,E,1,5,1,0, M,0, M,0,*70,$GPGGA,144429.023,3554.7418,N,01430.4138,E,1,5,1,0.1822704, M,0, M,0,*68,35.9123432072518,14.5070633756938,35.9123625109,14.5068962619,4,1.00,,3/28/2013 3:44:29 PM
$GPGGA,144430.038,3554.7406,N,01430.4238,E,1,5,1,0, M,0, M,0,*72,$GPGGA,144430.038,3554.7421,N,01430.4139,E,1,5,1,0.1121664, M,0, M,0,*6C,35.9123432072518,14.5070633756938,35.9123678306,14.506898922,4,1.00,,3/28/2013 3:44:30 PM
$GPGGA,144431.052,3554.7406,N,01430.4238,E,1,5,1,0, M,0, M,0,*7F,$GPGGA,144431.052,3554.7419,N,01430.4140,E,1,5,1,0.157733999999999, M,0, M,0,*6E,35.9123432072518,14.5070633756938,35.9123643425,14.5068993814,4,1.00,,3/28/2013 3:44:31 PM
$GPGGA,144432.065,3554.7406,N,01430.4238,E,1,5,1,0, M,0, M,0,*78,$GPGGA,144432.065,3554.7419,N,01430.4140,E,1,5,1,0.210311999999999, M,0, M,0,*6D,35.9123432072518,14.5070633756938,35.9123647264,14.5069002617,4,1.00,,3/28/2013 3:44:32 PM
$GPGGA,144433.080,3554.7406,N,01430.4238,E,1,5,1,0, M,0, M,0,*72,$GPGGA,144433.080,3554.7418,N,01430.4140,E,1,5,1,0.249745499999999, M,0, M,0,*62,35.9123432072518,14.5070633756938,35.9123640909,14.5069005988,4,1.00,,3/28/2013 3:44:33 PM
$GPGGA,144434.093,3554.7406,N,01430.4238,E,1,5,1,0, M,0, M,0,*77,$GPGGA,144434.093,3554.7416,N,01430.4141,E,1,5,1,0.236600999999999, M,0, M,0,*6D,35.9123432072518,14.5070633756938,35.9123602965,14.5069012834,4,1.00,,3/28/2013 3:44:34 PM
$GPGGA,144435.107,3554.7406,N,01430.4238,E,1,5,1,0, M,0, M,0,*7A,$GPGGA,144435.107,3554.7419,N,01430.4141,E,1,5,1,0.105156, M,0, M,0,*51,35.9123432072518,14.5070633756938,35.9123644537,14.5069009104,4,1.00,,3/28/2013 3:44:35 PM
$GPGGA,144436.121,3554.7406,N,01430.4238,E,1,5,1,0, M,0, M,0,*7D,$GPGGA,144436.121,3554.7416,N,01430.4140,E,1,5,1,0, M,0, M,0,*70,35.9123432072518,14.5070633756938,35.9123602747,14.5069000341,4,1.00,,3/28/2013 3:44:36 PM
$GPGGA,144437.135,3554.7406,N,01430.4238,E,1,5,1,0, M,0, M,0,*79,$GPGGA,144437.135,3554.7422,N,01430.4141,E,1,5,1,0, M,0, M,0,*72,35.9123432072518,14.5070633756938,35.9123693049,14.5069020862,4,1.00,,3/28/2013 3:44:37 PM
$GPGGA,144438.149,3554.7406,N,01430.4238,E,1,5,1,0, M,0, M,0,*7D,$GPGGA,144438.149,3554.7418,N,01430.4140,E,1,5,1,0.197167499999999, M,0, M,0,*6B,35.9123432072518,14.5070633756938,35.9123641174,14.5069003795,4,1.00,,3/28/2013 3:44:38 PM
$GPGGA,144439.163,3554.7406,N,01430.4238,E,1,5,1,0, M,0, M,0,*74,$GPGGA,144439.163,3554.7417,N,01430.4140,E,1,5,1,0.210311999999999, M,0, M,0,*6F,35.9123432072518,14.5070633756938,35.9123620003,14.5068993848,4,1.00,,3/28/2013 3:44:39 PM
$GPGGA,144440.177,3554.7406,N,01430.4238,E,1,5,1,0, M,0, M,0,*7F,$GPGGA,144440.177,3554.7418,N,01430.4139,E,1,5,1,0.223456499999999, M,0, M,0,*6C,35.9123432072518,14.5070633756938,35.9123631265,14.5068984082,4,1.00,,3/28/2013 3:44:40 PM
$GPGGA,144441.191,3554.7406,N,01430.4238,E,1,5,1,0, M,0, M,0,*76,$GPGGA,144441.191,3554.7417,N,01430.4139,E,1,5,1,0.170878499999999, M,0, M,0,*6F,35.9123432072518,14.5070633756938,35.9123611206,14.506898571,4,1.00,,3/28/2013 3:44:41 PM
$GPGGA,144442.206,3554.7406,N,01430.4238,E,1,5,1,0, M,0, M,0,*78,$GPGGA,144442.206,3554.7416,N,01430.4138,E,1,5,1,0.184022999999999, M,0, M,0,*60,35.9123432072518,14.5070633756938,35.9123597573,14.506897381,4,1.00,,3/28/2013 3:44:42 PM
$GPGGA,144443.220,3554.7406,N,01430.4238,E,1,5,1,0, M,0, M,0,*7D,$GPGGA,144443.220,3554.7417,N,01430.4138,E,1,5,1,0.197167499999999, M,0, M,0,*6B,35.9123432072518,14.5070633756938,35.9123613456,14.5068970429,4,1.00,,3/28/2013 3:44:43 PM
$GPGGA,144444.234,3554.7406,N,01430.4238,E,1,5,1,0, M,0, M,0,*7F,$GPGGA,144444.234,3554.7418,N,01430.4139,E,1,5,1,0.197167499999999, M,0, M,0,*67,35.9123432072518,14.5070633756938,35.9123626418,14.5068975692,4,1.00,,3/28/2013 3:44:44 PM
$GPGGA,144445.248,3554.7406,N,01430.4238,E,1,5,1,0, M,0, M,0,*75,$GPGGA,144445.248,3554.7418,N,01430.4139,E,1,5,1,0.210311999999999, M,0, M,0,*6F,35.9123432072518,14.5070633756938,35.9123640901,14.5068984215,4,1.00,,3/28/2013 3:44:45 PM
$GPGGA,144446.261,3554.7406,N,01430.4238,E,1,5,1,0, M,0, M,0,*7D,$GPGGA,144446.261,3554.7416,N,01430.4138,E,1,5,1,0.0657224999999998, M,0, M,0,*59,35.9123432072518,14.5070633756938,35.9123593721,14.5068971377,4,1.00,,3/28/2013 3:44:46 PM
$GPGGA,144447.275,3554.7406,N,01430.4238,E,1,5,1,0, M,0, M,0,*79,$GPGGA,144447.275,3554.7415,N,01430.4138,E,1,5,1,0.131445, M,0, M,0,*50,35.9123432072518,14.5070633756938,35.9123579391,14.5068972289,4,1.00,,3/28/2013 3:44:47 PM
$GPGGA,144448.289,3554.7406,N,01430.4238,E,1,5,1,0, M,0, M,0,*75,$GPGGA,144448.289,3554.7416,N,01430.4138,E,1,5,1,0.0788669999999997, M,0, M,0,*50,35.9123432072518,14.5070633756938,35.9123594958,14.5068959534,4,1.00,,3/28/2013 3:44:48 PM
$GPGGA,144449.303,3554.7406,N,01430.4238,E,1,5,1,0, M,0, M,0,*77,$GPGGA,144449.303,3554.7412,N,01430.4138,E,1,5,1,0.0788669999999997, M,0, M,0,*56,35.9123432072518,14.5070633756938,35.9123538813,14.5068973377,4,1.00,,3/28/2013 3:44:49 PM
$GPGGA,144450.317,3554.7406,N,01430.4238,E,1,5,1,0, M,0, M,0,*7A,$GPGGA,144450.317,3554.7417,N,01430.4138,E,1,5,1,0.210311999999999, M,0, M,0,*6E,35.9123432072518,14.5070633756938,35.9123609448,14.5068961668,4,1.00,,3/28/2013 3:44:50 PM
$GPGGA,144451.331,3554.7406,N,01430.4238,E,1,5,1,0, M,0, M,0,*7F,$GPGGA,144451.331,3554.7414,N,01430.4138,E,1,5,1,0.1445895, M,0, M,0,*61,35.9123432072518,14.5070633756938,35.912356352,14.5068965055,4,1.00,,3/28/2013 3:44:51 PM
$GPGGA,144452.345,3554.7406,N,01430.4238,E,1,5,1,0, M,0, M,0,*7F,$GPGGA,144452.345,3554.7413,N,01430.4138,E,1,5,1,0.1445895, M,0, M,0,*66,35.9123432072518,14.5070633756938,35.912354707,14.5068963239,4,1.00,,3/28/2013 3:44:52 PM
$GPGGA,144453.359,3554.7406,N,01430.4238,E,1,5,1,0, M,0, M,0,*73,$GPGGA,144453.359,3554.7418,N,01430.4138,E,1,5,1,0, M,0, M,0,*7F,35.9123432072518,14.5070633756938,35.9123636401,14.5068973338,4,1.00,,3/28/2013 3:44:53 PM
$GPGGA,144454.373,3554.7406,N,01430.4238,E,1,5,1,0, M,0, M,0,*7C,$GPGGA,144454.373,3554.7416,N,01430.4139,E,1,5,1,0.0262889999999999, M,0, M,0,*57,35.9123432072518,14.5070633756938,35.9123599555,14.5068981448,4,1.00,,3/28/2013 3:44:54 PM
$GPGGA,144455.387,3554.7406,N,01430.4238,E,1,5,1,0, M,0, M,0,*76,$GPGGA,144455.387,3554.7417,N,01430.4138,E,1,5,1,0.184022999999999, M,0, M,0,*6F,35.9123432072518,14.5070633756938,35.9123609272,14.5068965418,4,1.00,,3/28/2013 3:44:55 PM
$GPGGA,144456.401,3554.7406,N,01430.4238,E,1,5,1,0, M,0, M,0,*7C,$GPGGA,144456.401,3554.7417,N,01430.4136,E,1,5,1,0.210311999999999, M,0, M,0,*66,35.9123432072518,14.5070633756938,35.9123615161,14.5068940942,4,1.00,,3/28/2013 3:44:56 PM
$GPGGA,144457.415,3554.7406,N,01430.4238,E,1,5,1,0, M,0, M,0,*78,$GPGGA,144457.415,3554.7414,N,01430.4137,E,1,5,1,0.210311999999999, M,0, M,0,*60,35.9123432072518,14.5070633756938,35.9123572543,14.5068957032,4,1.00,,3/28/2013 3:44:57 PM
$GPGGA,144458.429,3554.7406,N,01430.4238,E,1,5,1,0, M,0, M,0,*78,$GPGGA,144458.429,3554.7414,N,01430.4137,E,1,5,1,0.262889999999999, M,0, M,0,*6F,35.9123432072518,14.5070633756938,35.912357035,14.5068951515,4,1.00,,3/28/2013 3:44:58 PM
$GPGGA,144459.444,3554.7406,N,01430.4238,E,1,5,1,0, M,0, M,0,*72,$GPGGA,144459.444,3554.7417,N,01430.4138,E,1,5,1,0.223456499999999, M,0, M,0,*6F,35.9123432072518,14.5070633756938,35.9123610627,14.5068974693,4,1.00,,3/28/2013 3:44:59 PM
$GPGGA,144500.459,3554.7406,N,01430.4238,E,1,5,1,0, M,0, M,0,*73,$GPGGA,144500.459,3554.7416,N,01430.4139,E,1,5,1,0.197167499999999, M,0, M,0,*65,35.9123432072518,14.5070633756938,35.9123603637,14.5068980029,4,1.00,,3/28/2013 3:45:00 PM
$GPGGA,144501.472,3554.7406,N,01430.4238,E,1,5,1,0, M,0, M,0,*7B,$GPGGA,144501.472,3554.7421,N,01430.4141,E,1,5,1,0.157733999999999, M,0, M,0,*60,35.9123432072518,14.5070633756938,35.9123684713,14.5069019477,4,1.00,,3/28/2013 3:45:01 PM
$GPGGA,144502.486,3554.7406,N,01430.4238,E,1,5,1,0, M,0, M,0,*73,$GPGGA,144502.486,3554.7423,N,01430.4142,E,1,5,1,0.0920114999999997, M,0, M,0,*5C,35.9123432072518,14.5070633756938,35.9123713951,14.5069027013,4,1.00,,3/28/2013 3:45:02 PM
$GPGGA,144503.500,3554.7406,N,01430.4238,E,1,5,1,0, M,0, M,0,*7D,$GPGGA,144503.500,3554.7417,N,01430.4140,E,1,5,1,0.210311999999999, M,0, M,0,*66,35.9123432072518,14.5070633756938,35.9123612946,14.5068998345,4,1.00,,3/28/2013 3:45:03 PM
$GPGGA,144504.514,3554.7406,N,01430.4238,E,1,5,1,0, M,0, M,0,*7F,$GPGGA,144504.514,3554.7416,N,01430.4138,E,1,5,1,0.328612499999999, M,0, M,0,*6B,35.9123432072518,14.5070633756938,35.9123592792,14.5068973792,4,1.00,,3/28/2013 3:45:04 PM
$GPGGA,144505.528,3554.7406,N,01430.4238,E,1,5,1,0, M,0, M,0,*71,$GPGGA,144505.528,3554.7415,N,01430.4138,E,1,5,1,0.236600999999999, M,0, M,0,*66,35.9123432072518,14.5070633756938,35.9123581615,14.5068959651,4,1.00,,3/28/2013 3:45:05 PM
$GPGGA,144506.541,3554.7406,N,01430.4238,E,1,5,1,0, M,0, M,0,*7D,$GPGGA,144506.541,3554.7414,N,01430.4138,E,1,5,1,0.184022999999999, M,0, M,0,*67,35.9123432072518,14.5070633756938,35.9123573495,14.5068972313,4,1.00,,3/28/2013 3:45:06 PM
$GPGGA,144507.555,3554.7406,N,01430.4238,E,1,5,1,0, M,0, M,0,*79,$GPGGA,144507.555,3554.7416,N,01430.4138,E,1,5,1,0.0788669999999997, M,0, M,0,*5C,35.9123432072518,14.5070633756938,35.9123593728,14.5068974337,4,1.00,,3/28/2013 3:45:07 PM
$GPGGA,144508.569,3554.7406,N,01430.4238,E,1,5,1,0, M,0, M,0,*79,$GPGGA,144508.569,3554.7415,N,01430.4138,E,1,5,1,0.0131445, M,0, M,0,*60,35.9123432072518,14.5070633756938,35.9123590388,14.5068972353,4,1.00,,3/28/2013 3:45:08 PM
$GPGGA,144509.583,3554.7406,N,01430.4238,E,1,5,1,0, M,0, M,0,*7C,$GPGGA,144509.583,3554.7419,N,01430.4139,E,1,5,1,0.0394334999999999, M,0, M,0,*5D,35.9123432072518,14.5070633756938,35.9123642406,14.50689782,4,1.00,,3/28/2013 3:45:09 PM
$GPGGA,144510.597,3554.7406,N,01430.4238,E,1,5,1,0, M,0, M,0,*71,$GPGGA,144510.597,3554.7417,N,01430.4139,E,1,5,1,0.131445, M,0, M,0,*5B,35.9123432072518,14.5070633756938,35.9123616674,14.5068983234,4,1.00,,3/28/2013 3:45:10 PM
$GPGGA,144511.611,3554.7406,N,01430.4238,E,1,5,1,0, M,0, M,0,*7D,$GPGGA,144511.611,3554.7418,N,01430.4139,E,1,5,1,0.184022999999999, M,0, M,0,*6A,35.9123432072518,14.5070633756938,35.9123637102,14.5068987916,4,1.00,,3/28/2013 3:45:11 PM
$GPGGA,144512.625,3554.7406,N,01430.4238,E,1,5,1,0, M,0, M,0,*79,$GPGGA,144512.625,3554.7416,N,01430.4138,E,1,5,1,0.197167499999999, M,0, M,0,*6E,35.9123432072518,14.5070633756938,35.9123607424,14.5068968925,4,1.00,,3/28/2013 3:45:12 PM
$GPGGA,144513.639,3554.7406,N,01430.4238,E,1,5,1,0, M,0, M,0,*75,$GPGGA,144513.639,3554.7417,N,01430.4140,E,1,5,1,0.0920114999999997, M,0, M,0,*5F,35.9123432072518,14.5070633756938,35.9123617305,14.506899307,4,1.00,,3/28/2013 3:45:13 PM
$GPGGA,144514.653,3554.7406,N,01430.4238,E,1,5,1,0, M,0, M,0,*7E,$GPGGA,144514.653,3554.7418,N,01430.4138,E,1,5,1,0.210311999999999, M,0, M,0,*65,35.9123432072518,14.5070633756938,35.9123627823,14.5068971666,4,1.00,,3/28/2013 3:45:14 PM
$GPGGA,144515.667,3554.7406,N,01430.4238,E,1,5,1,0, M,0, M,0,*78,$GPGGA,144515.667,3554.7418,N,01430.4138,E,1,5,1,0.170878499999999, M,0, M,0,*6F,35.9123432072518,14.5070633756938,35.9123626838,14.506897496,4,1.00,,3/28/2013 3:45:15 PM
$GPGGA,144516.682,3554.7406,N,01430.4238,E,1,5,1,0, M,0, M,0,*70,$GPGGA,144516.682,3554.7420,N,01430.4140,E,1,5,1,0.197167499999999, M,0, M,0,*6D,35.9123432072518,14.5070633756938,35.9123659809,14.5068995574,4,1.00,,3/28/2013 3:45:16 PM
$GPGGA,144517.696,3554.7406,N,01430.4238,E,1,5,1,0, M,0, M,0,*74,$GPGGA,144517.696,3554.7416,N,01430.4139,E,1,5,1,0.197167499999999, M,0, M,0,*62,35.9123432072518,14.5070633756938,35.9123602702,14.5068981421,4,1.00,,3/28/2013 3:45:17 PM
$GPGGA,144518.710,3554.7406,N,01430.4238,E,1,5,1,0, M,0, M,0,*74,$GPGGA,144518.710,3554.7418,N,01430.4140,E,1,5,1,0.170878499999999, M,0, M,0,*6C,35.9123432072518,14.5070633756938,35.9123640123,14.506900801,4,1.00,,3/28/2013 3:45:18 PM
$GPGGA,144519.724,3554.7406,N,01430.4238,E,1,5,1,0, M,0, M,0,*72,$GPGGA,144519.724,3554.7419,N,01430.4141,E,1,5,1,0.0525779999999998, M,0, M,0,*5C,35.9123432072518,14.5070633756938,35.9123657035,14.5069020291,4,1.00,,3/28/2013 3:45:19 PM
$GPGGA,144520.738,3554.7406,N,01430.4238,E,1,5,1,0, M,0, M,0,*75,$GPGGA,144520.738,3554.7419,N,01430.4143,E,1,5,1,0, M,0, M,0,*74,35.9123432072518,14.5070633756938,35.9123652715,14.506904412,4,1.00,,3/28/2013 3:45:20 PM
$GPGGA,144521.751,3554.7406,N,01430.4238,E,1,5,1,0, M,0, M,0,*7B,$GPGGA,144521.751,3554.7420,N,01430.4142,E,1,5,1,0.1183005, M,0, M,0,*61,35.9123432072518,14.5070633756938,35.9123663132,14.5069034732,4,1.00,,3/28/2013 3:45:21 PM
$GPGGA,144522.765,3554.7406,N,01430.4238,E,1,5,1,0, M,0, M,0,*7F,$GPGGA,144522.765,3554.7417,N,01430.4141,E,1,5,1,0.184022999999999, M,0, M,0,*68,35.9123432072518,14.5070633756938,35.9123622445,14.5069011631,4,1.00,,3/28/2013 3:45:22 PM
$GPGGA,144523.779,3554.7406,N,01430.4238,E,1,5,1,0, M,0, M,0,*73,$GPGGA,144523.779,3554.7418,N,01430.4141,E,1,5,1,0.262889999999999, M,0, M,0,*69,35.9123432072518,14.5070633756938,35.912363413,14.5069013155,4,1.00,,3/28/2013 3:45:23 PM
$GPGGA,144524.793,3554.7406,N,01430.4238,E,1,5,1,0, M,0, M,0,*70,$GPGGA,144524.793,3554.7416,N,01430.4140,E,1,5,1,0.4074795, M,0, M,0,*6F,35.9123432072518,14.5070633756938,35.9123596257,14.5068994224,4,1.00,,3/28/2013 3:45:24 PM
$GPGGA,144525.807,3554.7406,N,01430.4238,E,1,5,1,0, M,0, M,0,*73,$GPGGA,144525.807,3554.7414,N,01430.4140,E,1,5,1,0.4337685, M,0, M,0,*6A,35.9123432072518,14.5070633756938,35.9123564279,14.5069006259,4,1.00,,3/28/2013 3:45:25 PM
$GPGGA,144526.821,3554.7406,N,01430.4238,E,1,5,1,0, M,0, M,0,*74,$GPGGA,144526.821,3554.7416,N,01430.4140,E,1,5,1,0.4600575, M,0, M,0,*62,35.9123432072518,14.5070633756938,35.9123603827,14.5069005637,4,1.00,,3/28/2013 3:45:26 PM
$GPGGA,144527.835,3554.7406,N,01430.4238,E,1,5,1,0, M,0, M,0,*70,$GPGGA,144527.835,3554.7418,N,01430.4142,E,1,5,1,0.6966585, M,0, M,0,*68,35.9123432072518,14.5070633756938,35.9123628836,14.5069030885,4,1.00,,3/28/2013 3:45:27 PM
$GPGGA,144528.849,3554.7406,N,01430.4238,E,1,5,1,0, M,0, M,0,*74,$GPGGA,144528.849,3554.7422,N,01430.4140,E,1,5,1,0.630935999999999, M,0, M,0,*63,35.9123432072518,14.5070633756938,35.9123706372,14.5069006887,4,1.00,,3/28/2013 3:45:28 PM
$GPGGA,144529.863,3554.7406,N,01430.4238,E,1,5,1,0, M,0, M,0,*7D,$GPGGA,144529.863,3554.7423,N,01430.4140,E,1,5,1,0.499490999999999, M,0, M,0,*68,35.9123432072518,14.5070633756938,35.9123711249,14.5068993085,4,1.00,,3/28/2013 3:45:29 PM
$GPGGA,144530.877,3554.7406,N,01430.4238,E,1,5,1,0, M,0, M,0,*70,$GPGGA,144530.877,3554.7425,N,01430.4141,E,1,5,1,0.420624, M,0, M,0,*54,35.9123432072518,14.5070633756938,35.9123744689,14.5069009605,4,1.00,,3/28/2013 3:45:30 PM
$GPGGA,144531.891,3554.7406,N,01430.4238,E,1,5,1,0, M,0, M,0,*79,$GPGGA,144531.891,3554.7423,N,01430.4134,E,1,5,1,0.420624, M,0, M,0,*59,35.9123432072518,14.5070633756938,35.9123709166,14.5068893733,4,2.00,,3/28/2013 3:45:31 PM
$GPGGA,144532.905,3554.7406,N,01430.4238,E,1,5,1,0, M,0, M,0,*76,$GPGGA,144532.905,3554.7421,N,01430.4133,E,1,5,1,0.420624, M,0, M,0,*53,35.9123432072518,14.5070633756938,35.9123680589,14.5068879315,4,2.00,,3/28/2013 3:45:32 PM
$GPGGA,144533.919,3554.7406,N,01430.4238,E,1,5,1,0, M,0, M,0,*7A,$GPGGA,144533.919,3554.7421,N,01430.4132,E,1,5,1,0.368046, M,0, M,0,*57,35.9123432072518,14.5070633756938,35.9123683358,14.5068873639,4,2.00,,3/28/2013 3:45:33 PM
$GPGGA,144534.934,3554.7406,N,01430.4238,E,1,5,1,0, M,0, M,0,*72,$GPGGA,144534.934,3554.7420,N,01430.4132,E,1,5,1,0.131445, M,0, M,0,*57,35.9123432072518,14.5070633756938,35.9123664908,14.5068873879,4,2.00,,3/28/2013 3:45:34 PM
$GPGGA,144535.948,3554.7406,N,01430.4238,E,1,5,1,0, M,0, M,0,*78,$GPGGA,144535.948,3554.7426,N,01430.4134,E,1,5,1,-0.013144500000001, M,0, M,0,*41,35.9123432072518,14.5070633756938,35.9123767361,14.5068902855,4,2.00,,3/28/2013 3:45:35 PM
$GPGGA,144536.962,3554.7406,N,01430.4238,E,1,5,1,0, M,0, M,0,*73,$GPGGA,144536.962,3554.7426,N,01430.4133,E,1,5,1,0.0525779999999998, M,0, M,0,*54,35.9123432072518,14.5070633756938,35.9123766847,14.5068890961,4,2.00,,3/28/2013 3:45:36 PM
$GPGGA,144537.976,3554.7406,N,01430.4238,E,1,5,1,0, M,0, M,0,*77,$GPGGA,144537.976,3554.7427,N,01430.4133,E,1,5,1,0.210311999999999, M,0, M,0,*6B,35.9123432072518,14.5070633756938,35.9123776938,14.5068884481,4,2.00,,3/28/2013 3:45:37 PM
$GPGGA,144538.990,3554.7406,N,01430.4238,E,1,5,1,0, M,0, M,0,*70,$GPGGA,144538.990,3554.7424,N,01430.4132,E,1,5,1,0.210311999999999, M,0, M,0,*6E,35.9123432072518,14.5070633756938,35.9123730604,14.5068872921,4,2.00,,3/28/2013 3:45:38 PM
$GPGGA,144540.004,3554.7406,N,01430.4238,E,1,5,1,0, M,0, M,0,*7B,$GPGGA,144540.004,3554.7425,N,01430.4134,E,1,5,1,0.210311999999999, M,0, M,0,*62,35.9123432072518,14.5070633756938,35.9123752128,14.5068896225,4,2.00,,3/28/2013 3:45:40 PM
$GPGGA,144541.018,3554.7406,N,01430.4238,E,1,5,1,0, M,0, M,0,*77,$GPGGA,144541.018,3554.7422,N,01430.4132,E,1,5,1,0.210311999999999, M,0, M,0,*6F,35.9123432072518,14.5070633756938,35.9123707773,14.5068863377,4,2.00,,3/28/2013 3:45:41 PM
$GPGGA,144542.031,3554.7406,N,01430.4238,E,1,5,1,0, M,0, M,0,*7F,$GPGGA,144542.031,3554.7423,N,01430.4134,E,1,5,1,0.196291199999998, M,0, M,0,*6D,35.9123432072518,14.5070633756938,35.9123712545,14.5068895424,4,2.00,,3/28/2013 3:45:42 PM
$GPGGA,144543.045,3554.7406,N,01430.4238,E,1,5,1,0, M,0, M,0,*7D,$GPGGA,144543.045,3554.7421,N,01430.4133,E,1,5,1,0.105156, M,0, M,0,*58,35.9123432072518,14.5070633756938,35.9123680284,14.5068885667,4,2.00,,3/28/2013 3:45:43 PM
$GPGGA,144544.059,3554.7406,N,01430.4238,E,1,5,1,0, M,0, M,0,*77,$GPGGA,144544.059,3554.7423,N,01430.4134,E,1,5,1,0, M,0, M,0,*7F,35.9123432072518,14.5070633756938,35.9123721347,14.5068891685,4,2.00,,3/28/2013 3:45:44 PM
$GPGGA,144545.073,3554.7406,N,01430.4238,E,1,5,1,0, M,0, M,0,*7E,$GPGGA,144545.073,3554.7424,N,01430.4133,E,1,5,1,0.184022999999999, M,0, M,0,*6C,35.9123432072518,14.5070633756938,35.9123733011,14.5068890695,4,2.00,,3/28/2013 3:45:45 PM
$GPGGA,144546.087,3554.7406,N,01430.4238,E,1,5,1,0, M,0, M,0,*76,$GPGGA,144546.087,3554.7421,N,01430.4131,E,1,5,1,0.3549015, M,0, M,0,*68,35.9123432072518,14.5070633756938,35.9123688109,14.5068856115,4,2.00,,3/28/2013 3:45:46 PM
$GPGGA,144547.101,3554.7406,N,01430.4238,E,1,5,1,0, M,0, M,0,*78,$GPGGA,144547.101,3554.7419,N,01430.4131,E,1,5,1,0.420624, M,0, M,0,*54,35.9123432072518,14.5070633756938,35.9123654406,14.5068846759,4,2.00,,3/28/2013 3:45:47 PM
