GPGGA Base Position,,,,,,,,,,,,,,,GPGGA End Position,,,,,,,,,,,,,,,Base Latitude,Base Longitude,End Latitude,End Longitude,Node Count, Extra Tether Length,Node Address,X,Y,Z,Unscaled Pressure,Depth,Node Address,X,Y,Z,Unscaled Pressure,Depth,,Time
$GPGGA,151534.032,3554.7414,N,01430.4223,E,1,5,1,0, M,0, M,0,*70,$GPGGA,151534.033,3554.7414,N,01430.4223,E,1,5,1,1.54729542857143, M,0, M,0,*5C,35.9123568911798,14.5070383635881,35.9123568912,14.5070383636,1,0.00,,3/28/2013 4:15:34 PM
$GPGGA,151535.045,3554.7414,N,01430.4223,E,1,5,1,0, M,0, M,0,*71,$GPGGA,151535.045,3554.7414,N,01430.4223,E,1,5,1,1.48219885714286, M,0, M,0,*53,35.9123568911798,14.5070383635881,35.9123568912,14.5070383636,1,0.00,,3/28/2013 4:15:35 PM
$GPGGA,151536.059,3554.7414,N,01430.4223,E,1,5,1,0, M,0, M,0,*7F,$GPGGA,151536.059,3554.7414,N,01430.4223,E,1,5,1,1.40802101694915, M,0, M,0,*58,35.9123568911798,14.5070383635881,35.9123568912,14.5070383636,1,0.00,,3/28/2013 4:15:36 PM
$GPGGA,151537.073,3554.7414,N,01430.4223,E,1,5,1,0, M,0, M,0,*76,$GPGGA,151537.073,3554.7414,N,01430.4223,E,1,5,1,1.261872, M,0, M,0,*51,35.9123568911798,14.5070383635881,35.9123568912,14.5070383636,1,0.00,,3/28/2013 4:15:37 PM
$GPGGA,151538.087,3554.7414,N,01430.4223,E,1,5,1,0, M,0, M,0,*72,$GPGGA,151538.087,3554.7414,N,01430.4223,E,1,5,1,1.08494285714286, M,0, M,0,*5D,35.9123568911798,14.5070383635881,35.9123568912,14.5070383636,1,0.00,,3/28/2013 4:15:38 PM
$GPGGA,151539.101,3554.7414,N,01430.4223,E,1,5,1,0, M,0, M,0,*7C,$GPGGA,151539.101,3554.7414,N,01430.4223,E,1,5,1,0.934719999999999, M,0, M,0,*6A,35.9123568911798,14.5070383635881,35.9123568912,14.5070383636,1,0.00,,3/28/2013 4:15:39 PM
$GPGGA,151540.115,3554.7414,N,01430.4223,E,1,5,1,0, M,0, M,0,*77,$GPGGA,151540.115,3554.7414,N,01430.4223,E,1,5,1,0.797850285714285, M,0, M,0,*6F,35.9123568911798,14.5070383635881,35.9123568912,14.5070383636,1,0.00,,3/28/2013 4:15:40 PM
$GPGGA,151541.129,3554.7414,N,01430.4223,E,1,5,1,0, M,0, M,0,*79,$GPGGA,151541.129,3554.7414,N,01430.4223,E,1,5,1,0.627597714285713, M,0, M,0,*67,35.9123568911798,14.5070383635881,35.9123568912,14.5070383636,1,0.00,,3/28/2013 4:15:41 PM
$GPGGA,151542.142,3554.7414,N,01430.4223,E,1,5,1,0, M,0, M,0,*77,$GPGGA,151542.142,3554.7414,N,01430.4223,E,1,5,1,0.430638857142857, M,0, M,0,*64,35.9123568911798,14.5070383635881,35.9123568912,14.5070383636,1,0.00,,3/28/2013 4:15:42 PM
$GPGGA,151543.156,3554.7414,N,01430.4223,E,1,5,1,0, M,0, M,0,*73,$GPGGA,151543.156,3554.7414,N,01430.4223,E,1,5,1,0.300907938461538, M,0, M,0,*6F,35.9123568911798,14.5070383635881,35.9123568912,14.5070383636,1,0.00,,3/28/2013 4:15:43 PM
$GPGGA,151544.170,3554.7414,N,01430.4223,E,1,5,1,0, M,0, M,0,*70,$GPGGA,151544.170,3554.7414,N,01430.4223,E,1,5,1,0.183605714285714, M,0, M,0,*68,35.9123568911798,14.5070383635881,35.9123568912,14.5070383636,1,0.00,,3/28/2013 4:15:44 PM
$GPGGA,151545.184,3554.7414,N,01430.4223,E,1,5,1,0, M,0, M,0,*7A,$GPGGA,151545.184,3554.7414,N,01430.4223,E,1,5,1,0.0133531428571422, M,0, M,0,*5B,35.9123568911798,14.5070383635881,35.9123568912,14.5070383636,1,0.00,,3/28/2013 4:15:45 PM
$GPGGA,151546.198,3554.7414,N,01430.4223,E,1,5,1,0, M,0, M,0,*74,$GPGGA,151546.198,3554.7414,N,01430.4223,E,1,5,1,0, M,0, M,0,*74,35.9123568911798,14.5070383635881,35.9123568912,14.5070383636,1,0.00,,3/28/2013 4:15:46 PM
$GPGGA,151547.212,3554.7414,N,01430.4223,E,1,5,1,0, M,0, M,0,*74,$GPGGA,151547.212,3554.7419,N,01430.4220,E,1,5,1,-0.0863781428571429, M,0, M,0,*78,35.9123568911798,14.5070383635881,35.9123643574,14.5070325996,2,0.00,,3/28/2013 4:15:47 PM
$GPGGA,151548.226,3554.7414,N,01430.4223,E,1,5,1,0, M,0, M,0,*7C,$GPGGA,151548.226,3554.7418,N,01430.4219,E,1,5,1,-0.230028750000001, M,0, M,0,*42,35.9123568911798,14.5070383635881,35.9123635069,14.5070324149,2,0.00,,3/28/2013 4:15:48 PM
$GPGGA,151549.240,3554.7414,N,01430.4223,E,1,5,1,0, M,0, M,0,*7D,$GPGGA,151549.240,3554.7417,N,01430.4218,E,1,5,1,-0.420624000000001, M,0, M,0,*42,35.9123568911798,14.5070383635881,35.9123623992,14.5070301984,2,0.00,,3/28/2013 4:15:49 PM
$GPGGA,151550.255,3554.7414,N,01430.4223,E,1,5,1,0, M,0, M,0,*71,$GPGGA,151550.255,3554.7417,N,01430.4217,E,1,5,1,-0.5915025, M,0, M,0,*49,35.9123568911798,14.5070383635881,35.9123609851,14.5070278981,2,0.00,,3/28/2013 4:15:50 PM
$GPGGA,151551.269,3554.7414,N,01430.4223,E,1,5,1,0, M,0, M,0,*7F,$GPGGA,151551.269,3554.7418,N,01430.4218,E,1,5,1,-0.657225, M,0, M,0,*79,35.9123568911798,14.5070383635881,35.9123629687,14.5070304181,2,2.00,,3/28/2013 4:15:51 PM
$GPGGA,151552.283,3554.7414,N,01430.4223,E,1,5,1,0, M,0, M,0,*78,$GPGGA,151552.283,3554.7418,N,01430.4219,E,1,5,1,-0.696658500000001, M,0, M,0,*48,35.9123568911798,14.5070383635881,35.9123630552,14.5070320707,2,2.00,,3/28/2013 4:15:52 PM
$GPGGA,151553.297,3554.7414,N,01430.4223,E,1,5,1,0, M,0, M,0,*7C,$GPGGA,151553.297,3554.7418,N,01430.4219,E,1,5,1,-0.822128727272727, M,0, M,0,*4E,35.9123568911798,14.5070383635881,35.9123641626,14.5070324271,2,2.00,,3/28/2013 4:15:53 PM
$GPGGA,151554.311,3554.7414,N,01430.4223,E,1,5,1,0, M,0, M,0,*74,$GPGGA,151554.311,3554.7418,N,01430.4221,E,1,5,1,-0.828103500000001, M,0, M,0,*4D,35.9123568911798,14.5070383635881,35.912363717,14.5070344152,2,2.00,,3/28/2013 4:15:54 PM
$GPGGA,151555.325,3554.7414,N,01430.4223,E,1,5,1,0, M,0, M,0,*72,$GPGGA,151555.325,3554.7417,N,01430.4221,E,1,5,1,-0.936227612903227, M,0, M,0,*43,35.9123568911798,14.5070383635881,35.9123611195,14.5070350898,2,2.00,,3/28/2013 4:15:55 PM
$GPGGA,151556.339,3554.7414,N,01430.4223,E,1,5,1,0, M,0, M,0,*7C,$GPGGA,151556.339,3554.7413,N,01430.4226,E,1,5,1,-1.05156, M,0, M,0,*4B,35.9123568911798,14.5070383635881,35.9123551188,14.5070434858,2,2.00,,3/28/2013 4:15:56 PM
$GPGGA,151557.354,3554.7414,N,01430.4223,E,1,5,1,0, M,0, M,0,*76,$GPGGA,151557.354,3554.7417,N,01430.4225,E,1,5,1,-1.01869875, M,0, M,0,*7D,35.9123568911798,14.5070383635881,35.9123619819,14.5070411613,2,2.00,,3/28/2013 4:15:57 PM
$GPGGA,151558.367,3554.7414,N,01430.4223,E,1,5,1,0, M,0, M,0,*79,$GPGGA,151558.367,3554.7420,N,01430.4227,E,1,5,1,-0.949796129032258, M,0, M,0,*41,35.9123568911798,14.5070383635881,35.912367373,14.5070456466,2,2.00,,3/28/2013 4:15:58 PM
$GPGGA,151559.381,3554.7414,N,01430.4223,E,1,5,1,0, M,0, M,0,*70,$GPGGA,151559.381,3554.7420,N,01430.4227,E,1,5,1,-0.696658500000001, M,0, M,0,*46,35.9123568911798,14.5070383635881,35.9123671835,14.5070457511,2,2.00,,3/28/2013 4:15:59 PM
$GPGGA,151600.395,3554.7414,N,01430.4223,E,1,5,1,0, M,0, M,0,*7A,$GPGGA,151600.395,3554.7426,N,01430.4222,E,1,5,1,-0.230028750000001, M,0, M,0,*41,35.9123568911798,14.5070383635881,35.9123765582,14.5070365702,2,2.00,,3/28/2013 4:16:00 PM
$GPGGA,151601.409,3554.7414,N,01430.4223,E,1,5,1,0, M,0, M,0,*79,$GPGGA,151601.409,3554.7430,N,01430.4222,E,1,5,1,0.131445, M,0, M,0,*56,35.9123568911798,14.5070383635881,35.9123837434,14.5070368775,2,2.00,,3/28/2013 4:16:01 PM
$GPGGA,151602.423,3554.7414,N,01430.4223,E,1,5,1,0, M,0, M,0,*72,$GPGGA,151602.423,3554.7435,N,01430.4227,E,1,5,1,0.210311999999999, M,0, M,0,*62,35.9123568911798,14.5070383635881,35.9123909068,14.5070442342,2,3.00,,3/28/2013 4:16:02 PM
$GPGGA,151603.437,3554.7414,N,01430.4223,E,1,5,1,0, M,0, M,0,*76,$GPGGA,151603.437,3554.7433,N,01430.4226,E,1,5,1,0.210311999999999, M,0, M,0,*61,35.9123568911798,14.5070383635881,35.9123887427,14.507043907,2,3.00,,3/28/2013 4:16:03 PM
$GPGGA,151604.451,3554.7414,N,01430.4223,E,1,5,1,0, M,0, M,0,*71,$GPGGA,151604.451,3554.7433,N,01430.4223,E,1,5,1,0.36634993548387, M,0, M,0,*58,35.9123568911798,14.5070383635881,35.9123880935,14.5070386771,2,3.00,,3/28/2013 4:16:04 PM
$GPGGA,151605.465,3554.7414,N,01430.4223,E,1,5,1,0, M,0, M,0,*77,$GPGGA,151605.465,3554.7430,N,01430.4207,E,1,5,1,0.683514, M,0, M,0,*54,35.9123568911798,14.5070383635881,35.9123836929,14.5070119391,2,3.00,,3/28/2013 4:16:05 PM
$GPGGA,151606.479,3554.7414,N,01430.4223,E,1,5,1,0, M,0, M,0,*79,$GPGGA,151606.479,3554.7424,N,01430.4198,E,1,5,1,0.959548499999999, M,0, M,0,*6F,35.9123568911798,14.5070383635881,35.9123735902,14.5069965088,2,3.00,,3/28/2013 4:16:06 PM
$GPGGA,151607.494,3554.7414,N,01430.4223,E,1,5,1,0, M,0, M,0,*7B,$GPGGA,151607.494,3554.7410,N,01430.4195,E,1,5,1,1.37360025, M,0, M,0,*58,35.9123568911798,14.5070383635881,35.9123492095,14.5069913218,2,3.00,,3/28/2013 4:16:07 PM
$GPGGA,151608.507,3554.7414,N,01430.4223,E,1,5,1,0, M,0, M,0,*7F,$GPGGA,151608.507,3554.7416,N,01430.4198,E,1,5,1,1.6607395862069, M,0, M,0,*6A,35.9123568911798,14.5070383635881,35.912360187,14.5069967029,2,3.00,,3/28/2013 4:16:08 PM
$GPGGA,151609.522,3554.7414,N,01430.4223,E,1,5,1,0, M,0, M,0,*79,$GPGGA,151609.522,3554.7416,N,01430.4199,E,1,5,1,1.55359509677419, M,0, M,0,*5F,35.9123568911798,14.5070383635881,35.9123594308,14.5069991537,2,3.00,,3/28/2013 4:16:09 PM
$GPGGA,151610.535,3554.7414,N,01430.4223,E,1,5,1,0, M,0, M,0,*77,$GPGGA,151610.535,3554.7403,N,01430.4200,E,1,5,1,1.22901075, M,0, M,0,*55,35.9123568911798,14.5070383635881,35.9123387872,14.5069992898,2,3.00,,3/28/2013 4:16:10 PM
$GPGGA,151611.550,3554.7414,N,01430.4223,E,1,5,1,0, M,0, M,0,*75,$GPGGA,151611.550,3554.7404,N,01430.4200,E,1,5,1,1.05156, M,0, M,0,*6D,35.9123568911798,14.5070383635881,35.9123396157,14.5069994287,2,3.00,,3/28/2013 4:16:11 PM
$GPGGA,151612.564,3554.7414,N,01430.4223,E,1,5,1,0, M,0, M,0,*71,$GPGGA,151612.564,3554.7405,N,01430.4201,E,1,5,1,1.0235184, M,0, M,0,*67,35.9123568911798,14.5070383635881,35.9123417842,14.5070009526,2,3.00,,3/28/2013 4:16:12 PM
$GPGGA,151613.578,3554.7414,N,01430.4223,E,1,5,1,0, M,0, M,0,*7D,$GPGGA,151613.578,3554.7405,N,01430.4197,E,1,5,1,1.0305288, M,0, M,0,*6A,35.9123568911798,14.5070383635881,35.9123415126,14.5069948538,2,4.00,,3/28/2013 4:16:13 PM
$GPGGA,151614.592,3554.7414,N,01430.4223,E,1,5,1,0, M,0, M,0,*7E,$GPGGA,151614.592,3554.7406,N,01430.4197,E,1,5,1,1.05156, M,0, M,0,*69,35.9123568911798,14.5070383635881,35.9123436153,14.5069957754,2,4.00,,3/28/2013 4:16:14 PM
$GPGGA,151615.605,3554.7414,N,01430.4223,E,1,5,1,0, M,0, M,0,*72,$GPGGA,151615.605,3554.7408,N,01430.4194,E,1,5,1,1.18935062068965, M,0, M,0,*59,35.9123568911798,14.5070383635881,35.9123461558,14.5069891892,2,4.00,,3/28/2013 4:16:15 PM
$GPGGA,151616.620,3554.7414,N,01430.4223,E,1,5,1,0, M,0, M,0,*76,$GPGGA,151616.620,3554.7408,N,01430.4193,E,1,5,1,1.13133351724138, M,0, M,0,*53,35.9123568911798,14.5070383635881,35.9123469335,14.5069875629,2,4.00,,3/28/2013 4:16:16 PM
$GPGGA,151617.633,3554.7414,N,01430.4223,E,1,5,1,0, M,0, M,0,*75,$GPGGA,151617.633,3554.7406,N,01430.4191,E,1,5,1,0.892012965517241, M,0, M,0,*6C,35.9123568911798,14.5070383635881,35.9123437639,14.5069846828,2,5.00,,3/28/2013 4:16:17 PM
$GPGGA,151618.647,3554.7414,N,01430.4223,E,1,5,1,0, M,0, M,0,*79,$GPGGA,151618.647,3554.7403,N,01430.4191,E,1,5,1,0.783230896551724, M,0, M,0,*61,35.9123568911798,14.5070383635881,35.9123380115,14.5069856653,2,5.00,,3/28/2013 4:16:18 PM
$GPGGA,151619.661,3554.7414,N,01430.4223,E,1,5,1,0, M,0, M,0,*7C,$GPGGA,151619.661,3554.7402,N,01430.4194,E,1,5,1,0.4136136, M,0, M,0,*6E,35.9123568911798,14.5070383635881,35.9123365765,14.5069894511,2,5.00,,3/28/2013 4:16:19 PM
$GPGGA,151620.675,3554.7414,N,01430.4223,E,1,5,1,0, M,0, M,0,*73,$GPGGA,151620.675,3554.7397,N,01430.4195,E,1,5,1,0.164306249999999, M,0, M,0,*66,35.9123568911798,14.5070383635881,35.9123291133,14.5069923617,2,5.00,,3/28/2013 4:16:20 PM
$GPGGA,151621.689,3554.7414,N,01430.4223,E,1,5,1,0, M,0, M,0,*71,$GPGGA,151621.689,3554.7402,N,01430.4192,E,1,5,1,-0.0722947500000003, M,0, M,0,*77,35.9123568911798,14.5070383635881,35.9123369009,14.5069868933,2,5.00,,3/28/2013 4:16:21 PM
$GPGGA,151622.703,3554.7414,N,01430.4223,E,1,5,1,0, M,0, M,0,*71,$GPGGA,151622.703,3554.7399,N,01430.4203,E,1,5,1,-0.5652135, M,0, M,0,*41,35.9123568911798,14.5070383635881,35.9123323589,14.5070042771,2,5.00,,3/28/2013 4:16:22 PM
$GPGGA,151623.717,3554.7414,N,01430.4223,E,1,5,1,0, M,0, M,0,*75,$GPGGA,151623.717,3554.7402,N,01430.4201,E,1,5,1,-0.630936, M,0, M,0,*78,35.9123568911798,14.5070383635881,35.9123374522,14.507001553,2,5.00,,3/28/2013 4:16:23 PM
$GPGGA,151624.732,3554.7414,N,01430.4223,E,1,5,1,0, M,0, M,0,*75,$GPGGA,151624.732,3554.7404,N,01430.4200,E,1,5,1,-0.630936, M,0, M,0,*7F,35.9123568911798,14.5070383635881,35.9123398281,14.5069997337,2,5.00,,3/28/2013 4:16:24 PM
$GPGGA,151625.746,3554.7414,N,01430.4223,E,1,5,1,0, M,0, M,0,*77,$GPGGA,151625.746,3554.7403,N,01430.4201,E,1,5,1,-0.630936, M,0, M,0,*7B,35.9123568911798,14.5070383635881,35.9123378255,14.5070011152,2,5.00,,3/28/2013 4:16:25 PM
$GPGGA,151626.759,3554.7414,N,01430.4223,E,1,5,1,0, M,0, M,0,*7A,$GPGGA,151626.759,3554.7403,N,01430.4196,E,1,5,1,-0.611816727272727, M,0, M,0,*4C,35.9123568911798,14.5070383635881,35.9123385029,14.5069937445,2,5.00,,3/28/2013 4:16:26 PM
$GPGGA,151627.773,3554.7414,N,01430.4223,E,1,5,1,0, M,0, M,0,*73,$GPGGA,151627.773,3554.7403,N,01430.4199,E,1,5,1,-0.663797250000001, M,0, M,0,*48,35.9123568911798,14.5070383635881,35.9123382757,14.5069975911,2,5.00,,3/28/2013 4:16:27 PM
$GPGGA,151628.787,3554.7414,N,01430.4223,E,1,5,1,0, M,0, M,0,*77,$GPGGA,151628.787,3554.7403,N,01430.4207,E,1,5,1,-0.78209775, M,0, M,0,*75,35.9123568911798,14.5070383635881,35.912338865,14.5070119562,2,5.00,,3/28/2013 4:16:28 PM
$GPGGA,151629.801,3554.7414,N,01430.4223,E,1,5,1,0, M,0, M,0,*77,$GPGGA,151629.801,3554.7403,N,01430.4206,E,1,5,1,-0.6440805, M,0, M,0,*4E,35.9123568911798,14.5070383635881,35.9123391368,14.5070104593,2,5.00,,3/28/2013 4:16:29 PM
$GPGGA,151630.815,3554.7414,N,01430.4223,E,1,5,1,0, M,0, M,0,*7A,$GPGGA,151630.815,3554.7404,N,01430.4205,E,1,5,1,-0.78209775, M,0, M,0,*7D,35.9123568911798,14.5070383635881,35.9123391801,14.5070078062,2,5.00,,3/28/2013 4:16:30 PM
$GPGGA,151631.829,3554.7414,N,01430.4223,E,1,5,1,0, M,0, M,0,*74,$GPGGA,151631.829,3554.7403,N,01430.4201,E,1,5,1,-0.6440805, M,0, M,0,*4A,35.9123568911798,14.5070383635881,35.9123382075,14.5070008684,2,5.00,,3/28/2013 4:16:31 PM
$GPGGA,151632.843,3554.7414,N,01430.4223,E,1,5,1,0, M,0, M,0,*7B,$GPGGA,151632.843,3554.7403,N,01430.4196,E,1,5,1,-0.6177915, M,0, M,0,*49,35.9123568911798,14.5070383635881,35.9123377842,14.50699282,2,5.00,,3/28/2013 4:16:32 PM
$GPGGA,151633.857,3554.7414,N,01430.4223,E,1,5,1,0, M,0, M,0,*7F,$GPGGA,151633.857,3554.7403,N,01430.4200,E,1,5,1,-0.696658500000001, M,0, M,0,*4D,35.9123568911798,14.5070383635881,35.9123384402,14.5069995427,2,5.00,,3/28/2013 4:16:33 PM
$GPGGA,151634.871,3554.7414,N,01430.4223,E,1,5,1,0, M,0, M,0,*7C,$GPGGA,151634.871,3554.7404,N,01430.4204,E,1,5,1,-0.657225, M,0, M,0,*7A,35.9123568911798,14.5070383635881,35.9123399047,14.507006117,2,5.00,,3/28/2013 4:16:34 PM
$GPGGA,151635.885,3554.7414,N,01430.4223,E,1,5,1,0, M,0, M,0,*76,$GPGGA,151635.885,3554.7404,N,01430.4204,E,1,5,1,-0.6703695, M,0, M,0,*49,35.9123568911798,14.5070383635881,35.912339306,14.5070065927,2,5.00,,3/28/2013 4:16:35 PM
$GPGGA,151636.899,3554.7414,N,01430.4223,E,1,5,1,0, M,0, M,0,*78,$GPGGA,151636.899,3554.7405,N,01430.4210,E,1,5,1,-0.841248000000001, M,0, M,0,*49,35.9123568911798,14.5070383635881,35.9123413933,14.5070159585,2,5.00,,3/28/2013 4:16:36 PM
$GPGGA,151637.913,3554.7414,N,01430.4223,E,1,5,1,0, M,0, M,0,*7A,$GPGGA,151637.913,3554.7404,N,01430.4207,E,1,5,1,-0.707413090909092, M,0, M,0,*4A,35.9123568911798,14.5070383635881,35.9123408147,14.5070116274,2,5.00,,3/28/2013 4:16:37 PM
$GPGGA,151638.928,3554.7414,N,01430.4223,E,1,5,1,0, M,0, M,0,*7D,$GPGGA,151638.928,3554.7404,N,01430.4202,E,1,5,1,-0.630936, M,0, M,0,*75,35.9123568911798,14.5070383635881,35.9123392158,14.5070033602,2,5.00,,3/28/2013 4:16:38 PM
$GPGGA,151639.942,3554.7414,N,01430.4223,E,1,5,1,0, M,0, M,0,*70,$GPGGA,151639.942,3554.7403,N,01430.4199,E,1,5,1,-0.630936, M,0, M,0,*7E,35.9123568911798,14.5070383635881,35.9123391052,14.5069986566,2,5.00,,3/28/2013 4:16:39 PM
$GPGGA,151640.954,3554.7414,N,01430.4223,E,1,5,1,0, M,0, M,0,*79,$GPGGA,151640.954,3554.7403,N,01430.4199,E,1,5,1,-0.630936, M,0, M,0,*77,35.9123568911798,14.5070383635881,35.9123387148,14.5069980063,2,5.00,,3/28/2013 4:16:40 PM
$GPGGA,151641.968,3554.7414,N,01430.4223,E,1,5,1,0, M,0, M,0,*77,$GPGGA,151641.968,3554.7402,N,01430.4198,E,1,5,1,-0.630936, M,0, M,0,*79,35.9123568911798,14.5070383635881,35.9123370307,14.506997423,2,5.00,,3/28/2013 4:16:41 PM
$GPGGA,151642.984,3554.7414,N,01430.4223,E,1,5,1,0, M,0, M,0,*76,$GPGGA,151642.984,3554.7404,N,01430.4202,E,1,5,1,-0.709803000000001, M,0, M,0,*43,35.9123568911798,14.5070383635881,35.9123392057,14.5070030514,2,5.00,,3/28/2013 4:16:42 PM
$GPGGA,151643.998,3554.7414,N,01430.4223,E,1,5,1,0, M,0, M,0,*7A,$GPGGA,151643.998,3554.7405,N,01430.4207,E,1,5,1,-0.762381000000001, M,0, M,0,*47,35.9123568911798,14.5070383635881,35.9123416743,14.5070120615,2,5.00,,3/28/2013 4:16:43 PM
$GPGGA,151645.011,3554.7414,N,01430.4223,E,1,5,1,0, M,0, M,0,*74,$GPGGA,151645.011,3554.7404,N,01430.4206,E,1,5,1,-0.650652750000001, M,0, M,0,*40,35.9123568911798,14.5070383635881,35.9123405071,14.5070096262,2,5.00,,3/28/2013 4:16:45 PM
$GPGGA,151646.026,3554.7414,N,01430.4223,E,1,5,1,0, M,0, M,0,*73,$GPGGA,151646.026,3554.7405,N,01430.4206,E,1,5,1,-0.841248000000001, M,0, M,0,*45,35.9123568911798,14.5070383635881,35.9123417849,14.5070092752,2,5.00,,3/28/2013 4:16:46 PM
$GPGGA,151647.039,3554.7414,N,01430.4223,E,1,5,1,0, M,0, M,0,*7C,$GPGGA,151647.039,3554.7404,N,01430.4203,E,1,5,1,-0.696658500000001, M,0, M,0,*4A,35.9123568911798,14.5070383635881,35.9123396729,14.5070043175,2,5.00,,3/28/2013 4:16:47 PM
$GPGGA,151648.053,3554.7414,N,01430.4223,E,1,5,1,0, M,0, M,0,*7F,$GPGGA,151648.053,3554.7404,N,01430.4197,E,1,5,1,-0.433768500000001, M,0, M,0,*48,35.9123568911798,14.5070383635881,35.912340692,14.506995405,2,5.00,,3/28/2013 4:16:48 PM
$GPGGA,151649.067,3554.7414,N,01430.4223,E,1,5,1,0, M,0, M,0,*79,$GPGGA,151649.067,3554.7405,N,01430.4197,E,1,5,1,-0.42719625, M,0, M,0,*7E,35.9123568911798,14.5070383635881,35.9123423679,14.5069955973,2,5.00,,3/28/2013 4:16:49 PM
$GPGGA,151650.081,3554.7414,N,01430.4223,E,1,5,1,0, M,0, M,0,*79,$GPGGA,151650.081,3554.7407,N,01430.4195,E,1,5,1,-0.407479500000001, M,0, M,0,*4B,35.9123568911798,14.5070383635881,35.9123443033,14.5069908657,2,5.00,,3/28/2013 4:16:50 PM
$GPGGA,151651.095,3554.7414,N,01430.4223,E,1,5,1,0, M,0, M,0,*7D,$GPGGA,151651.095,3554.7406,N,01430.4193,E,1,5,1,-0.210312, M,0, M,0,*76,35.9123568911798,14.5070383635881,35.912343802,14.5069877093,2,5.00,,3/28/2013 4:16:51 PM
$GPGGA,151652.109,3554.7414,N,01430.4223,E,1,5,1,0, M,0, M,0,*7A,$GPGGA,151652.109,3554.7412,N,01430.4192,E,1,5,1,-0.0985837500000002, M,0, M,0,*79,35.9123568911798,14.5070383635881,35.9123540164,14.5069869559,2,5.00,,3/28/2013 4:16:52 PM
$GPGGA,151653.123,3554.7414,N,01430.4223,E,1,5,1,0, M,0, M,0,*73,$GPGGA,151653.123,3554.7417,N,01430.4190,E,1,5,1,0.0203527741935472, M,0, M,0,*58,35.9123568911798,14.5070383635881,35.9123612713,14.5069827953,2,5.00,,3/28/2013 4:16:53 PM
$GPGGA,151654.137,3554.7414,N,01430.4223,E,1,5,1,0, M,0, M,0,*71,$GPGGA,151654.137,3554.7420,N,01430.4189,E,1,5,1,-0.0525780000000009, M,0, M,0,*72,35.9123568911798,14.5070383635881,35.9123662722,14.5069811839,2,5.00,,3/28/2013 4:16:54 PM
$GPGGA,151655.151,3554.7414,N,01430.4223,E,1,5,1,0, M,0, M,0,*70,$GPGGA,151655.151,3554.7415,N,01430.4189,E,1,5,1,-0.013144500000001, M,0, M,0,*46,35.9123568911798,14.5070383635881,35.9123590208,14.5069812759,2,5.00,,3/28/2013 4:16:55 PM
$GPGGA,151656.165,3554.7414,N,01430.4223,E,1,5,1,0, M,0, M,0,*74,$GPGGA,151656.165,3554.7412,N,01430.4190,E,1,5,1,0.0339212903225801, M,0, M,0,*59,35.9123568911798,14.5070383635881,35.9123536953,14.5069833498,2,5.00,,3/28/2013 4:16:56 PM
$GPGGA,151657.179,3554.7414,N,01430.4223,E,1,5,1,0, M,0, M,0,*78,$GPGGA,151657.179,3554.7410,N,01430.4195,E,1,5,1,-0.0788670000000008, M,0, M,0,*7F,35.9123568911798,14.5070383635881,35.9123502217,14.5069909921,2,5.00,,3/28/2013 4:16:57 PM
$GPGGA,151658.194,3554.7414,N,01430.4223,E,1,5,1,0, M,0, M,0,*74,$GPGGA,151658.194,3554.7408,N,01430.4201,E,1,5,1,-0.210312, M,0, M,0,*79,35.9123568911798,14.5070383635881,35.9123471247,14.5070018137,2,5.00,,3/28/2013 4:16:58 PM
$GPGGA,151659.208,3554.7414,N,01430.4223,E,1,5,1,0, M,0, M,0,*73,$GPGGA,151659.208,3554.7407,N,01430.4202,E,1,5,1,-0.210312, M,0, M,0,*72,35.9123568911798,14.5070383635881,35.9123457476,14.5070040692,2,5.00,,3/28/2013 4:16:59 PM
$GPGGA,151700.223,3554.7414,N,01430.4223,E,1,5,1,0, M,0, M,0,*77,$GPGGA,151700.223,3554.7410,N,01430.4206,E,1,5,1,-0.315468, M,0, M,0,*7A,35.9123568911798,14.5070383635881,35.9123498187,14.5070099385,2,5.00,,3/28/2013 4:17:00 PM
$GPGGA,151701.235,3554.7414,N,01430.4223,E,1,5,1,0, M,0, M,0,*71,$GPGGA,151701.235,3554.7409,N,01430.4206,E,1,5,1,-0.420624000000001, M,0, M,0,*4E,35.9123568911798,14.5070383635881,35.9123480578,14.5070099227,2,5.00,,3/28/2013 4:17:01 PM
$GPGGA,151702.249,3554.7414,N,01430.4223,E,1,5,1,0, M,0, M,0,*79,$GPGGA,151702.249,3554.7410,N,01430.4200,E,1,5,1,-0.282606750000001, M,0, M,0,*44,35.9123568911798,14.5070383635881,35.912349813,14.5069993954,2,5.00,,3/28/2013 4:17:02 PM
$GPGGA,151703.263,3554.7414,N,01430.4223,E,1,5,1,0, M,0, M,0,*70,$GPGGA,151703.263,3554.7408,N,01430.4196,E,1,5,1,-0.013144500000001, M,0, M,0,*44,35.9123568911798,14.5070383635881,35.9123458855,14.5069933355,2,5.00,,3/28/2013 4:17:03 PM
$GPGGA,151704.277,3554.7414,N,01430.4223,E,1,5,1,0, M,0, M,0,*72,$GPGGA,151704.277,3554.7408,N,01430.4191,E,1,5,1,0.183174967741935, M,0, M,0,*66,35.9123568911798,14.5070383635881,35.9123464917,14.5069843329,2,5.00,,3/28/2013 4:17:04 PM
$GPGGA,151705.291,3554.7414,N,01430.4223,E,1,5,1,0, M,0, M,0,*7B,$GPGGA,151705.291,3554.7405,N,01430.4188,E,1,5,1,0.578357999999999, M,0, M,0,*65,35.9123568911798,14.5070383635881,35.912341473,14.5069796608,2,5.00,,3/28/2013 4:17:05 PM
$GPGGA,151706.305,3554.7414,N,01430.4223,E,1,5,1,0, M,0, M,0,*74,$GPGGA,151706.305,3554.7408,N,01430.4185,E,1,5,1,0.709803, M,0, M,0,*5D,35.9123568911798,14.5070383635881,35.9123469348,14.5069749904,2,5.00,,3/28/2013 4:17:06 PM
$GPGGA,151707.319,3554.7414,N,01430.4223,E,1,5,1,0, M,0, M,0,*78,$GPGGA,151707.319,3554.7412,N,01430.4184,E,1,5,1,0.841247999999999, M,0, M,0,*6B,35.9123568911798,14.5070383635881,35.9123540978,14.5069726771,2,5.00,,3/28/2013 4:17:07 PM
$GPGGA,151708.333,3554.7414,N,01430.4223,E,1,5,1,0, M,0, M,0,*7F,$GPGGA,151708.333,3554.7408,N,01430.4181,E,1,5,1,0.834675749999999, M,0, M,0,*66,35.9123568911798,14.5070383635881,35.912346342,14.5069680263,2,5.00,,3/28/2013 4:17:08 PM
$GPGGA,151709.347,3554.7414,N,01430.4223,E,1,5,1,0, M,0, M,0,*7D,$GPGGA,151709.347,3554.7411,N,01430.4184,E,1,5,1,0.55864125, M,0, M,0,*54,35.9123568911798,14.5070383635881,35.9123519403,14.5069738207,2,5.00,,3/28/2013 4:17:09 PM
$GPGGA,151710.361,3554.7414,N,01430.4223,E,1,5,1,0, M,0, M,0,*71,$GPGGA,151710.361,3554.7401,N,01430.4185,E,1,5,1,0.210311999999999, M,0, M,0,*6D,35.9123568911798,14.5070383635881,35.9123357906,14.5069757364,2,5.00,,3/28/2013 4:17:10 PM
$GPGGA,151711.375,3554.7414,N,01430.4223,E,1,5,1,0, M,0, M,0,*75,$GPGGA,151711.375,3554.7405,N,01430.4184,E,1,5,1,0.335184749999999, M,0, M,0,*67,35.9123568911798,14.5070383635881,35.9123421032,14.5069731483,2,5.00,,3/28/2013 4:17:11 PM
$GPGGA,151712.389,3554.7414,N,01430.4223,E,1,5,1,0, M,0, M,0,*75,$GPGGA,151712.389,3554.7402,N,01430.4189,E,1,5,1,0.133197599999999, M,0, M,0,*64,35.9123568911798,14.5070383635881,35.912337481,14.5069819333,2,5.00,,3/28/2013 4:17:12 PM
$GPGGA,151713.403,3554.7414,N,01430.4223,E,1,5,1,0, M,0, M,0,*71,$GPGGA,151713.403,3554.7401,N,01430.4195,E,1,5,1,-0.1612392, M,0, M,0,*44,35.9123568911798,14.5070383635881,35.9123347965,14.5069922274,2,5.00,,3/28/2013 4:17:13 PM
$GPGGA,151714.417,3554.7414,N,01430.4223,E,1,5,1,0, M,0, M,0,*73,$GPGGA,151714.417,3554.7420,N,01430.4185,E,1,5,1,-0.345512571428573, M,0, M,0,*40,35.9123568911798,14.5070383635881,35.9123673793,14.5069744218,3,0.00,,3/28/2013 4:17:14 PM
$GPGGA,151715.432,3554.7414,N,01430.4223,E,1,5,1,0, M,0, M,0,*75,$GPGGA,151715.432,3554.7418,N,01430.4187,E,1,5,1,-0.620921142857143, M,0, M,0,*42,35.9123568911798,14.5070383635881,35.9123632094,14.5069777412,3,0.00,,3/28/2013 4:17:15 PM
$GPGGA,151716.446,3554.7414,N,01430.4223,E,1,5,1,0, M,0, M,0,*75,$GPGGA,151716.446,3554.7419,N,01430.4192,E,1,5,1,-0.801188571428572, M,0, M,0,*47,35.9123568911798,14.5070383635881,35.9123655846,14.5069873317,3,0.00,,3/28/2013 4:17:16 PM
$GPGGA,151717.461,3554.7414,N,01430.4223,E,1,5,1,0, M,0, M,0,*71,$GPGGA,151717.461,3554.7419,N,01430.4187,E,1,5,1,-0.580861714285714, M,0, M,0,*4F,35.9123568911798,14.5070383635881,35.9123649732,14.5069778132,3,0.00,,3/28/2013 4:17:17 PM
$GPGGA,151718.475,3554.7414,N,01430.4223,E,1,5,1,0, M,0, M,0,*7B,$GPGGA,151718.475,3554.7422,N,01430.4186,E,1,5,1,-0.420624000000001, M,0, M,0,*46,35.9123568911798,14.5070383635881,35.9123697121,14.5069763008,3,0.00,,3/28/2013 4:17:18 PM
$GPGGA,151719.489,3554.7414,N,01430.4223,E,1,5,1,0, M,0, M,0,*79,$GPGGA,151719.489,3554.7421,N,01430.4183,E,1,5,1,-0.280416000000001, M,0, M,0,*4D,35.9123568911798,14.5070383635881,35.9123677296,14.5069711617,3,0.00,,3/28/2013 4:17:19 PM
$GPGGA,151720.501,3554.7414,N,01430.4223,E,1,5,1,0, M,0, M,0,*72,$GPGGA,151720.501,3554.7424,N,01430.4181,E,1,5,1,-0.0573578181818191, M,0, M,0,*72,35.9123568911798,14.5070383635881,35.9123726705,14.506967709,3,0.00,,3/28/2013 4:17:20 PM
$GPGGA,151721.515,3554.7414,N,01430.4223,E,1,5,1,0, M,0, M,0,*76,$GPGGA,151721.515,3554.7421,N,01430.4179,E,1,5,1,-0.060089142857143, M,0, M,0,*43,35.9123568911798,14.5070383635881,35.9123683627,14.5069657624,3,0.00,,3/28/2013 4:17:21 PM
$GPGGA,151722.529,3554.7414,N,01430.4223,E,1,5,1,0, M,0, M,0,*7A,$GPGGA,151722.529,3554.7420,N,01430.4179,E,1,5,1,-0.210312, M,0, M,0,*71,35.9123568911798,14.5070383635881,35.9123671825,14.506964237,3,0.00,,3/28/2013 4:17:22 PM
$GPGGA,151723.543,3554.7414,N,01430.4223,E,1,5,1,0, M,0, M,0,*77,$GPGGA,151723.543,3554.7421,N,01430.4180,E,1,5,1,-0.160237714285715, M,0, M,0,*47,35.9123568911798,14.5070383635881,35.9123688289,14.5069662546,3,0.00,,3/28/2013 4:17:23 PM
$GPGGA,151724.557,3554.7414,N,01430.4223,E,1,5,1,0, M,0, M,0,*75,$GPGGA,151724.557,3554.7417,N,01430.4178,E,1,5,1,-0.200297142857142, M,0, M,0,*4C,35.9123568911798,14.5070383635881,35.91236215,14.5069634254,3,0.00,,3/28/2013 4:17:24 PM
$GPGGA,151725.571,3554.7414,N,01430.4223,E,1,5,1,0, M,0, M,0,*70,$GPGGA,151725.571,3554.7418,N,01430.4178,E,1,5,1,-0.210312, M,0, M,0,*71,35.9123568911798,14.5070383635881,35.9123627118,14.5069631451,3,0.00,,3/28/2013 4:17:25 PM
$GPGGA,151726.585,3554.7414,N,01430.4223,E,1,5,1,0, M,0, M,0,*78,$GPGGA,151726.585,3554.7418,N,01430.4177,E,1,5,1,-0.028678909090909, M,0, M,0,*4F,35.9123568911798,14.5070383635881,35.9123630564,14.5069616775,3,0.00,,3/28/2013 4:17:26 PM
$GPGGA,151727.599,3554.7414,N,01430.4223,E,1,5,1,0, M,0, M,0,*74,$GPGGA,151727.599,3554.7418,N,01430.4171,E,1,5,1,-0.060089142857143, M,0, M,0,*43,35.9123568911798,14.5070383635881,35.912364156,14.5069515899,3,1.00,,3/28/2013 4:17:27 PM
$GPGGA,151728.613,3554.7414,N,01430.4223,E,1,5,1,0, M,0, M,0,*7A,$GPGGA,151728.613,3554.7417,N,01430.4171,E,1,5,1,-0.143394545454546, M,0, M,0,*40,35.9123568911798,14.5070383635881,35.9123611158,14.5069521154,3,1.00,,3/28/2013 4:17:28 PM
$GPGGA,151729.627,3554.7414,N,01430.4223,E,1,5,1,0, M,0, M,0,*7C,$GPGGA,151729.627,3554.7417,N,01430.4172,E,1,5,1,-0.0500742857142869, M,0, M,0,*75,35.9123568911798,14.5070383635881,35.9123609265,14.5069534715,3,1.00,,3/28/2013 4:17:29 PM
$GPGGA,151730.641,3554.7414,N,01430.4223,E,1,5,1,0, M,0, M,0,*74,$GPGGA,151730.641,3554.7415,N,01430.4173,E,1,5,1,-0.130193142857144, M,0, M,0,*45,35.9123568911798,14.5070383635881,35.9123589793,14.5069547714,3,1.00,,3/28/2013 4:17:30 PM
$GPGGA,151731.655,3554.7414,N,01430.4223,E,1,5,1,0, M,0, M,0,*70,$GPGGA,151731.655,3554.7413,N,01430.4174,E,1,5,1,-0.210312, M,0, M,0,*76,35.9123568911798,14.5070383635881,35.9123542734,14.5069572667,3,1.00,,3/28/2013 4:17:31 PM
$GPGGA,151732.669,3554.7414,N,01430.4223,E,1,5,1,0, M,0, M,0,*7C,$GPGGA,151732.669,3554.7418,N,01430.4174,E,1,5,1,-0.210312, M,0, M,0,*71,35.9123568911798,14.5070383635881,35.9123629078,14.5069560576,3,1.00,,3/28/2013 4:17:32 PM
$GPGGA,151733.683,3554.7414,N,01430.4223,E,1,5,1,0, M,0, M,0,*79,$GPGGA,151733.683,3554.7417,N,01430.4173,E,1,5,1,-0.180267428571429, M,0, M,0,*47,35.9123568911798,14.5070383635881,35.9123610553,14.5069547245,3,1.00,,3/28/2013 4:17:33 PM
$GPGGA,151734.698,3554.7414,N,01430.4223,E,1,5,1,0, M,0, M,0,*74,$GPGGA,151734.698,3554.7416,N,01430.4175,E,1,5,1,-0.310460571428572, M,0, M,0,*48,35.9123568911798,14.5070383635881,35.9123602517,14.506958125,3,1.00,,3/28/2013 4:17:34 PM
$GPGGA,151735.712,3554.7414,N,01430.4223,E,1,5,1,0, M,0, M,0,*76,$GPGGA,151735.712,3554.7416,N,01430.4175,E,1,5,1,-0.210312, M,0, M,0,*74,35.9123568911798,14.5070383635881,35.9123603897,14.5069577127,3,1.00,,3/28/2013 4:17:35 PM
$GPGGA,151736.726,3554.7414,N,01430.4223,E,1,5,1,0, M,0, M,0,*72,$GPGGA,151736.726,3554.7418,N,01430.4174,E,1,5,1,-0.200297142857142, M,0, M,0,*48,35.9123568911798,14.5070383635881,35.9123626925,14.5069561183,3,1.00,,3/28/2013 4:17:36 PM
$GPGGA,151737.740,3554.7414,N,01430.4223,E,1,5,1,0, M,0, M,0,*73,$GPGGA,151737.740,3554.7415,N,01430.4175,E,1,5,1,-0.420624000000001, M,0, M,0,*46,35.9123568911798,14.5070383635881,35.9123588274,14.5069584286,3,1.00,,3/28/2013 4:17:37 PM
$GPGGA,151738.754,3554.7414,N,01430.4223,E,1,5,1,0, M,0, M,0,*79,$GPGGA,151738.754,3554.7419,N,01430.4175,E,1,5,1,-0.300445714285715, M,0, M,0,*4F,35.9123568911798,14.5070383635881,35.9123653308,14.5069585082,3,1.00,,3/28/2013 4:17:38 PM
$GPGGA,151739.768,3554.7414,N,01430.4223,E,1,5,1,0, M,0, M,0,*77,$GPGGA,151739.768,3554.7416,N,01430.4174,E,1,5,1,-0.310460571428572, M,0, M,0,*4A,35.9123568911798,14.5070383635881,35.912360257,14.5069572647,3,1.00,,3/28/2013 4:17:39 PM
$GPGGA,151740.781,3554.7414,N,01430.4223,E,1,5,1,0, M,0, M,0,*7E,$GPGGA,151740.781,3554.7416,N,01430.4175,E,1,5,1,-0.590876571428573, M,0, M,0,*46,35.9123568911798,14.5070383635881,35.912360415,14.5069586313,3,1.00,,3/28/2013 4:17:40 PM
$GPGGA,151741.795,3554.7414,N,01430.4223,E,1,5,1,0, M,0, M,0,*7A,$GPGGA,151741.795,3554.7417,N,01430.4174,E,1,5,1,-0.458862545454545, M,0, M,0,*4B,35.9123568911798,14.5070383635881,35.9123620605,14.5069558561,3,1.00,,3/28/2013 4:17:41 PM
$GPGGA,151742.809,3554.7414,N,01430.4223,E,1,5,1,0, M,0, M,0,*73,$GPGGA,151742.809,3554.7418,N,01430.4173,E,1,5,1,-0.400594285714286, M,0, M,0,*47,35.9123568911798,14.5070383635881,35.9123637051,14.506954573,3,1.00,,3/28/2013 4:17:42 PM
$GPGGA,151743.823,3554.7414,N,01430.4223,E,1,5,1,0, M,0, M,0,*7A,$GPGGA,151743.823,3554.7417,N,01430.4173,E,1,5,1,-0.449302909090909, M,0, M,0,*4D,35.9123568911798,14.5070383635881,35.912362289,14.5069551897,3,1.00,,3/28/2013 4:17:43 PM
$GPGGA,151744.837,3554.7414,N,01430.4223,E,1,5,1,0, M,0, M,0,*78,$GPGGA,151744.837,3554.7420,N,01430.4172,E,1,5,1,-0.300445714285715, M,0, M,0,*43,35.9123568911798,14.5070383635881,35.9123662308,14.5069537452,3,1.00,,3/28/2013 4:17:44 PM
$GPGGA,151745.851,3554.7414,N,01430.4223,E,1,5,1,0, M,0, M,0,*79,$GPGGA,151745.851,3554.7417,N,01430.4174,E,1,5,1,-0.450668571428572, M,0, M,0,*4C,35.9123568911798,14.5070383635881,35.9123620817,14.5069560029,3,1.00,,3/28/2013 4:17:45 PM
$GPGGA,151746.865,3554.7414,N,01430.4223,E,1,5,1,0, M,0, M,0,*7D,$GPGGA,151746.865,3554.7418,N,01430.4174,E,1,5,1,-0.544899272727274, M,0, M,0,*4A,35.9123568911798,14.5070383635881,35.9123631036,14.5069572384,3,1.00,,3/28/2013 4:17:46 PM
$GPGGA,151747.879,3554.7414,N,01430.4223,E,1,5,1,0, M,0, M,0,*71,$GPGGA,151747.879,3554.7419,N,01430.4173,E,1,5,1,-0.35052, M,0, M,0,*48,35.9123568911798,14.5070383635881,35.9123642092,14.5069544573,3,1.00,,3/28/2013 4:17:47 PM
$GPGGA,151748.893,3554.7414,N,01430.4223,E,1,5,1,0, M,0, M,0,*7A,$GPGGA,151748.893,3554.7415,N,01430.4174,E,1,5,1,-0.450668571428572, M,0, M,0,*4D,35.9123568911798,14.5070383635881,35.9123590876,14.5069564675,3,1.00,,3/28/2013 4:17:48 PM
$GPGGA,151749.907,3554.7414,N,01430.4223,E,1,5,1,0, M,0, M,0,*77,$GPGGA,151749.907,3554.7419,N,01430.4173,E,1,5,1,-0.430638857142858, M,0, M,0,*4D,35.9123568911798,14.5070383635881,35.9123643006,14.5069555806,3,1.00,,3/28/2013 4:17:49 PM
$GPGGA,151750.921,3554.7414,N,01430.4223,E,1,5,1,0, M,0, M,0,*7B,$GPGGA,151750.921,3554.7420,N,01430.4173,E,1,5,1,-0.334587272727274, M,0, M,0,*43,35.9123568911798,14.5070383635881,35.9123665215,14.5069550572,3,1.00,,3/28/2013 4:17:50 PM
$GPGGA,151751.935,3554.7414,N,01430.4223,E,1,5,1,0, M,0, M,0,*7F,$GPGGA,151751.935,3554.7415,N,01430.4174,E,1,5,1,-0.430183636363637, M,0, M,0,*46,35.9123568911798,14.5070383635881,35.9123587074,14.5069558669,3,1.00,,3/28/2013 4:17:51 PM
$GPGGA,151752.950,3554.7414,N,01430.4223,E,1,5,1,0, M,0, M,0,*7F,$GPGGA,151752.950,3554.7420,N,01430.4175,E,1,5,1,-0.430638857142858, M,0, M,0,*49,35.9123568911798,14.5070383635881,35.9123673863,14.5069582687,3,1.00,,3/28/2013 4:17:52 PM
$GPGGA,151753.964,3554.7414,N,01430.4223,E,1,5,1,0, M,0, M,0,*79,$GPGGA,151753.964,3554.7418,N,01430.4175,E,1,5,1,-0.420624000000001, M,0, M,0,*41,35.9123568911798,14.5070383635881,35.9123631866,14.5069579045,3,1.00,,3/28/2013 4:17:53 PM
$GPGGA,151754.978,3554.7414,N,01430.4223,E,1,5,1,0, M,0, M,0,*73,$GPGGA,151754.978,3554.7415,N,01430.4176,E,1,5,1,-0.440653714285715, M,0, M,0,*4C,35.9123568911798,14.5070383635881,35.9123584509,14.5069594469,3,1.00,,3/28/2013 4:17:54 PM
$GPGGA,151755.992,3554.7414,N,01430.4223,E,1,5,1,0, M,0, M,0,*76,$GPGGA,151755.992,3554.7417,N,01430.4175,E,1,5,1,-0.420624000000001, M,0, M,0,*41,35.9123568911798,14.5070383635881,35.9123613926,14.5069582518,3,1.00,,3/28/2013 4:17:55 PM
$GPGGA,151757.006,3554.7414,N,01430.4223,E,1,5,1,0, M,0, M,0,*70,$GPGGA,151757.006,3554.7415,N,01430.4174,E,1,5,1,-0.410609142857143, M,0, M,0,*42,35.9123568911798,14.5070383635881,35.9123591621,14.5069564994,3,1.00,,3/28/2013 4:17:57 PM
$GPGGA,151758.020,3554.7414,N,01430.4223,E,1,5,1,0, M,0, M,0,*7B,$GPGGA,151758.020,3554.7415,N,01430.4174,E,1,5,1,-0.420624000000001, M,0, M,0,*4F,35.9123568911798,14.5070383635881,35.9123588521,14.5069566388,3,1.00,,3/28/2013 4:17:58 PM
$GPGGA,151759.034,3554.7414,N,01430.4223,E,1,5,1,0, M,0, M,0,*7F,$GPGGA,151759.034,3554.7417,N,01430.4175,E,1,5,1,-0.430638857142858, M,0, M,0,*4D,35.9123568911798,14.5070383635881,35.9123611205,14.506958089,3,1.00,,3/28/2013 4:17:59 PM
$GPGGA,151800.047,3554.7414,N,01430.4223,E,1,5,1,0, M,0, M,0,*78,$GPGGA,151800.047,3554.7412,N,01430.4174,E,1,5,1,-0.420624000000001, M,0, M,0,*4B,35.9123568911798,14.5070383635881,35.9123539845,14.5069571196,3,1.00,,3/28/2013 4:18:00 PM
$GPGGA,151801.061,3554.7414,N,01430.4223,E,1,5,1,0, M,0, M,0,*7D,$GPGGA,151801.061,3554.7413,N,01430.4175,E,1,5,1,-0.500742857142857, M,0, M,0,*4A,35.9123568911798,14.5070383635881,35.9123544109,14.5069591218,3,1.00,,3/28/2013 4:18:01 PM
$GPGGA,151802.075,3554.7414,N,01430.4223,E,1,5,1,0, M,0, M,0,*7B,$GPGGA,151802.075,3554.7414,N,01430.4175,E,1,5,1,-0.468422181818182, M,0, M,0,*44,35.9123568911798,14.5070383635881,35.9123561993,14.5069578252,3,1.00,,3/28/2013 4:18:02 PM
$GPGGA,151803.089,3554.7414,N,01430.4223,E,1,5,1,0, M,0, M,0,*79,$GPGGA,151803.089,3554.7413,N,01430.4174,E,1,5,1,-0.380564571428572, M,0, M,0,*4D,35.9123568911798,14.5070383635881,35.9123541668,14.5069560209,3,1.00,,3/28/2013 4:18:03 PM
$GPGGA,151804.103,3554.7414,N,01430.4223,E,1,5,1,0, M,0, M,0,*7D,$GPGGA,151804.103,3554.7413,N,01430.4174,E,1,5,1,-0.420624000000001, M,0, M,0,*4F,35.9123568911798,14.5070383635881,35.9123554946,14.5069568189,3,1.00,,3/28/2013 4:18:04 PM
$GPGGA,151805.117,3554.7414,N,01430.4223,E,1,5,1,0, M,0, M,0,*79,$GPGGA,151805.117,3554.7412,N,01430.4173,E,1,5,1,-0.380564571428572, M,0, M,0,*4B,35.9123568911798,14.5070383635881,35.9123539034,14.5069547044,3,1.00,,3/28/2013 4:18:05 PM
$GPGGA,151806.131,3554.7414,N,01430.4223,E,1,5,1,0, M,0, M,0,*7E,$GPGGA,151806.131,3554.7414,N,01430.4172,E,1,5,1,-0.353706545454545, M,0, M,0,*4B,35.9123568911798,14.5070383635881,35.912356673,14.5069538783,3,1.00,,3/28/2013 4:18:06 PM
$GPGGA,151807.145,3554.7414,N,01430.4223,E,1,5,1,0, M,0, M,0,*7C,$GPGGA,151807.145,3554.7407,N,01430.4174,E,1,5,1,-0.420624000000001, M,0, M,0,*4B,35.9123568911798,14.5070383635881,35.912345069,14.5069567212,3,1.00,,3/28/2013 4:18:07 PM
$GPGGA,151808.159,3554.7414,N,01430.4223,E,1,5,1,0, M,0, M,0,*7E,$GPGGA,151808.159,3554.7413,N,01430.4173,E,1,5,1,-0.286789090909092, M,0, M,0,*44,35.9123568911798,14.5070383635881,35.9123545494,14.5069544641,3,1.00,,3/28/2013 4:18:08 PM
$GPGGA,151809.173,3554.7414,N,01430.4223,E,1,5,1,0, M,0, M,0,*77,$GPGGA,151809.173,3554.7407,N,01430.4174,E,1,5,1,-0.210312, M,0, M,0,*74,35.9123568911798,14.5070383635881,35.9123452648,14.5069562948,3,1.00,,3/28/2013 4:18:09 PM
$GPGGA,151810.188,3554.7414,N,01430.4223,E,1,5,1,0, M,0, M,0,*7B,$GPGGA,151810.188,3554.7398,N,01430.4174,E,1,5,1,-0.210312, M,0, M,0,*79,35.9123568911798,14.5070383635881,35.9123304511,14.5069558959,3,2.00,,3/28/2013 4:18:10 PM
$GPGGA,151811.202,3554.7414,N,01430.4223,E,1,5,1,0, M,0, M,0,*7B,$GPGGA,151811.202,3554.7396,N,01430.4173,E,1,5,1,-0.133834909090909, M,0, M,0,*44,35.9123568911798,14.5070383635881,35.9123258699,14.5069555863,3,2.00,,3/28/2013 4:18:11 PM
$GPGGA,151812.216,3554.7414,N,01430.4223,E,1,5,1,0, M,0, M,0,*7D,$GPGGA,151812.216,3554.7392,N,01430.4173,E,1,5,1,-0.0100148571428582, M,0, M,0,*7F,35.9123568911798,14.5070383635881,35.9123207059,14.5069542974,3,2.00,,3/28/2013 4:18:12 PM
$GPGGA,151813.230,3554.7414,N,01430.4223,E,1,5,1,0, M,0, M,0,*78,$GPGGA,151813.230,3554.7399,N,01430.4167,E,1,5,1,0.310460571428571, M,0, M,0,*69,35.9123568911798,14.5070383635881,35.9123321899,14.506945723,3,2.00,,3/28/2013 4:18:13 PM
$GPGGA,151814.244,3554.7414,N,01430.4223,E,1,5,1,0, M,0, M,0,*7C,$GPGGA,151814.244,3554.7412,N,01430.4161,E,1,5,1,0.811203428571427, M,0, M,0,*64,35.9123568911798,14.5070383635881,35.9123534177,14.5069347509,3,2.00,,3/28/2013 4:18:14 PM
$GPGGA,151815.258,3554.7414,N,01430.4223,E,1,5,1,0, M,0, M,0,*70,$GPGGA,151815.258,3554.7415,N,01430.4164,E,1,5,1,0.981456, M,0, M,0,*58,35.9123568911798,14.5070383635881,35.9123587417,14.5069394506,3,2.00,,3/28/2013 4:18:15 PM
$GPGGA,151816.272,3554.7414,N,01430.4223,E,1,5,1,0, M,0, M,0,*7B,$GPGGA,151816.272,3554.7408,N,01430.4166,E,1,5,1,1.05156, M,0, M,0,*6C,35.9123568911798,14.5070383635881,35.9123471296,14.5069431078,3,2.00,,3/28/2013 4:18:16 PM
$GPGGA,151817.286,3554.7414,N,01430.4223,E,1,5,1,0, M,0, M,0,*71,$GPGGA,151817.286,3554.7408,N,01430.4165,E,1,5,1,1.01150057142857, M,0, M,0,*58,35.9123568911798,14.5070383635881,35.9123472033,14.5069410699,3,2.00,,3/28/2013 4:18:17 PM
$GPGGA,151818.300,3554.7414,N,01430.4223,E,1,5,1,0, M,0, M,0,*71,$GPGGA,151818.300,3554.7410,N,01430.4164,E,1,5,1,1.05156, M,0, M,0,*6D,35.9123568911798,14.5070383635881,35.9123492411,14.5069395677,3,2.00,,3/28/2013 4:18:18 PM
$GPGGA,151819.314,3554.7414,N,01430.4223,E,1,5,1,0, M,0, M,0,*75,$GPGGA,151819.314,3554.7415,N,01430.4163,E,1,5,1,1.05156, M,0, M,0,*6B,35.9123568911798,14.5070383635881,35.9123589257,14.5069386836,3,2.00,,3/28/2013 4:18:19 PM
$GPGGA,151820.327,3554.7414,N,01430.4223,E,1,5,1,0, M,0, M,0,*7F,$GPGGA,151820.327,3554.7418,N,01430.4163,E,1,5,1,1.261872, M,0, M,0,*53,35.9123568911798,14.5070383635881,35.9123635173,14.5069386195,3,2.00,,3/28/2013 4:18:20 PM
$GPGGA,151821.341,3554.7414,N,01430.4223,E,1,5,1,0, M,0, M,0,*7E,$GPGGA,151821.341,3554.7419,N,01430.4163,E,1,5,1,1.36149347368421, M,0, M,0,*58,35.9123568911798,14.5070383635881,35.9123649299,14.5069389993,3,2.00,,3/28/2013 4:18:21 PM
$GPGGA,151822.355,3554.7414,N,01430.4223,E,1,5,1,0, M,0, M,0,*78,$GPGGA,151822.355,3554.7416,N,01430.4163,E,1,5,1,1.34199085714286, M,0, M,0,*57,35.9123568911798,14.5070383635881,35.9123600002,14.5069384361,3,2.00,,3/28/2013 4:18:22 PM
$GPGGA,151823.369,3554.7414,N,01430.4223,E,1,5,1,0, M,0, M,0,*76,$GPGGA,151823.369,3554.7419,N,01430.4162,E,1,5,1,1.261872, M,0, M,0,*5A,35.9123568911798,14.5070383635881,35.9123646897,14.5069368865,3,2.00,,3/28/2013 4:18:23 PM
$GPGGA,151824.383,3554.7414,N,01430.4223,E,1,5,1,0, M,0, M,0,*75,$GPGGA,151824.383,3554.7416,N,01430.4162,E,1,5,1,1.20451418181818, M,0, M,0,*58,35.9123568911798,14.5070383635881,35.9123604838,14.5069358811,3,2.00,,3/28/2013 4:18:24 PM
$GPGGA,151825.397,3554.7414,N,01430.4223,E,1,5,1,0, M,0, M,0,*71,$GPGGA,151825.397,3554.7421,N,01430.4162,E,1,5,1,1.05156, M,0, M,0,*69,35.9123568911798,14.5070383635881,35.9123682867,14.5069362016,3,2.00,,3/28/2013 4:18:25 PM
$GPGGA,151826.411,3554.7414,N,01430.4223,E,1,5,1,0, M,0, M,0,*7B,$GPGGA,151826.411,3554.7419,N,01430.4160,E,1,5,1,1.06111963636364, M,0, M,0,*54,35.9123568911798,14.5070383635881,35.9123641907,14.5069337589,3,2.00,,3/28/2013 4:18:26 PM
$GPGGA,151827.426,3554.7414,N,01430.4223,E,1,5,1,0, M,0, M,0,*7E,$GPGGA,151827.426,3554.7416,N,01430.4160,E,1,5,1,1.06157485714286, M,0, M,0,*55,35.9123568911798,14.5070383635881,35.9123607589,14.5069336034,3,2.00,,3/28/2013 4:18:27 PM
$GPGGA,151828.440,3554.7414,N,01430.4223,E,1,5,1,0, M,0, M,0,*71,$GPGGA,151828.440,3554.7417,N,01430.4160,E,1,5,1,1.05156, M,0, M,0,*6E,35.9123568911798,14.5070383635881,35.912361219,14.5069338173,3,2.00,,3/28/2013 4:18:28 PM
$GPGGA,151829.454,3554.7414,N,01430.4223,E,1,5,1,0, M,0, M,0,*75,$GPGGA,151829.454,3554.7413,N,01430.4160,E,1,5,1,1.05156, M,0, M,0,*6E,35.9123568911798,14.5070383635881,35.912355318,14.5069337716,3,2.00,,3/28/2013 4:18:29 PM
$GPGGA,151830.468,3554.7414,N,01430.4223,E,1,5,1,0, M,0, M,0,*72,$GPGGA,151830.468,3554.7416,N,01430.4160,E,1,5,1,0.951411428571428, M,0, M,0,*60,35.9123568911798,14.5070383635881,35.9123607153,14.5069336667,3,2.00,,3/28/2013 4:18:30 PM
$GPGGA,151831.482,3554.7414,N,01430.4223,E,1,5,1,0, M,0, M,0,*77,$GPGGA,151831.482,3554.7415,N,01430.4161,E,1,5,1,0.7781544, M,0, M,0,*61,35.9123568911798,14.5070383635881,35.9123582177,14.5069343229,3,2.00,,3/28/2013 4:18:31 PM
$GPGGA,151832.496,3554.7414,N,01430.4223,E,1,5,1,0, M,0, M,0,*71,$GPGGA,151832.496,3554.7415,N,01430.4161,E,1,5,1,0.531314526315789, M,0, M,0,*6A,35.9123568911798,14.5070383635881,35.912357623,14.5069346652,3,2.00,,3/28/2013 4:18:32 PM
$GPGGA,151833.511,3554.7414,N,01430.4223,E,1,5,1,0, M,0, M,0,*7E,$GPGGA,151833.511,3554.7411,N,01430.4162,E,1,5,1,0.320475428571428, M,0, M,0,*67,35.9123568911798,14.5070383635881,35.912352087,14.5069365432,3,2.00,,3/28/2013 4:18:33 PM
$GPGGA,151834.524,3554.7414,N,01430.4223,E,1,5,1,0, M,0, M,0,*7F,$GPGGA,151834.524,3554.7413,N,01430.4163,E,1,5,1,0.0701040000000001, M,0, M,0,*52,35.9123568911798,14.5070383635881,35.9123546342,14.5069385249,3,2.00,,3/28/2013 4:18:34 PM
$GPGGA,151835.538,3554.7414,N,01430.4223,E,1,5,1,0, M,0, M,0,*73,$GPGGA,151835.538,3554.7417,N,01430.4156,E,1,5,1,0.190282285714285, M,0, M,0,*6D,35.9123568911798,14.5070383635881,35.9123615395,14.5069269887,3,3.00,,3/28/2013 4:18:35 PM
$GPGGA,151836.552,3554.7414,N,01430.4223,E,1,5,1,0, M,0, M,0,*7C,$GPGGA,151836.552,3554.7415,N,01430.4157,E,1,5,1,0.210311999999999, M,0, M,0,*6A,35.9123568911798,14.5070383635881,35.9123581364,14.5069278204,3,3.00,,3/28/2013 4:18:36 PM
$GPGGA,151837.566,3554.7414,N,01430.4223,E,1,5,1,0, M,0, M,0,*7A,$GPGGA,151837.566,3554.7411,N,01430.4157,E,1,5,1,0.162513818181818, M,0, M,0,*6B,35.9123568911798,14.5070383635881,35.9123520682,14.5069282759,3,3.00,,3/28/2013 4:18:37 PM
$GPGGA,151838.580,3554.7414,N,01430.4223,E,1,5,1,0, M,0, M,0,*7D,$GPGGA,151838.580,3554.7412,N,01430.4151,E,1,5,1,0.420624, M,0, M,0,*55,35.9123568911798,14.5070383635881,35.9123525227,14.5069175055,3,4.00,,3/28/2013 4:18:38 PM
$GPGGA,151839.594,3554.7414,N,01430.4223,E,1,5,1,0, M,0, M,0,*79,$GPGGA,151839.594,3554.7412,N,01430.4152,E,1,5,1,0.330490285714285, M,0, M,0,*6B,35.9123568911798,14.5070383635881,35.9123527352,14.506920516,3,4.00,,3/28/2013 4:18:39 PM
$GPGGA,151840.608,3554.7414,N,01430.4223,E,1,5,1,0, M,0, M,0,*71,$GPGGA,151840.608,3554.7411,N,01430.4153,E,1,5,1,0.250371428571428, M,0, M,0,*6F,35.9123568911798,14.5070383635881,35.9123513528,14.5069214456,3,4.00,,3/28/2013 4:18:40 PM
$GPGGA,151841.622,3554.7414,N,01430.4223,E,1,5,1,0, M,0, M,0,*78,$GPGGA,151841.622,3554.7403,N,01430.4155,E,1,5,1,0.210311999999999, M,0, M,0,*6B,35.9123568911798,14.5070383635881,35.9123389056,14.5069253075,3,4.00,,3/28/2013 4:18:41 PM
$GPGGA,151842.636,3554.7414,N,01430.4223,E,1,5,1,0, M,0, M,0,*7E,$GPGGA,151842.636,3554.7402,N,01430.4157,E,1,5,1,0.0901337142857145, M,0, M,0,*55,35.9123568911798,14.5070383635881,35.9123367467,14.5069282085,3,4.00,,3/28/2013 4:18:42 PM
$GPGGA,151843.650,3554.7414,N,01430.4223,E,1,5,1,0, M,0, M,0,*7F,$GPGGA,151843.650,3554.7402,N,01430.4157,E,1,5,1,0.100148571428571, M,0, M,0,*64,35.9123568911798,14.5070383635881,35.9123367842,14.50692895,3,4.00,,3/28/2013 4:18:43 PM
$GPGGA,151844.665,3554.7414,N,01430.4223,E,1,5,1,0, M,0, M,0,*7E,$GPGGA,151844.665,3554.7396,N,01430.4154,E,1,5,1,0.0200297142857132, M,0, M,0,*5D,35.9123568911798,14.5070383635881,35.9123268777,14.5069239716,3,5.00,,3/28/2013 4:18:44 PM
$GPGGA,151845.679,3554.7414,N,01430.4223,E,1,5,1,0, M,0, M,0,*72,$GPGGA,151845.679,3554.7399,N,01430.4153,E,1,5,1,0.100148571428571, M,0, M,0,*68,35.9123568911798,14.5070383635881,35.9123314411,14.5069221788,3,5.00,,3/28/2013 4:18:45 PM
$GPGGA,151846.693,3554.7414,N,01430.4223,E,1,5,1,0, M,0, M,0,*75,$GPGGA,151846.693,3554.7397,N,01430.4154,E,1,5,1,0.210311999999999, M,0, M,0,*6D,35.9123568911798,14.5070383635881,35.9123278045,14.5069228246,3,5.00,,3/28/2013 4:18:46 PM
$GPGGA,151847.706,3554.7414,N,01430.4223,E,1,5,1,0, M,0, M,0,*79,$GPGGA,151847.706,3554.7400,N,01430.4152,E,1,5,1,0.210311999999999, M,0, M,0,*6E,35.9123568911798,14.5070383635881,35.9123339888,14.5069197644,3,5.00,,3/28/2013 4:18:47 PM
$GPGGA,151848.720,3554.7414,N,01430.4223,E,1,5,1,0, M,0, M,0,*72,$GPGGA,151848.720,3554.7402,N,01430.4152,E,1,5,1,0.250371428571428, M,0, M,0,*6F,35.9123568911798,14.5070383635881,35.912337048,14.5069195244,3,5.00,,3/28/2013 4:18:48 PM
$GPGGA,151849.734,3554.7414,N,01430.4223,E,1,5,1,0, M,0, M,0,*76,$GPGGA,151849.734,3554.7396,N,01430.4154,E,1,5,1,0.260386285714286, M,0, M,0,*6E,35.9123568911798,14.5070383635881,35.9123273695,14.5069231218,3,5.00,,3/28/2013 4:18:49 PM
$GPGGA,151850.748,3554.7414,N,01430.4223,E,1,5,1,0, M,0, M,0,*75,$GPGGA,151850.748,3554.7395,N,01430.4156,E,1,5,1,0.220326857142858, M,0, M,0,*6B,35.9123568911798,14.5070383635881,35.9123242102,14.5069264147,3,5.00,,3/28/2013 4:18:50 PM
$GPGGA,151851.762,3554.7414,N,01430.4223,E,1,5,1,0, M,0, M,0,*7C,$GPGGA,151851.762,3554.7390,N,01430.4160,E,1,5,1,0.0600891428571419, M,0, M,0,*5A,35.9123568911798,14.5070383635881,35.9123164973,14.5069331012,3,5.00,,3/28/2013 4:18:51 PM
$GPGGA,151852.776,3554.7414,N,01430.4223,E,1,5,1,0, M,0, M,0,*7A,$GPGGA,151852.776,3554.7386,N,01430.4163,E,1,5,1,-0.00955963636363742, M,0, M,0,*43,35.9123568911798,14.5070383635881,35.9123092092,14.5069381312,3,5.00,,3/28/2013 4:18:52 PM
$GPGGA,151853.791,3554.7414,N,01430.4223,E,1,5,1,0, M,0, M,0,*72,$GPGGA,151853.791,3554.7388,N,01430.4160,E,1,5,1,0, M,0, M,0,*74,35.9123568911798,14.5070383635881,35.9123131996,14.5069339397,3,5.00,,3/28/2013 4:18:53 PM
$GPGGA,151854.804,3554.7414,N,01430.4223,E,1,5,1,0, M,0, M,0,*76,$GPGGA,151854.804,3554.7391,N,01430.4157,E,1,5,1,0.00955963636363633, M,0, M,0,*64,35.9123568911798,14.5070383635881,35.9123175071,14.5069288703,3,5.00,,3/28/2013 4:18:54 PM
$GPGGA,151855.818,3554.7414,N,01430.4223,E,1,5,1,0, M,0, M,0,*7A,$GPGGA,151855.818,3554.7395,N,01430.4155,E,1,5,1,0.200297142857141, M,0, M,0,*6F,35.9123568911798,14.5070383635881,35.9123255837,14.5069254403,3,5.00,,3/28/2013 4:18:55 PM
$GPGGA,151856.832,3554.7414,N,01430.4223,E,1,5,1,0, M,0, M,0,*71,$GPGGA,151856.832,3554.7398,N,01430.4152,E,1,5,1,0.220326857142858, M,0, M,0,*66,35.9123568911798,14.5070383635881,35.9123293542,14.506920246,3,5.00,,3/28/2013 4:18:56 PM
$GPGGA,151857.846,3554.7414,N,01430.4223,E,1,5,1,0, M,0, M,0,*73,$GPGGA,151857.846,3554.7396,N,01430.4154,E,1,5,1,0.210311999999999, M,0, M,0,*6A,35.9123568911798,14.5070383635881,35.9123259044,14.5069240375,3,5.00,,3/28/2013 4:18:57 PM
$GPGGA,151858.860,3554.7414,N,01430.4223,E,1,5,1,0, M,0, M,0,*78,$GPGGA,151858.860,3554.7397,N,01430.4155,E,1,5,1,0.210311999999999, M,0, M,0,*61,35.9123568911798,14.5070383635881,35.9123286657,14.5069244983,3,5.00,,3/28/2013 4:18:58 PM
$GPGGA,151859.874,3554.7414,N,01430.4223,E,1,5,1,0, M,0, M,0,*7C,$GPGGA,151859.874,3554.7395,N,01430.4156,E,1,5,1,0.110163428571429, M,0, M,0,*6B,35.9123568911798,14.5070383635881,35.9123248383,14.5069269003,3,5.00,,3/28/2013 4:18:59 PM
$GPGGA,151900.888,3554.7414,N,01430.4223,E,1,5,1,0, M,0, M,0,*72,$GPGGA,151900.888,3554.7394,N,01430.4157,E,1,5,1,0.0500742857142858, M,0, M,0,*5F,35.9123568911798,14.5070383635881,35.9123233362,14.5069285034,3,5.00,,3/28/2013 4:19:00 PM
$GPGGA,151901.902,3554.7414,N,01430.4223,E,1,5,1,0, M,0, M,0,*70,$GPGGA,151901.902,3554.7395,N,01430.4157,E,1,5,1,0.120178285714285, M,0, M,0,*6F,35.9123568911798,14.5070383635881,35.9123256404,14.5069288598,3,5.00,,3/28/2013 4:19:01 PM
$GPGGA,151902.916,3554.7414,N,01430.4223,E,1,5,1,0, M,0, M,0,*76,$GPGGA,151902.916,3554.7392,N,01430.4158,E,1,5,1,0.0400594285714276, M,0, M,0,*5C,35.9123568911798,14.5070383635881,35.9123207559,14.5069305836,3,5.00,,3/28/2013 4:19:02 PM
$GPGGA,151903.930,3554.7414,N,01430.4223,E,1,5,1,0, M,0, M,0,*73,$GPGGA,151903.930,3554.7396,N,01430.4155,E,1,5,1,0.140207999999999, M,0, M,0,*6B,35.9123568911798,14.5070383635881,35.9123268109,14.5069249935,3,5.00,,3/28/2013 4:19:03 PM
$GPGGA,151904.944,3554.7414,N,01430.4223,E,1,5,1,0, M,0, M,0,*77,$GPGGA,151904.944,3554.7395,N,01430.4156,E,1,5,1,0.210311999999999, M,0, M,0,*6F,35.9123568911798,14.5070383635881,35.9123255092,14.5069271673,3,5.00,,3/28/2013 4:19:04 PM
$GPGGA,151905.959,3554.7414,N,01430.4223,E,1,5,1,0, M,0, M,0,*7A,$GPGGA,151905.959,3554.7393,N,01430.4157,E,1,5,1,0.210311999999999, M,0, M,0,*65,35.9123568911798,14.5070383635881,35.9123223299,14.5069289565,3,5.00,,3/28/2013 4:19:05 PM
$GPGGA,151906.972,3554.7414,N,01430.4223,E,1,5,1,0, M,0, M,0,*70,$GPGGA,151906.972,3554.7393,N,01430.4158,E,1,5,1,0.160237714285714, M,0, M,0,*67,35.9123568911798,14.5070383635881,35.912322168,14.5069297384,3,5.00,,3/28/2013 4:19:06 PM
$GPGGA,151907.987,3554.7414,N,01430.4223,E,1,5,1,0, M,0, M,0,*7B,$GPGGA,151907.987,3554.7392,N,01430.4160,E,1,5,1,0.0200297142857132, M,0, M,0,*5B,35.9123568911798,14.5070383635881,35.9123193173,14.5069326296,3,5.00,,3/28/2013 4:19:07 PM
$GPGGA,151909.001,3554.7414,N,01430.4223,E,1,5,1,0, M,0, M,0,*72,$GPGGA,151909.001,3554.7392,N,01430.4159,E,1,5,1,0.170252571428571, M,0, M,0,*66,35.9123568911798,14.5070383635881,35.9123193843,14.5069320725,3,5.00,,3/28/2013 4:19:09 PM
$GPGGA,151910.014,3554.7414,N,01430.4223,E,1,5,1,0, M,0, M,0,*7E,$GPGGA,151910.014,3554.7393,N,01430.4157,E,1,5,1,0.150222857142856, M,0, M,0,*68,35.9123568911798,14.5070383635881,35.9123220963,14.5069281458,3,5.00,,3/28/2013 4:19:10 PM
$GPGGA,151911.028,3554.7414,N,01430.4223,E,1,5,1,0, M,0, M,0,*70,$GPGGA,151911.028,3554.7391,N,01430.4160,E,1,5,1,0.210311999999999, M,0, M,0,*69,35.9123568911798,14.5070383635881,35.9123186874,14.506933114,3,5.00,,3/28/2013 4:19:11 PM
$GPGGA,151912.042,3554.7414,N,01430.4223,E,1,5,1,0, M,0, M,0,*7F,$GPGGA,151912.042,3554.7392,N,01430.4159,E,1,5,1,0.130193142857143, M,0, M,0,*64,35.9123568911798,14.5070383635881,35.9123203211,14.5069314207,3,5.00,,3/28/2013 4:19:12 PM
$GPGGA,151913.056,3554.7414,N,01430.4223,E,1,5,1,0, M,0, M,0,*7B,$GPGGA,151913.056,3554.7389,N,01430.4160,E,1,5,1,0.140207999999999, M,0, M,0,*6B,35.9123568911798,14.5070383635881,35.9123158253,14.5069335612,3,5.00,,3/28/2013 4:19:13 PM
$GPGGA,151914.070,3554.7414,N,01430.4223,E,1,5,1,0, M,0, M,0,*78,$GPGGA,151914.070,3554.7390,N,01430.4161,E,1,5,1,0.0801188571428562, M,0, M,0,*5C,35.9123568911798,14.5070383635881,35.9123174904,14.5069343156,3,5.00,,3/28/2013 4:19:14 PM
$GPGGA,151915.084,3554.7414,N,01430.4223,E,1,5,1,0, M,0, M,0,*72,$GPGGA,151915.084,3554.7392,N,01430.4158,E,1,5,1,0.200297142857141, M,0, M,0,*6D,35.9123568911798,14.5070383635881,35.9123200617,14.5069300834,3,5.00,,3/28/2013 4:19:15 PM
$GPGGA,151916.098,3554.7414,N,01430.4223,E,1,5,1,0, M,0, M,0,*7C,$GPGGA,151916.098,3554.7395,N,01430.4157,E,1,5,1,0.210311999999999, M,0, M,0,*65,35.9123568911798,14.5070383635881,35.9123251532,14.5069285438,3,5.00,,3/28/2013 4:19:16 PM
$GPGGA,151917.113,3554.7414,N,01430.4223,E,1,5,1,0, M,0, M,0,*7F,$GPGGA,151917.113,3554.7391,N,01430.4160,E,1,5,1,0.210311999999999, M,0, M,0,*66,35.9123568911798,14.5070383635881,35.9123176034,14.506932755,3,5.00,,3/28/2013 4:19:17 PM
$GPGGA,151918.126,3554.7414,N,01430.4223,E,1,5,1,0, M,0, M,0,*76,$GPGGA,151918.126,3554.7391,N,01430.4159,E,1,5,1,0.110163428571429, M,0, M,0,*6A,35.9123568911798,14.5070383635881,35.9123189983,14.5069319182,3,5.00,,3/28/2013 4:19:18 PM
$GPGGA,151919.140,3554.7414,N,01430.4223,E,1,5,1,0, M,0, M,0,*77,$GPGGA,151919.140,3554.7388,N,01430.4162,E,1,5,1,0.0400594285714276, M,0, M,0,*5F,35.9123568911798,14.5070383635881,35.9123139453,14.5069369977,3,5.00,,3/28/2013 4:19:19 PM
$GPGGA,151920.155,3554.7414,N,01430.4223,E,1,5,1,0, M,0, M,0,*79,$GPGGA,151920.155,3554.7387,N,01430.4165,E,1,5,1,0.0400594285714276, M,0, M,0,*59,35.9123568911798,14.5070383635881,35.9123119732,14.5069413326,3,5.00,,3/28/2013 4:19:20 PM
$GPGGA,151921.169,3554.7414,N,01430.4223,E,1,5,1,0, M,0, M,0,*77,$GPGGA,151921.169,3554.7386,N,01430.4164,E,1,5,1,0.0100148571428572, M,0, M,0,*54,35.9123568911798,14.5070383635881,35.9123093897,14.5069391966,3,5.00,,3/28/2013 4:19:21 PM
$GPGGA,151922.182,3554.7414,N,01430.4223,E,1,5,1,0, M,0, M,0,*71,$GPGGA,151922.182,3554.7391,N,01430.4160,E,1,5,1,0.0300445714285715, M,0, M,0,*59,35.9123568911798,14.5070383635881,35.9123187266,14.5069340301,3,5.00,,3/28/2013 4:19:22 PM
$GPGGA,151923.196,3554.7414,N,01430.4223,E,1,5,1,0, M,0, M,0,*75,$GPGGA,151923.196,3554.7388,N,01430.4160,E,1,5,1,0.200297142857141, M,0, M,0,*6A,35.9123568911798,14.5070383635881,35.9123134316,14.5069339602,3,5.00,,3/28/2013 4:19:23 PM
$GPGGA,151924.210,3554.7414,N,01430.4223,E,1,5,1,0, M,0, M,0,*7F,$GPGGA,151924.210,3554.7395,N,01430.4154,E,1,5,1,0.200297142857141, M,0, M,0,*6B,35.9123568911798,14.5070383635881,35.9123246876,14.5069237091,3,5.00,,3/28/2013 4:19:24 PM
$GPGGA,151925.224,3554.7414,N,01430.4223,E,1,5,1,0, M,0, M,0,*79,$GPGGA,151925.224,3554.7394,N,01430.4155,E,1,5,1,0.210311999999999, M,0, M,0,*63,35.9123568911798,14.5070383635881,35.9123237159,14.5069254985,3,5.00,,3/28/2013 4:19:25 PM
$GPGGA,151926.239,3554.7414,N,01430.4223,E,1,5,1,0, M,0, M,0,*76,$GPGGA,151926.239,3554.7394,N,01430.4158,E,1,5,1,0.210311999999999, M,0, M,0,*61,35.9123568911798,14.5070383635881,35.9123226205,14.5069305444,3,5.00,,3/28/2013 4:19:26 PM
$GPGGA,151927.252,3554.7414,N,01430.4223,E,1,5,1,0, M,0, M,0,*7A,$GPGGA,151927.252,3554.7387,N,01430.4162,E,1,5,1,0.180267428571428, M,0, M,0,*66,35.9123568911798,14.5070383635881,35.9123124335,14.5069363668,3,5.00,,3/28/2013 4:19:27 PM
$GPGGA,151928.266,3554.7414,N,01430.4223,E,1,5,1,0, M,0, M,0,*72,$GPGGA,151928.266,3554.7383,N,01430.4164,E,1,5,1,0.0400594285714276, M,0, M,0,*57,35.9123568911798,14.5070383635881,35.9123050821,14.5069396419,3,5.00,,3/28/2013 4:19:28 PM
$GPGGA,151929.281,3554.7414,N,01430.4223,E,1,5,1,0, M,0, M,0,*7A,$GPGGA,151929.281,3554.7382,N,01430.4164,E,1,5,1,0.210311999999999, M,0, M,0,*65,35.9123568911798,14.5070383635881,35.9123033293,14.5069400058,3,5.00,,3/28/2013 4:19:29 PM
$GPGGA,151930.295,3554.7414,N,01430.4223,E,1,5,1,0, M,0, M,0,*77,$GPGGA,151930.295,3554.7401,N,01430.4149,E,1,5,1,0.510757714285714, M,0, M,0,*6C,35.9123568911798,14.5070383635881,35.9123346307,14.50691534,3,5.00,,3/28/2013 4:19:30 PM
$GPGGA,151931.308,3554.7414,N,01430.4223,E,1,5,1,0, M,0, M,0,*73,$GPGGA,151931.308,3554.7406,N,01430.4142,E,1,5,1,1.08979854545455, M,0, M,0,*5D,35.9123568911798,14.5070383635881,35.9123437085,14.5069031543,3,5.00,,3/28/2013 4:19:31 PM
$GPGGA,151932.322,3554.7414,N,01430.4223,E,1,5,1,0, M,0, M,0,*78,$GPGGA,151932.322,3554.7409,N,01430.4144,E,1,5,1,1.37203542857143, M,0, M,0,*53,35.9123568911798,14.5070383635881,35.9123478282,14.5069072058,3,5.00,,3/28/2013 4:19:32 PM
$GPGGA,151933.336,3554.7414,N,01430.4223,E,1,5,1,0, M,0, M,0,*7C,$GPGGA,151933.336,3554.7418,N,01430.4142,E,1,5,1,1.472184, M,0, M,0,*57,35.9123568911798,14.5070383635881,35.9123626024,14.5069034022,3,5.00,,3/28/2013 4:19:33 PM
$GPGGA,151934.351,3554.7414,N,01430.4223,E,1,5,1,0, M,0, M,0,*7A,$GPGGA,151934.351,3554.7423,N,01430.4144,E,1,5,1,1.472184, M,0, M,0,*5F,35.9123568911798,14.5070383635881,35.9123719108,14.5069063181,3,5.00,,3/28/2013 4:19:34 PM
$GPGGA,151935.364,3554.7414,N,01430.4223,E,1,5,1,0, M,0, M,0,*7D,$GPGGA,151935.364,3554.7430,N,01430.4143,E,1,5,1,1.472184, M,0, M,0,*5D,35.9123568911798,14.5070383635881,35.9123826587,14.5069053978,3,5.00,,3/28/2013 4:19:35 PM
$GPGGA,151936.379,3554.7414,N,01430.4223,E,1,5,1,0, M,0, M,0,*72,$GPGGA,151936.379,3554.7416,N,01430.4141,E,1,5,1,1.40208, M,0, M,0,*66,35.9123568911798,14.5070383635881,35.9123597597,14.5069017981,3,5.00,,3/28/2013 4:19:36 PM
$GPGGA,151937.394,3554.7414,N,01430.4223,E,1,5,1,0, M,0, M,0,*70,$GPGGA,151937.394,3554.7416,N,01430.4142,E,1,5,1,1.3249656, M,0, M,0,*60,35.9123568911798,14.5070383635881,35.9123594053,14.50690281,3,5.00,,3/28/2013 4:19:37 PM
$GPGGA,151938.407,3554.7414,N,01430.4223,E,1,5,1,0, M,0, M,0,*72,$GPGGA,151938.407,3554.7417,N,01430.4141,E,1,5,1,1.32196114285714, M,0, M,0,*5F,35.9123568911798,14.5070383635881,35.9123617908,14.5069008703,3,5.00,,3/28/2013 4:19:38 PM
$GPGGA,151939.420,3554.7414,N,01430.4223,E,1,5,1,0, M,0, M,0,*76,$GPGGA,151939.420,3554.7410,N,01430.4142,E,1,5,1,1.472184, M,0, M,0,*55,35.9123568911798,14.5070383635881,35.9123499555,14.506903039,3,5.00,,3/28/2013 4:19:39 PM
$GPGGA,151940.434,3554.7414,N,01430.4223,E,1,5,1,0, M,0, M,0,*7D,$GPGGA,151940.434,3554.7413,N,01430.4141,E,1,5,1,1.34199085714286, M,0, M,0,*57,35.9123568911798,14.5070383635881,35.9123546957,14.5069021951,3,5.00,,3/28/2013 4:19:40 PM
$GPGGA,151941.448,3554.7414,N,01430.4223,E,1,5,1,0, M,0, M,0,*77,$GPGGA,151941.448,3554.7415,N,01430.4141,E,1,5,1,1.17173828571429, M,0, M,0,*53,35.9123568911798,14.5070383635881,35.9123577298,14.5069012474,3,5.00,,3/28/2013 4:19:41 PM
$GPGGA,151942.462,3554.7414,N,01430.4223,E,1,5,1,0, M,0, M,0,*7C,$GPGGA,151942.462,3554.7416,N,01430.4142,E,1,5,1,0.951411428571428, M,0, M,0,*6E,35.9123568911798,14.5070383635881,35.9123607454,14.506902601,3,5.00,,3/28/2013 4:19:42 PM
$GPGGA,151943.476,3554.7414,N,01430.4223,E,1,5,1,0, M,0, M,0,*78,$GPGGA,151943.476,3554.7417,N,01430.4141,E,1,5,1,0.640950857142857, M,0, M,0,*6B,35.9123568911798,14.5070383635881,35.9123618812,14.5069015758,3,5.00,,3/28/2013 4:19:43 PM
$GPGGA,151944.490,3554.7414,N,01430.4223,E,1,5,1,0, M,0, M,0,*77,$GPGGA,151944.490,3554.7418,N,01430.4144,E,1,5,1,0.0200297142857132, M,0, M,0,*54,35.9123568911798,14.5070383635881,35.9123631074,14.5069066567,3,5.00,,3/28/2013 4:19:44 PM
$GPGGA,151945.504,3554.7414,N,01430.4223,E,1,5,1,0, M,0, M,0,*7A,$GPGGA,151945.504,3554.7419,N,01430.4143,E,1,5,1,0.270401142857142, M,0, M,0,*66,35.9123568911798,14.5070383635881,35.9123653424,14.5069054808,3,5.00,,3/28/2013 4:19:45 PM
$GPGGA,151946.518,3554.7414,N,01430.4223,E,1,5,1,0, M,0, M,0,*74,$GPGGA,151946.518,3554.7420,N,01430.4143,E,1,5,1,0.150222857142856, M,0, M,0,*68,35.9123568911798,14.5070383635881,35.9123667318,14.5069043028,3,5.00,,3/28/2013 4:19:46 PM
$GPGGA,151947.532,3554.7414,N,01430.4223,E,1,5,1,0, M,0, M,0,*7D,$GPGGA,151947.532,3554.7418,N,01430.4142,E,1,5,1,0.350519999999999, M,0, M,0,*69,35.9123568911798,14.5070383635881,35.9123627093,14.5069033815,3,5.00,,3/28/2013 4:19:47 PM
$GPGGA,151948.546,3554.7414,N,01430.4223,E,1,5,1,0, M,0, M,0,*71,$GPGGA,151948.546,3554.7422,N,01430.4142,E,1,5,1,0.510757714285714, M,0, M,0,*60,35.9123568911798,14.5070383635881,35.9123696079,14.5069027951,3,5.00,,3/28/2013 4:19:48 PM
$GPGGA,151949.560,3554.7414,N,01430.4223,E,1,5,1,0, M,0, M,0,*74,$GPGGA,151949.560,3554.7422,N,01430.4142,E,1,5,1,0.480713142857142, M,0, M,0,*68,35.9123568911798,14.5070383635881,35.9123703298,14.5069040627,3,5.00,,3/28/2013 4:19:49 PM
