GPGGA Base Position,,,,,,,,,,,,,,,GPGGA End Position,,,,,,,,,,,,,,,Base Latitude,Base Longitude,End Latitude,End Longitude,Node Count, Extra Tether Length,Node Address,X,Y,Z,Unscaled Pressure,Depth,,Time
$GPGGA,123201.668,3704.5720,N,01517.2860,E,1,5,1,0, M,0, M,0,*73,$GPGGA,123201.680,3704.5720,N,01517.2860,E,1,5,1,0, M,0, M,0,*75,37.0762,15.2881,37.0762,15.2881,1,0.00,,3/18/2013 1:32:01 PM
$GPGGA,123202.681,3704.5720,N,01517.2860,E,1,5,1,0, M,0, M,0,*77,$GPGGA,123202.681,3704.5720,N,01517.2860,E,1,5,1,0, M,0, M,0,*77,37.0762,15.2881,37.0762,15.2881,1,0.00,,3/18/2013 1:32:02 PM
$GPGGA,123203.695,3704.5720,N,01517.2860,E,1,5,1,0, M,0, M,0,*73,$GPGGA,123203.695,3704.5720,N,01517.2860,E,1,5,1,0, M,0, M,0,*73,37.0762,15.2881,37.0762,15.2881,1,0.00,,3/18/2013 1:32:03 PM
$GPGGA,123204.709,3704.5720,N,01517.2860,E,1,5,1,0, M,0, M,0,*70,$GPGGA,123204.709,3704.5720,N,01517.2860,E,1,5,1,0, M,0, M,0,*70,37.0762,15.2881,37.0762,15.2881,1,0.00,,3/18/2013 1:32:04 PM
$GPGGA,123205.723,3704.5720,N,01517.2860,E,1,5,1,0, M,0, M,0,*79,$GPGGA,123205.723,3704.5720,N,01517.2860,E,1,5,1,0, M,0, M,0,*79,37.0762,15.2881,37.0762,15.2881,1,0.00,,3/18/2013 1:32:05 PM
$GPGGA,123206.737,3704.5720,N,01517.2860,E,1,5,1,0, M,0, M,0,*7F,$GPGGA,123206.737,3704.5720,N,01517.2860,E,1,5,1,0, M,0, M,0,*7F,37.0762,15.2881,37.0762,15.2881,1,0.00,,3/18/2013 1:32:06 PM
$GPGGA,123207.751,3704.5720,N,01517.2860,E,1,5,1,0, M,0, M,0,*7E,$GPGGA,123207.751,3704.5720,N,01517.2860,E,1,5,1,0, M,0, M,0,*7E,37.0762,15.2881,37.0762,15.2881,1,0.00,,3/18/2013 1:32:07 PM
$GPGGA,123208.765,3704.5720,N,01517.2860,E,1,5,1,0, M,0, M,0,*76,$GPGGA,123208.765,3704.5720,N,01517.2860,E,1,5,1,0, M,0, M,0,*76,37.0762,15.2881,37.0762,15.2881,1,0.00,,3/18/2013 1:32:08 PM
$GPGGA,123209.779,3704.5720,N,01517.2860,E,1,5,1,0, M,0, M,0,*7A,$GPGGA,123209.779,3704.5720,N,01517.2860,E,1,5,1,0, M,0, M,0,*7A,37.0762,15.2881,37.0762,15.2881,1,0.00,,3/18/2013 1:32:09 PM
$GPGGA,123210.793,3704.5720,N,01517.2860,E,1,5,1,0, M,0, M,0,*76,$GPGGA,123210.793,3704.5720,N,01517.2860,E,1,5,1,0, M,0, M,0,*76,37.0762,15.2881,37.0762,15.2881,1,0.00,,3/18/2013 1:32:10 PM
$GPGGA,123211.807,3704.5720,N,01517.2860,E,1,5,1,0, M,0, M,0,*75,$GPGGA,123211.807,3704.5720,N,01517.2860,E,1,5,1,0, M,0, M,0,*75,37.0762,15.2881,37.0762,15.2881,1,0.00,,3/18/2013 1:32:11 PM
$GPGGA,123212.822,3704.5720,N,01517.2860,E,1,5,1,0, M,0, M,0,*71,$GPGGA,123212.822,3704.5720,N,01517.2860,E,1,5,1,0, M,0, M,0,*71,37.0762,15.2881,37.0762,15.2881,1,0.00,,3/18/2013 1:32:12 PM
$GPGGA,123213.836,3704.5720,N,01517.2860,E,1,5,1,0, M,0, M,0,*75,$GPGGA,123213.836,3704.5720,N,01517.2860,E,1,5,1,0, M,0, M,0,*75,37.0762,15.2881,37.0762,15.2881,1,0.00,,3/18/2013 1:32:13 PM
$GPGGA,123214.850,3704.5720,N,01517.2860,E,1,5,1,0, M,0, M,0,*72,$GPGGA,123214.850,3704.5720,N,01517.2860,E,1,5,1,0, M,0, M,0,*72,37.0762,15.2881,37.0762,15.2881,1,0.00,,3/18/2013 1:32:14 PM
$GPGGA,123215.864,3704.5720,N,01517.2860,E,1,5,1,0, M,0, M,0,*74,$GPGGA,123215.864,3704.5720,N,01517.2860,E,1,5,1,0, M,0, M,0,*74,37.0762,15.2881,37.0762,15.2881,1,0.00,,3/18/2013 1:32:15 PM
$GPGGA,123216.878,3704.5720,N,01517.2860,E,1,5,1,0, M,0, M,0,*7A,$GPGGA,123216.878,3704.5720,N,01517.2860,E,1,5,1,0, M,0, M,0,*7A,37.0762,15.2881,37.0762,15.2881,1,0.00,,3/18/2013 1:32:16 PM
$GPGGA,123217.892,3704.5720,N,01517.2860,E,1,5,1,0, M,0, M,0,*7F,$GPGGA,123217.892,3704.5720,N,01517.2860,E,1,5,1,0, M,0, M,0,*7F,37.0762,15.2881,37.0762,15.2881,1,0.00,,3/18/2013 1:32:17 PM
$GPGGA,123218.906,3704.5720,N,01517.2860,E,1,5,1,0, M,0, M,0,*7C,$GPGGA,123218.906,3704.5720,N,01517.2860,E,1,5,1,0, M,0, M,0,*7C,37.0762,15.2881,37.0762,15.2881,1,0.00,,3/18/2013 1:32:18 PM
$GPGGA,123219.919,3704.5720,N,01517.2860,E,1,5,1,0, M,0, M,0,*73,$GPGGA,123219.919,3704.5720,N,01517.2860,E,1,5,1,0, M,0, M,0,*73,37.0762,15.2881,37.0762,15.2881,1,0.00,,3/18/2013 1:32:19 PM
$GPGGA,123220.933,3704.5720,N,01517.2860,E,1,5,1,0, M,0, M,0,*71,$GPGGA,123220.933,3704.5720,N,01517.2860,E,1,5,1,0, M,0, M,0,*71,37.0762,15.2881,37.0762,15.2881,1,0.00,,3/18/2013 1:32:20 PM
$GPGGA,123221.947,3704.5720,N,01517.2860,E,1,5,1,0, M,0, M,0,*73,$GPGGA,123221.947,3704.5720,N,01517.2860,E,1,5,1,0, M,0, M,0,*73,37.0762,15.2881,37.0762,15.2881,1,0.00,,3/18/2013 1:32:21 PM
$GPGGA,123222.961,3704.5720,N,01517.2860,E,1,5,1,0, M,0, M,0,*74,$GPGGA,123222.961,3704.5720,N,01517.2860,E,1,5,1,0, M,0, M,0,*74,37.0762,15.2881,37.0762,15.2881,1,0.00,,3/18/2013 1:32:22 PM
$GPGGA,123223.975,3704.5720,N,01517.2860,E,1,5,1,0, M,0, M,0,*70,$GPGGA,123223.975,3704.5720,N,01517.2860,E,1,5,1,0, M,0, M,0,*70,37.0762,15.2881,37.0762,15.2881,1,0.00,,3/18/2013 1:32:23 PM
$GPGGA,123224.989,3704.5720,N,01517.2860,E,1,5,1,0, M,0, M,0,*74,$GPGGA,123224.989,3704.5720,N,01517.2860,E,1,5,1,0, M,0, M,0,*74,37.0762,15.2881,37.0762,15.2881,1,0.00,,3/18/2013 1:32:24 PM
$GPGGA,123226.003,3704.5720,N,01517.2860,E,1,5,1,0, M,0, M,0,*7D,$GPGGA,123226.003,3704.5720,N,01517.2860,E,1,5,1,0, M,0, M,0,*7D,37.0762,15.2881,37.0762,15.2881,1,0.00,,3/18/2013 1:32:26 PM
$GPGGA,123227.017,3704.5720,N,01517.2860,E,1,5,1,0, M,0, M,0,*79,$GPGGA,123227.017,3704.5720,N,01517.2860,E,1,5,1,0, M,0, M,0,*79,37.0762,15.2881,37.0762,15.2881,1,0.00,,3/18/2013 1:32:27 PM
$GPGGA,123228.031,3704.5720,N,01517.2860,E,1,5,1,0, M,0, M,0,*72,$GPGGA,123228.031,3704.5720,N,01517.2860,E,1,5,1,0, M,0, M,0,*72,37.0762,15.2881,37.0762,15.2881,1,0.00,,3/18/2013 1:32:28 PM
$GPGGA,123229.045,3704.5720,N,01517.2860,E,1,5,1,0, M,0, M,0,*70,$GPGGA,123229.045,3704.5720,N,01517.2860,E,1,5,1,0, M,0, M,0,*70,37.0762,15.2881,37.0762,15.2881,1,0.00,,3/18/2013 1:32:29 PM
$GPGGA,123230.060,3704.5720,N,01517.2860,E,1,5,1,0, M,0, M,0,*7F,$GPGGA,123230.060,3704.5720,N,01517.2860,E,1,5,1,0, M,0, M,0,*7F,37.0762,15.2881,37.0762,15.2881,1,0.00,,3/18/2013 1:32:30 PM
$GPGGA,123231.074,3704.5720,N,01517.2860,E,1,5,1,0, M,0, M,0,*7B,$GPGGA,123231.074,3704.5720,N,01517.2860,E,1,5,1,0, M,0, M,0,*7B,37.0762,15.2881,37.0762,15.2881,1,0.00,,3/18/2013 1:32:31 PM
$GPGGA,123232.088,3704.5720,N,01517.2860,E,1,5,1,0, M,0, M,0,*7B,$GPGGA,123232.088,3704.5720,N,01517.2860,E,1,5,1,0, M,0, M,0,*7B,37.0762,15.2881,37.0762,15.2881,1,0.00,,3/18/2013 1:32:32 PM
$GPGGA,123233.102,3704.5720,N,01517.2860,E,1,5,1,0, M,0, M,0,*79,$GPGGA,123233.102,3704.5720,N,01517.2860,E,1,5,1,0, M,0, M,0,*79,37.0762,15.2881,37.0762,15.2881,1,0.00,,3/18/2013 1:32:33 PM
$GPGGA,123234.116,3704.5720,N,01517.2860,E,1,5,1,0, M,0, M,0,*7B,$GPGGA,123234.116,3704.5720,N,01517.2860,E,1,5,1,0, M,0, M,0,*7B,37.0762,15.2881,37.0762,15.2881,1,0.00,,3/18/2013 1:32:34 PM
$GPGGA,123235.130,3704.5720,N,01517.2860,E,1,5,1,0, M,0, M,0,*7E,$GPGGA,123235.130,3704.5720,N,01517.2860,E,1,5,1,0, M,0, M,0,*7E,37.0762,15.2881,37.0762,15.2881,1,0.00,,3/18/2013 1:32:35 PM
$GPGGA,123236.144,3704.5720,N,01517.2860,E,1,5,1,0, M,0, M,0,*7E,$GPGGA,123236.144,3704.5720,N,01517.2860,E,1,5,1,0, M,0, M,0,*7E,37.0762,15.2881,37.0762,15.2881,1,0.00,,3/18/2013 1:32:36 PM
$GPGGA,123237.158,3704.5720,N,01517.2860,E,1,5,1,0, M,0, M,0,*72,$GPGGA,123237.158,3704.5720,N,01517.2860,E,1,5,1,0, M,0, M,0,*72,37.0762,15.2881,37.0762,15.2881,1,0.00,,3/18/2013 1:32:37 PM
$GPGGA,123238.172,3704.5720,N,01517.2860,E,1,5,1,0, M,0, M,0,*75,$GPGGA,123238.172,3704.5720,N,01517.2860,E,1,5,1,0, M,0, M,0,*75,37.0762,15.2881,37.0762,15.2881,1,0.00,,3/18/2013 1:32:38 PM
$GPGGA,123239.186,3704.5720,N,01517.2860,E,1,5,1,0, M,0, M,0,*7F,$GPGGA,123239.186,3704.5720,N,01517.2860,E,1,5,1,0, M,0, M,0,*7F,37.0762,15.2881,37.0762,15.2881,1,0.00,,3/18/2013 1:32:39 PM
$GPGGA,123240.199,3704.5720,N,01517.2860,E,1,5,1,0, M,0, M,0,*7F,$GPGGA,123240.199,3704.5720,N,01517.2860,E,1,5,1,0, M,0, M,0,*7F,37.0762,15.2881,37.0762,15.2881,1,0.00,,3/18/2013 1:32:40 PM
$GPGGA,123241.213,3704.5720,N,01517.2860,E,1,5,1,0, M,0, M,0,*7F,$GPGGA,123241.213,3704.5720,N,01517.2860,E,1,5,1,0, M,0, M,0,*7F,37.0762,15.2881,37.0762,15.2881,1,0.00,,3/18/2013 1:32:41 PM
$GPGGA,123242.227,3704.5720,N,01517.2860,E,1,5,1,0, M,0, M,0,*7B,$GPGGA,123242.227,3704.5720,N,01517.2860,E,1,5,1,0, M,0, M,0,*7B,37.0762,15.2881,37.0762,15.2881,1,0.00,,3/18/2013 1:32:42 PM
$GPGGA,123243.241,3704.5720,N,01517.2860,E,1,5,1,0, M,0, M,0,*7A,$GPGGA,123243.241,3704.5720,N,01517.2860,E,1,5,1,0, M,0, M,0,*7A,37.0762,15.2881,37.0762,15.2881,1,0.00,,3/18/2013 1:32:43 PM
$GPGGA,123244.255,3704.5720,N,01517.2860,E,1,5,1,0, M,0, M,0,*78,$GPGGA,123244.255,3704.5720,N,01517.2860,E,1,5,1,0, M,0, M,0,*78,37.0762,15.2881,37.0762,15.2881,1,0.00,,3/18/2013 1:32:44 PM
$GPGGA,123245.269,3704.5720,N,01517.2860,E,1,5,1,0, M,0, M,0,*76,$GPGGA,123245.269,3704.5720,N,01517.2860,E,1,5,1,0, M,0, M,0,*76,37.0762,15.2881,37.0762,15.2881,1,0.00,,3/18/2013 1:32:45 PM
$GPGGA,123246.283,3704.5720,N,01517.2860,E,1,5,1,0, M,0, M,0,*71,$GPGGA,123246.283,3704.5720,N,01517.2860,E,1,5,1,0, M,0, M,0,*71,37.0762,15.2881,37.0762,15.2881,1,0.00,,3/18/2013 1:32:46 PM
$GPGGA,123247.298,3704.5720,N,01517.2860,E,1,5,1,0, M,0, M,0,*7A,$GPGGA,123247.298,3704.5720,N,01517.2860,E,1,5,1,0, M,0, M,0,*7A,37.0762,15.2881,37.0762,15.2881,1,0.00,,3/18/2013 1:32:47 PM
$GPGGA,123248.312,3704.5720,N,01517.2860,E,1,5,1,0, M,0, M,0,*76,$GPGGA,123248.312,3704.5720,N,01517.2860,E,1,5,1,0, M,0, M,0,*76,37.0762,15.2881,37.0762,15.2881,1,0.00,,3/18/2013 1:32:48 PM
$GPGGA,123249.326,3704.5720,N,01517.2860,E,1,5,1,0, M,0, M,0,*70,$GPGGA,123249.326,3704.5720,N,01517.2860,E,1,5,1,0, M,0, M,0,*70,37.0762,15.2881,37.0762,15.2881,1,0.00,,3/18/2013 1:32:49 PM
$GPGGA,123250.340,3704.5720,N,01517.2860,E,1,5,1,0, M,0, M,0,*78,$GPGGA,123250.340,3704.5720,N,01517.2860,E,1,5,1,0, M,0, M,0,*78,37.0762,15.2881,37.0762,15.2881,1,0.00,,3/18/2013 1:32:50 PM
$GPGGA,123251.354,3704.5720,N,01517.2860,E,1,5,1,0, M,0, M,0,*7C,$GPGGA,123251.354,3704.5720,N,01517.2860,E,1,5,1,0, M,0, M,0,*7C,37.0762,15.2881,37.0762,15.2881,1,0.00,,3/18/2013 1:32:51 PM
$GPGGA,123252.368,3704.5720,N,01517.2860,E,1,5,1,0, M,0, M,0,*70,$GPGGA,123252.368,3704.5720,N,01517.2860,E,1,5,1,0, M,0, M,0,*70,37.0762,15.2881,37.0762,15.2881,1,0.00,,3/18/2013 1:32:52 PM
$GPGGA,123253.382,3704.5720,N,01517.2860,E,1,5,1,0, M,0, M,0,*75,$GPGGA,123253.382,3704.5720,N,01517.2860,E,1,5,1,0, M,0, M,0,*75,37.0762,15.2881,37.0762,15.2881,1,0.00,,3/18/2013 1:32:53 PM
$GPGGA,123254.396,3704.5720,N,01517.2860,E,1,5,1,0, M,0, M,0,*77,$GPGGA,123254.396,3704.5720,N,01517.2860,E,1,5,1,0, M,0, M,0,*77,37.0762,15.2881,37.0762,15.2881,1,0.00,,3/18/2013 1:32:54 PM
$GPGGA,123255.410,3704.5720,N,01517.2860,E,1,5,1,0, M,0, M,0,*7F,$GPGGA,123255.410,3704.5720,N,01517.2860,E,1,5,1,0, M,0, M,0,*7F,37.0762,15.2881,37.0762,15.2881,1,0.00,,3/18/2013 1:32:55 PM
$GPGGA,123256.424,3704.5720,N,01517.2860,E,1,5,1,0, M,0, M,0,*7B,$GPGGA,123256.424,3704.5720,N,01517.2860,E,1,5,1,0, M,0, M,0,*7B,37.0762,15.2881,37.0762,15.2881,1,0.00,,3/18/2013 1:32:56 PM
$GPGGA,123257.438,3704.5720,N,01517.2860,E,1,5,1,0, M,0, M,0,*77,$GPGGA,123257.438,3704.5720,N,01517.2860,E,1,5,1,0, M,0, M,0,*77,37.0762,15.2881,37.0762,15.2881,1,0.00,,3/18/2013 1:32:57 PM
$GPGGA,123258.452,3704.5720,N,01517.2860,E,1,5,1,0, M,0, M,0,*74,$GPGGA,123258.452,3704.5720,N,01517.2860,E,1,5,1,0, M,0, M,0,*74,37.0762,15.2881,37.0762,15.2881,1,0.00,,3/18/2013 1:32:58 PM
$GPGGA,123259.465,3704.5720,N,01517.2860,E,1,5,1,0, M,0, M,0,*71,$GPGGA,123259.465,3704.5720,N,01517.2860,E,1,5,1,0, M,0, M,0,*71,37.0762,15.2881,37.0762,15.2881,1,0.00,,3/18/2013 1:32:59 PM
$GPGGA,123300.479,3704.5720,N,01517.2860,E,1,5,1,0, M,0, M,0,*71,$GPGGA,123300.479,3704.5720,N,01517.2860,E,1,5,1,0, M,0, M,0,*71,37.0762,15.2881,37.0762,15.2881,1,0.00,,3/18/2013 1:33:00 PM
$GPGGA,123301.493,3704.5720,N,01517.2860,E,1,5,1,0, M,0, M,0,*74,$GPGGA,123301.493,3704.5720,N,01517.2860,E,1,5,1,0, M,0, M,0,*74,37.0762,15.2881,37.0762,15.2881,1,0.00,,3/18/2013 1:33:01 PM
$GPGGA,123302.507,3704.5720,N,01517.2860,E,1,5,1,0, M,0, M,0,*7B,$GPGGA,123302.507,3704.5720,N,01517.2860,E,1,5,1,0, M,0, M,0,*7B,37.0762,15.2881,37.0762,15.2881,1,0.00,,3/18/2013 1:33:02 PM
$GPGGA,123303.521,3704.5720,N,01517.2860,E,1,5,1,0, M,0, M,0,*7E,$GPGGA,123303.521,3704.5720,N,01517.2860,E,1,5,1,0, M,0, M,0,*7E,37.0762,15.2881,37.0762,15.2881,1,0.00,,3/18/2013 1:33:03 PM
$GPGGA,123304.536,3704.5720,N,01517.2860,E,1,5,1,0, M,0, M,0,*7F,$GPGGA,123304.536,3704.5720,N,01517.2860,E,1,5,1,0, M,0, M,0,*7F,37.0762,15.2881,37.0762,15.2881,1,0.00,,3/18/2013 1:33:04 PM
$GPGGA,123305.550,3704.5720,N,01517.2860,E,1,5,1,0, M,0, M,0,*7E,$GPGGA,123305.550,3704.5720,N,01517.2860,E,1,5,1,0, M,0, M,0,*7E,37.0762,15.2881,37.0762,15.2881,1,0.00,,3/18/2013 1:33:05 PM
$GPGGA,123306.564,3704.5720,N,01517.2860,E,1,5,1,0, M,0, M,0,*7A,$GPGGA,123306.564,3704.5720,N,01517.2860,E,1,5,1,0, M,0, M,0,*7A,37.0762,15.2881,37.0762,15.2881,1,0.00,,3/18/2013 1:33:06 PM
$GPGGA,123307.578,3704.5720,N,01517.2860,E,1,5,1,0, M,0, M,0,*76,$GPGGA,123307.578,3704.5720,N,01517.2860,E,1,5,1,0, M,0, M,0,*76,37.0762,15.2881,37.0762,15.2881,1,0.00,,3/18/2013 1:33:07 PM
$GPGGA,123308.592,3704.5720,N,01517.2860,E,1,5,1,0, M,0, M,0,*7D,$GPGGA,123308.592,3704.5720,N,01517.2860,E,1,5,1,0, M,0, M,0,*7D,37.0762,15.2881,37.0762,15.2881,1,0.00,,3/18/2013 1:33:08 PM
$GPGGA,123309.606,3704.5720,N,01517.2860,E,1,5,1,0, M,0, M,0,*72,$GPGGA,123309.606,3704.5720,N,01517.2860,E,1,5,1,0, M,0, M,0,*72,37.0762,15.2881,37.0762,15.2881,1,0.00,,3/18/2013 1:33:09 PM
$GPGGA,123310.620,3704.5720,N,01517.2860,E,1,5,1,0, M,0, M,0,*7E,$GPGGA,123310.620,3704.5720,N,01517.2860,E,1,5,1,0, M,0, M,0,*7E,37.0762,15.2881,37.0762,15.2881,1,0.00,,3/18/2013 1:33:10 PM
$GPGGA,123311.634,3704.5720,N,01517.2860,E,1,5,1,0, M,0, M,0,*7A,$GPGGA,123311.634,3704.5720,N,01517.2860,E,1,5,1,0, M,0, M,0,*7A,37.0762,15.2881,37.0762,15.2881,1,0.00,,3/18/2013 1:33:11 PM
$GPGGA,123312.648,3704.5720,N,01517.2860,E,1,5,1,0, M,0, M,0,*72,$GPGGA,123312.648,3704.5720,N,01517.2860,E,1,5,1,0, M,0, M,0,*72,37.0762,15.2881,37.0762,15.2881,1,0.00,,3/18/2013 1:33:12 PM
$GPGGA,123313.662,3704.5720,N,01517.2860,E,1,5,1,0, M,0, M,0,*7B,$GPGGA,123313.662,3704.5720,N,01517.2860,E,1,5,1,0, M,0, M,0,*7B,37.0762,15.2881,37.0762,15.2881,1,0.00,,3/18/2013 1:33:13 PM
$GPGGA,123314.676,3704.5720,N,01517.2860,E,1,5,1,0, M,0, M,0,*79,$GPGGA,123314.676,3704.5720,N,01517.2860,E,1,5,1,0, M,0, M,0,*79,37.0762,15.2881,37.0762,15.2881,1,0.00,,3/18/2013 1:33:14 PM
$GPGGA,123315.690,3704.5720,N,01517.2860,E,1,5,1,0, M,0, M,0,*70,$GPGGA,123315.690,3704.5720,N,01517.2860,E,1,5,1,0, M,0, M,0,*70,37.0762,15.2881,37.0762,15.2881,1,0.00,,3/18/2013 1:33:15 PM
$GPGGA,123316.704,3704.5720,N,01517.2860,E,1,5,1,0, M,0, M,0,*7F,$GPGGA,123316.704,3704.5720,N,01517.2860,E,1,5,1,0, M,0, M,0,*7F,37.0762,15.2881,37.0762,15.2881,1,0.00,,3/18/2013 1:33:16 PM
$GPGGA,123317.718,3704.5720,N,01517.2860,E,1,5,1,0, M,0, M,0,*73,$GPGGA,123317.718,3704.5720,N,01517.2860,E,1,5,1,0, M,0, M,0,*73,37.0762,15.2881,37.0762,15.2881,1,0.00,,3/18/2013 1:33:17 PM
$GPGGA,123318.732,3704.5720,N,01517.2860,E,1,5,1,0, M,0, M,0,*74,$GPGGA,123318.732,3704.5720,N,01517.2860,E,1,5,1,0, M,0, M,0,*74,37.0762,15.2881,37.0762,15.2881,1,0.00,,3/18/2013 1:33:18 PM
$GPGGA,123319.746,3704.5720,N,01517.2860,E,1,5,1,0, M,0, M,0,*76,$GPGGA,123319.746,3704.5720,N,01517.2860,E,1,5,1,0, M,0, M,0,*76,37.0762,15.2881,37.0762,15.2881,1,0.00,,3/18/2013 1:33:19 PM
$GPGGA,123320.760,3704.5720,N,01517.2860,E,1,5,1,0, M,0, M,0,*78,$GPGGA,123320.760,3704.5720,N,01517.2860,E,1,5,1,0, M,0, M,0,*78,37.0762,15.2881,37.0762,15.2881,1,0.00,,3/18/2013 1:33:20 PM
$GPGGA,123321.774,3704.5720,N,01517.2860,E,1,5,1,0, M,0, M,0,*7C,$GPGGA,123321.774,3704.5720,N,01517.2860,E,1,5,1,0, M,0, M,0,*7C,37.0762,15.2881,37.0762,15.2881,1,0.00,,3/18/2013 1:33:21 PM
$GPGGA,123322.789,3704.5720,N,01517.2860,E,1,5,1,0, M,0, M,0,*7D,$GPGGA,123322.789,3704.5720,N,01517.2860,E,1,5,1,0, M,0, M,0,*7D,37.0762,15.2881,37.0762,15.2881,1,0.00,,3/18/2013 1:33:22 PM
$GPGGA,123323.803,3704.5720,N,01517.2860,E,1,5,1,0, M,0, M,0,*71,$GPGGA,123323.803,3704.5720,N,01517.2860,E,1,5,1,0, M,0, M,0,*71,37.0762,15.2881,37.0762,15.2881,1,0.00,,3/18/2013 1:33:23 PM
$GPGGA,123324.817,3704.5720,N,01517.2860,E,1,5,1,0, M,0, M,0,*73,$GPGGA,123324.817,3704.5720,N,01517.2860,E,1,5,1,0, M,0, M,0,*73,37.0762,15.2881,37.0762,15.2881,1,0.00,,3/18/2013 1:33:24 PM
$GPGGA,123325.831,3704.5720,N,01517.2860,E,1,5,1,0, M,0, M,0,*76,$GPGGA,123325.831,3704.5720,N,01517.2860,E,1,5,1,0, M,0, M,0,*76,37.0762,15.2881,37.0762,15.2881,1,0.00,,3/18/2013 1:33:25 PM
$GPGGA,123326.845,3704.5720,N,01517.2860,E,1,5,1,0, M,0, M,0,*76,$GPGGA,123326.845,3704.5720,N,01517.2860,E,1,5,1,0, M,0, M,0,*76,37.0762,15.2881,37.0762,15.2881,1,0.00,,3/18/2013 1:33:26 PM
$GPGGA,123327.859,3704.5720,N,01517.2860,E,1,5,1,0, M,0, M,0,*7A,$GPGGA,123327.859,3704.5720,N,01517.2860,E,1,5,1,0, M,0, M,0,*7A,37.0762,15.2881,37.0762,15.2881,1,0.00,,3/18/2013 1:33:27 PM
$GPGGA,123328.873,3704.5720,N,01517.2860,E,1,5,1,0, M,0, M,0,*7D,$GPGGA,123328.873,3704.5720,N,01517.2860,E,1,5,1,0, M,0, M,0,*7D,37.0762,15.2881,37.0762,15.2881,1,0.00,,3/18/2013 1:33:28 PM
$GPGGA,123329.887,3704.5720,N,01517.2860,E,1,5,1,0, M,0, M,0,*77,$GPGGA,123329.887,3704.5720,N,01517.2860,E,1,5,1,0, M,0, M,0,*77,37.0762,15.2881,37.0762,15.2881,1,0.00,,3/18/2013 1:33:29 PM
$GPGGA,123330.901,3704.5720,N,01517.2860,E,1,5,1,0, M,0, M,0,*70,$GPGGA,123330.901,3704.5720,N,01517.2860,E,1,5,1,0, M,0, M,0,*70,37.0762,15.2881,37.0762,15.2881,1,0.00,,3/18/2013 1:33:30 PM
$GPGGA,123331.914,3704.5720,N,01517.2860,E,1,5,1,0, M,0, M,0,*75,$GPGGA,123331.914,3704.5720,N,01517.2860,E,1,5,1,0, M,0, M,0,*75,37.0762,15.2881,37.0762,15.2881,1,0.00,,3/18/2013 1:33:31 PM
$GPGGA,123332.929,3704.5720,N,01517.2860,E,1,5,1,0, M,0, M,0,*78,$GPGGA,123332.929,3704.5720,N,01517.2860,E,1,5,1,0, M,0, M,0,*78,37.0762,15.2881,37.0762,15.2881,1,0.00,,3/18/2013 1:33:32 PM
$GPGGA,123333.942,3704.5720,N,01517.2860,E,1,5,1,0, M,0, M,0,*74,$GPGGA,123333.942,3704.5720,N,01517.2860,E,1,5,1,0, M,0, M,0,*74,37.0762,15.2881,37.0762,15.2881,1,0.00,,3/18/2013 1:33:33 PM
$GPGGA,123334.956,3704.5720,N,01517.2860,E,1,5,1,0, M,0, M,0,*76,$GPGGA,123334.956,3704.5720,N,01517.2860,E,1,5,1,0, M,0, M,0,*76,37.0762,15.2881,37.0762,15.2881,1,0.00,,3/18/2013 1:33:34 PM
$GPGGA,123335.970,3704.5720,N,01517.2860,E,1,5,1,0, M,0, M,0,*73,$GPGGA,123335.970,3704.5720,N,01517.2860,E,1,5,1,0, M,0, M,0,*73,37.0762,15.2881,37.0762,15.2881,1,0.00,,3/18/2013 1:33:35 PM
$GPGGA,123336.984,3704.5720,N,01517.2860,E,1,5,1,0, M,0, M,0,*7B,$GPGGA,123336.984,3704.5720,N,01517.2860,E,1,5,1,0, M,0, M,0,*7B,37.0762,15.2881,37.0762,15.2881,1,0.00,,3/18/2013 1:33:36 PM
$GPGGA,123337.998,3704.5720,N,01517.2860,E,1,5,1,0, M,0, M,0,*77,$GPGGA,123337.998,3704.5720,N,01517.2860,E,1,5,1,0, M,0, M,0,*77,37.0762,15.2881,37.0762,15.2881,1,0.00,,3/18/2013 1:33:37 PM
$GPGGA,123339.012,3704.5720,N,01517.2860,E,1,5,1,0, M,0, M,0,*72,$GPGGA,123339.012,3704.5720,N,01517.2860,E,1,5,1,0, M,0, M,0,*72,37.0762,15.2881,37.0762,15.2881,1,0.00,,3/18/2013 1:33:39 PM
$GPGGA,123340.027,3704.5720,N,01517.2860,E,1,5,1,0, M,0, M,0,*7A,$GPGGA,123340.027,3704.5720,N,01517.2860,E,1,5,1,0, M,0, M,0,*7A,37.0762,15.2881,37.0762,15.2881,1,0.00,,3/18/2013 1:33:40 PM
$GPGGA,123341.041,3704.5720,N,01517.2860,E,1,5,1,0, M,0, M,0,*7B,$GPGGA,123341.041,3704.5720,N,01517.2860,E,1,5,1,0, M,0, M,0,*7B,37.0762,15.2881,37.0762,15.2881,1,0.00,,3/18/2013 1:33:41 PM
$GPGGA,123342.055,3704.5720,N,01517.2860,E,1,5,1,0, M,0, M,0,*7D,$GPGGA,123342.055,3704.5720,N,01517.2860,E,1,5,1,0, M,0, M,0,*7D,37.0762,15.2881,37.0762,15.2881,1,0.00,,3/18/2013 1:33:42 PM
$GPGGA,123343.069,3704.5720,N,01517.2860,E,1,5,1,0, M,0, M,0,*73,$GPGGA,123343.069,3704.5720,N,01517.2860,E,1,5,1,0, M,0, M,0,*73,37.0762,15.2881,37.0762,15.2881,1,0.00,,3/18/2013 1:33:43 PM
$GPGGA,123344.083,3704.5720,N,01517.2860,E,1,5,1,0, M,0, M,0,*70,$GPGGA,123344.083,3704.5720,N,01517.2860,E,1,5,1,0, M,0, M,0,*70,37.0762,15.2881,37.0762,15.2881,1,0.00,,3/18/2013 1:33:44 PM
$GPGGA,123345.097,3704.5720,N,01517.2860,E,1,5,1,0, M,0, M,0,*74,$GPGGA,123345.097,3704.5720,N,01517.2860,E,1,5,1,0, M,0, M,0,*74,37.0762,15.2881,37.0762,15.2881,1,0.00,,3/18/2013 1:33:45 PM
$GPGGA,123346.111,3704.5720,N,01517.2860,E,1,5,1,0, M,0, M,0,*78,$GPGGA,123346.111,3704.5720,N,01517.2860,E,1,5,1,0, M,0, M,0,*78,37.0762,15.2881,37.0762,15.2881,1,0.00,,3/18/2013 1:33:46 PM
$GPGGA,123347.125,3704.5720,N,01517.2860,E,1,5,1,0, M,0, M,0,*7E,$GPGGA,123347.125,3704.5720,N,01517.2860,E,1,5,1,0, M,0, M,0,*7E,37.0762,15.2881,37.0762,15.2881,1,0.00,,3/18/2013 1:33:47 PM
$GPGGA,123348.138,3704.5720,N,01517.2860,E,1,5,1,0, M,0, M,0,*7D,$GPGGA,123348.138,3704.5720,N,01517.2860,E,1,5,1,0, M,0, M,0,*7D,37.0762,15.2881,37.0762,15.2881,1,0.00,,3/18/2013 1:33:48 PM
$GPGGA,123349.152,3704.5720,N,01517.2860,E,1,5,1,0, M,0, M,0,*70,$GPGGA,123349.152,3704.5720,N,01517.2860,E,1,5,1,0, M,0, M,0,*70,37.0762,15.2881,37.0762,15.2881,1,0.00,,3/18/2013 1:33:49 PM
$GPGGA,123350.166,3704.5720,N,01517.2860,E,1,5,1,0, M,0, M,0,*7F,$GPGGA,123350.166,3704.5720,N,01517.2860,E,1,5,1,0, M,0, M,0,*7F,37.0762,15.2881,37.0762,15.2881,1,0.00,,3/18/2013 1:33:50 PM
$GPGGA,123351.180,3704.5720,N,01517.2860,E,1,5,1,0, M,0, M,0,*76,$GPGGA,123351.180,3704.5720,N,01517.2860,E,1,5,1,0, M,0, M,0,*76,37.0762,15.2881,37.0762,15.2881,1,0.00,,3/18/2013 1:33:51 PM
$GPGGA,123352.194,3704.5720,N,01517.2860,E,1,5,1,0, M,0, M,0,*70,$GPGGA,123352.194,3704.5720,N,01517.2860,E,1,5,1,0, M,0, M,0,*70,37.0762,15.2881,37.0762,15.2881,1,0.00,,3/18/2013 1:33:52 PM
$GPGGA,123353.208,3704.5720,N,01517.2860,E,1,5,1,0, M,0, M,0,*77,$GPGGA,123353.208,3704.5720,N,01517.2860,E,1,5,1,0, M,0, M,0,*77,37.0762,15.2881,37.0762,15.2881,1,0.00,,3/18/2013 1:33:53 PM
$GPGGA,123354.222,3704.5720,N,01517.2860,E,1,5,1,0, M,0, M,0,*78,$GPGGA,123354.222,3704.5720,N,01517.2860,E,1,5,1,0, M,0, M,0,*78,37.0762,15.2881,37.0762,15.2881,1,0.00,,3/18/2013 1:33:54 PM
$GPGGA,123355.237,3704.5720,N,01517.2860,E,1,5,1,0, M,0, M,0,*7D,$GPGGA,123355.237,3704.5720,N,01517.2860,E,1,5,1,0, M,0, M,0,*7D,37.0762,15.2881,37.0762,15.2881,1,0.00,,3/18/2013 1:33:55 PM
$GPGGA,123356.251,3704.5720,N,01517.2860,E,1,5,1,0, M,0, M,0,*7E,$GPGGA,123356.251,3704.5720,N,01517.2860,E,1,5,1,0, M,0, M,0,*7E,37.0762,15.2881,37.0762,15.2881,1,0.00,,3/18/2013 1:33:56 PM
$GPGGA,123357.266,3704.5720,N,01517.2860,E,1,5,1,0, M,0, M,0,*7B,$GPGGA,123357.266,3704.5720,N,01517.2860,E,1,5,1,0, M,0, M,0,*7B,37.0762,15.2881,37.0762,15.2881,1,0.00,,3/18/2013 1:33:57 PM
$GPGGA,123358.279,3704.5720,N,01517.2860,E,1,5,1,0, M,0, M,0,*7A,$GPGGA,123358.279,3704.5720,N,01517.2860,E,1,5,1,0, M,0, M,0,*7A,37.0762,15.2881,37.0762,15.2881,1,0.00,,3/18/2013 1:33:58 PM
$GPGGA,123359.292,3704.5720,N,01517.2860,E,1,5,1,0, M,0, M,0,*7E,$GPGGA,123359.292,3704.5720,N,01517.2860,E,1,5,1,0, M,0, M,0,*7E,37.0762,15.2881,37.0762,15.2881,1,0.00,,3/18/2013 1:33:59 PM
$GPGGA,123400.306,3704.5720,N,01517.2860,E,1,5,1,0, M,0, M,0,*79,$GPGGA,123400.306,3704.5720,N,01517.2860,E,1,5,1,0, M,0, M,0,*79,37.0762,15.2881,37.0762,15.2881,1,0.00,,3/18/2013 1:34:00 PM
$GPGGA,123401.321,3704.5720,N,01517.2860,E,1,5,1,0, M,0, M,0,*7D,$GPGGA,123401.321,3704.5720,N,01517.2860,E,1,5,1,0, M,0, M,0,*7D,37.0762,15.2881,37.0762,15.2881,1,0.00,,3/18/2013 1:34:01 PM
$GPGGA,123402.334,3704.5720,N,01517.2860,E,1,5,1,0, M,0, M,0,*7A,$GPGGA,123402.334,3704.5720,N,01517.2860,E,1,5,1,0, M,0, M,0,*7A,37.0762,15.2881,37.0762,15.2881,1,0.00,,3/18/2013 1:34:02 PM
$GPGGA,123403.348,3704.5720,N,01517.2860,E,1,5,1,0, M,0, M,0,*70,$GPGGA,123403.348,3704.5720,N,01517.2860,E,1,5,1,0, M,0, M,0,*70,37.0762,15.2881,37.0762,15.2881,1,0.00,,3/18/2013 1:34:03 PM
$GPGGA,123404.363,3704.5720,N,01517.2860,E,1,5,1,0, M,0, M,0,*7E,$GPGGA,123404.363,3704.5720,N,01517.2860,E,1,5,1,0, M,0, M,0,*7E,37.0762,15.2881,37.0762,15.2881,1,0.00,,3/18/2013 1:34:04 PM
$GPGGA,123405.376,3704.5720,N,01517.2860,E,1,5,1,0, M,0, M,0,*7B,$GPGGA,123405.376,3704.5720,N,01517.2860,E,1,5,1,0, M,0, M,0,*7B,37.0762,15.2881,37.0762,15.2881,1,0.00,,3/18/2013 1:34:05 PM
$GPGGA,123406.390,3704.5720,N,01517.2860,E,1,5,1,0, M,0, M,0,*70,$GPGGA,123406.390,3704.5720,N,01517.2860,E,1,5,1,0, M,0, M,0,*70,37.0762,15.2881,37.0762,15.2881,1,0.00,,3/18/2013 1:34:06 PM
$GPGGA,123407.404,3704.5720,N,01517.2860,E,1,5,1,0, M,0, M,0,*7B,$GPGGA,123407.404,3704.5720,N,01517.2860,E,1,5,1,0, M,0, M,0,*7B,37.0762,15.2881,37.0762,15.2881,1,0.00,,3/18/2013 1:34:07 PM
$GPGGA,123408.418,3704.5720,N,01517.2860,E,1,5,1,0, M,0, M,0,*79,$GPGGA,123408.418,3704.5720,N,01517.2860,E,1,5,1,0, M,0, M,0,*79,37.0762,15.2881,37.0762,15.2881,1,0.00,,3/18/2013 1:34:08 PM
$GPGGA,123409.432,3704.5720,N,01517.2860,E,1,5,1,0, M,0, M,0,*70,$GPGGA,123409.432,3704.5720,N,01517.2860,E,1,5,1,0, M,0, M,0,*70,37.0762,15.2881,37.0762,15.2881,1,0.00,,3/18/2013 1:34:09 PM
$GPGGA,123410.446,3704.5720,N,01517.2860,E,1,5,1,0, M,0, M,0,*7B,$GPGGA,123410.446,3704.5720,N,01517.2860,E,1,5,1,0, M,0, M,0,*7B,37.0762,15.2881,37.0762,15.2881,1,0.00,,3/18/2013 1:34:10 PM
$GPGGA,123411.460,3704.5720,N,01517.2860,E,1,5,1,0, M,0, M,0,*7E,$GPGGA,123411.460,3704.5720,N,01517.2860,E,1,5,1,0, M,0, M,0,*7E,37.0762,15.2881,37.0762,15.2881,1,0.00,,3/18/2013 1:34:11 PM
$GPGGA,123412.474,3704.5720,N,01517.2860,E,1,5,1,0, M,0, M,0,*78,$GPGGA,123412.474,3704.5720,N,01517.2860,E,1,5,1,0, M,0, M,0,*78,37.0762,15.2881,37.0762,15.2881,1,0.00,,3/18/2013 1:34:12 PM
$GPGGA,123413.488,3704.5720,N,01517.2860,E,1,5,1,0, M,0, M,0,*7A,$GPGGA,123413.488,3704.5720,N,01517.2860,E,1,5,1,0, M,0, M,0,*7A,37.0762,15.2881,37.0762,15.2881,1,0.00,,3/18/2013 1:34:13 PM
$GPGGA,123414.503,3704.5720,N,01517.2860,E,1,5,1,0, M,0, M,0,*7F,$GPGGA,123414.503,3704.5720,N,01517.2860,E,1,5,1,0, M,0, M,0,*7F,37.0762,15.2881,37.0762,15.2881,1,0.00,,3/18/2013 1:34:14 PM
$GPGGA,123415.518,3704.5720,N,01517.2860,E,1,5,1,0, M,0, M,0,*74,$GPGGA,123415.518,3704.5720,N,01517.2860,E,1,5,1,0, M,0, M,0,*74,37.0762,15.2881,37.0762,15.2881,1,0.00,,3/18/2013 1:34:15 PM
$GPGGA,123416.532,3704.5720,N,01517.2860,E,1,5,1,0, M,0, M,0,*7F,$GPGGA,123416.532,3704.5720,N,01517.2860,E,1,5,1,0, M,0, M,0,*7F,37.0762,15.2881,37.0762,15.2881,1,0.00,,3/18/2013 1:34:16 PM
$GPGGA,123417.546,3704.5720,N,01517.2860,E,1,5,1,0, M,0, M,0,*7D,$GPGGA,123417.546,3704.5720,N,01517.2860,E,1,5,1,0, M,0, M,0,*7D,37.0762,15.2881,37.0762,15.2881,1,0.00,,3/18/2013 1:34:17 PM
$GPGGA,123418.558,3704.5720,N,01517.2860,E,1,5,1,0, M,0, M,0,*7D,$GPGGA,123418.558,3704.5720,N,01517.2860,E,1,5,1,0, M,0, M,0,*7D,37.0762,15.2881,37.0762,15.2881,1,0.00,,3/18/2013 1:34:18 PM
$GPGGA,123419.572,3704.5720,N,01517.2860,E,1,5,1,0, M,0, M,0,*74,$GPGGA,123419.572,3704.5720,N,01517.2860,E,1,5,1,0, M,0, M,0,*74,37.0762,15.2881,37.0762,15.2881,1,0.00,,3/18/2013 1:34:19 PM
$GPGGA,123420.586,3704.5720,N,01517.2860,E,1,5,1,0, M,0, M,0,*75,$GPGGA,123420.586,3704.5720,N,01517.2860,E,1,5,1,0, M,0, M,0,*75,37.0762,15.2881,37.0762,15.2881,1,0.00,,3/18/2013 1:34:20 PM
$GPGGA,123421.600,3704.5720,N,01517.2860,E,1,5,1,0, M,0, M,0,*79,$GPGGA,123421.600,3704.5720,N,01517.2860,E,1,5,1,0, M,0, M,0,*79,37.0762,15.2881,37.0762,15.2881,1,0.00,,3/18/2013 1:34:21 PM
$GPGGA,123422.614,3704.5720,N,01517.2860,E,1,5,1,0, M,0, M,0,*7F,$GPGGA,123422.614,3704.5720,N,01517.2860,E,1,5,1,0, M,0, M,0,*7F,37.0762,15.2881,37.0762,15.2881,1,0.00,,3/18/2013 1:34:22 PM
$GPGGA,123423.628,3704.5720,N,01517.2860,E,1,5,1,0, M,0, M,0,*71,$GPGGA,123423.628,3704.5720,N,01517.2860,E,1,5,1,0, M,0, M,0,*71,37.0762,15.2881,37.0762,15.2881,1,0.00,,3/18/2013 1:34:23 PM
$GPGGA,123424.642,3704.5720,N,01517.2860,E,1,5,1,0, M,0, M,0,*7A,$GPGGA,123424.642,3704.5720,N,01517.2860,E,1,5,1,0, M,0, M,0,*7A,37.0762,15.2881,37.0762,15.2881,1,0.00,,3/18/2013 1:34:24 PM
$GPGGA,123425.656,3704.5720,N,01517.2860,E,1,5,1,0, M,0, M,0,*7E,$GPGGA,123425.656,3704.5720,N,01517.2860,E,1,5,1,0, M,0, M,0,*7E,37.0762,15.2881,37.0762,15.2881,1,0.00,,3/18/2013 1:34:25 PM
$GPGGA,123426.670,3704.5720,N,01517.2860,E,1,5,1,0, M,0, M,0,*79,$GPGGA,123426.670,3704.5720,N,01517.2860,E,1,5,1,0, M,0, M,0,*79,37.0762,15.2881,37.0762,15.2881,1,0.00,,3/18/2013 1:34:26 PM
$GPGGA,123427.684,3704.5720,N,01517.2860,E,1,5,1,0, M,0, M,0,*73,$GPGGA,123427.684,3704.5720,N,01517.2860,E,1,5,1,0, M,0, M,0,*73,37.0762,15.2881,37.0762,15.2881,1,0.00,,3/18/2013 1:34:27 PM
$GPGGA,123428.698,3704.5720,N,01517.2860,E,1,5,1,0, M,0, M,0,*71,$GPGGA,123428.698,3704.5720,N,01517.2860,E,1,5,1,0, M,0, M,0,*71,37.0762,15.2881,37.0762,15.2881,1,0.00,,3/18/2013 1:34:28 PM
$GPGGA,123429.712,3704.5720,N,01517.2860,E,1,5,1,0, M,0, M,0,*73,$GPGGA,123429.712,3704.5720,N,01517.2860,E,1,5,1,0, M,0, M,0,*73,37.0762,15.2881,37.0762,15.2881,1,0.00,,3/18/2013 1:34:29 PM
$GPGGA,123430.726,3704.5720,N,01517.2860,E,1,5,1,0, M,0, M,0,*7C,$GPGGA,123430.726,3704.5720,N,01517.2860,E,1,5,1,0, M,0, M,0,*7C,37.0762,15.2881,37.0762,15.2881,1,0.00,,3/18/2013 1:34:30 PM
$GPGGA,123431.740,3704.5720,N,01517.2860,E,1,5,1,0, M,0, M,0,*7D,$GPGGA,123431.740,3704.5720,N,01517.2860,E,1,5,1,0, M,0, M,0,*7D,37.0762,15.2881,37.0762,15.2881,1,0.00,,3/18/2013 1:34:31 PM
$GPGGA,123432.755,3704.5720,N,01517.2860,E,1,5,1,0, M,0, M,0,*7A,$GPGGA,123432.755,3704.5720,N,01517.2860,E,1,5,1,0, M,0, M,0,*7A,37.0762,15.2881,37.0762,15.2881,1,0.00,,3/18/2013 1:34:32 PM
$GPGGA,123433.770,3704.5720,N,01517.2860,E,1,5,1,0, M,0, M,0,*7C,$GPGGA,123433.770,3704.5720,N,01517.2860,E,1,5,1,0, M,0, M,0,*7C,37.0762,15.2881,37.0762,15.2881,1,0.00,,3/18/2013 1:34:33 PM
$GPGGA,123434.784,3704.5720,N,01517.2860,E,1,5,1,0, M,0, M,0,*70,$GPGGA,123434.784,3704.5720,N,01517.2860,E,1,5,1,0, M,0, M,0,*70,37.0762,15.2881,37.0762,15.2881,1,0.00,,3/18/2013 1:34:34 PM
$GPGGA,123435.798,3704.5720,N,01517.2860,E,1,5,1,0, M,0, M,0,*7C,$GPGGA,123435.798,3704.5720,N,01517.2860,E,1,5,1,0, M,0, M,0,*7C,37.0762,15.2881,37.0762,15.2881,1,0.00,,3/18/2013 1:34:35 PM
$GPGGA,123436.812,3704.5720,N,01517.2860,E,1,5,1,0, M,0, M,0,*72,$GPGGA,123436.812,3704.5720,N,01517.2860,E,1,5,1,0, M,0, M,0,*72,37.0762,15.2881,37.0762,15.2881,1,0.00,,3/18/2013 1:34:36 PM
$GPGGA,123437.824,3704.5720,N,01517.2860,E,1,5,1,0, M,0, M,0,*76,$GPGGA,123437.824,3704.5720,N,01517.2860,E,1,5,1,0, M,0, M,0,*76,37.0762,15.2881,37.0762,15.2881,1,0.00,,3/18/2013 1:34:37 PM
$GPGGA,123438.838,3704.5720,N,01517.2860,E,1,5,1,0, M,0, M,0,*74,$GPGGA,123438.838,3704.5720,N,01517.2860,E,1,5,1,0, M,0, M,0,*74,37.0762,15.2881,37.0762,15.2881,1,0.00,,3/18/2013 1:34:38 PM
$GPGGA,123439.852,3704.5720,N,01517.2860,E,1,5,1,0, M,0, M,0,*79,$GPGGA,123439.852,3704.5720,N,01517.2860,E,1,5,1,0, M,0, M,0,*79,37.0762,15.2881,37.0762,15.2881,1,0.00,,3/18/2013 1:34:39 PM
$GPGGA,123440.866,3704.5720,N,01517.2860,E,1,5,1,0, M,0, M,0,*70,$GPGGA,123440.866,3704.5723,N,01517.2861,E,1,5,1,0, M,0, M,0,*72,37.0762,15.2881,37.0762054912,15.2881009142,2,0.00,,3/18/2013 1:34:40 PM
$GPGGA,123441.880,3704.5720,N,01517.2860,E,1,5,1,0, M,0, M,0,*79,$GPGGA,123441.880,3704.5723,N,01517.2861,E,1,5,1,0, M,0, M,0,*7B,37.0762,15.2881,37.0762056029,15.2881015615,2,0.00,,3/18/2013 1:34:41 PM
$GPGGA,123442.894,3704.5720,N,01517.2860,E,1,5,1,0, M,0, M,0,*7F,$GPGGA,123442.894,3704.5723,N,01517.2861,E,1,5,1,0, M,0, M,0,*7D,37.0762,15.2881,37.0762054239,15.2881024711,2,0.00,,3/18/2013 1:34:42 PM
$GPGGA,123443.908,3704.5720,N,01517.2860,E,1,5,1,0, M,0, M,0,*7A,$GPGGA,123443.908,3704.5723,N,01517.2862,E,1,5,1,0, M,0, M,0,*7B,37.0762,15.2881,37.0762055805,15.2881033532,2,0.00,,3/18/2013 1:34:43 PM
$GPGGA,123444.922,3704.5720,N,01517.2860,E,1,5,1,0, M,0, M,0,*75,$GPGGA,123444.922,3704.5724,N,01517.2862,E,1,5,1,0, M,0, M,0,*73,37.0762,15.2881,37.076206453,15.2881035332,2,0.00,,3/18/2013 1:34:44 PM
$GPGGA,123445.936,3704.5720,N,01517.2860,E,1,5,1,0, M,0, M,0,*71,$GPGGA,123445.936,3704.5724,N,01517.2862,E,1,5,1,0, M,0, M,0,*77,37.0762,15.2881,37.0762070457,15.2881033242,2,0.00,,3/18/2013 1:34:45 PM
$GPGGA,123446.950,3704.5720,N,01517.2860,E,1,5,1,0, M,0, M,0,*72,$GPGGA,123446.950,3704.5725,N,01517.2862,E,1,5,1,0, M,0, M,0,*75,37.0762,15.2881,37.0762075884,15.2881030721,2,0.00,,3/18/2013 1:34:46 PM
$GPGGA,123447.964,3704.5720,N,01517.2860,E,1,5,1,0, M,0, M,0,*74,$GPGGA,123447.964,3704.5725,N,01517.2861,E,1,5,1,0, M,0, M,0,*70,37.0762,15.2881,37.0762075743,15.2881014893,2,0.00,,3/18/2013 1:34:47 PM
$GPGGA,123448.978,3704.5720,N,01517.2860,E,1,5,1,0, M,0, M,0,*76,$GPGGA,123448.978,3704.5725,N,01517.2860,E,1,5,1,0, M,0, M,0,*73,37.0762,15.2881,37.076207866,15.288100025,2,0.00,,3/18/2013 1:34:48 PM
$GPGGA,123449.993,3704.5720,N,01517.2860,E,1,5,1,0, M,0, M,0,*72,$GPGGA,123449.993,3704.5725,N,01517.2859,E,1,5,1,0, M,0, M,0,*7D,37.0762,15.2881,37.0762078477,15.28809895,2,0.00,,3/18/2013 1:34:49 PM
$GPGGA,123451.007,3704.5720,N,01517.2860,E,1,5,1,0, M,0, M,0,*7F,$GPGGA,123451.007,3704.5724,N,01517.2858,E,1,5,1,0, M,0, M,0,*70,37.0762,15.2881,37.0762074578,15.2880967501,2,0.00,,3/18/2013 1:34:51 PM
$GPGGA,123452.021,3704.5720,N,01517.2860,E,1,5,1,0, M,0, M,0,*78,$GPGGA,123452.021,3704.5723,N,01517.2855,E,1,5,1,0, M,0, M,0,*7D,37.0762,15.2881,37.0762051637,15.2880923932,2,0.00,,3/18/2013 1:34:52 PM
$GPGGA,123453.035,3704.5720,N,01517.2860,E,1,5,1,0, M,0, M,0,*7C,$GPGGA,123453.035,3704.5720,N,01517.2854,E,1,5,1,0, M,0, M,0,*7B,37.0762,15.2881,37.076200257,15.2880895972,2,0.00,,3/18/2013 1:34:53 PM
$GPGGA,123454.049,3704.5720,N,01517.2860,E,1,5,1,0, M,0, M,0,*70,$GPGGA,123454.049,3704.5719,N,01517.2854,E,1,5,1,0, M,0, M,0,*7D,37.0762,15.2881,37.0761977066,15.2880901116,2,0.00,,3/18/2013 1:34:54 PM
$GPGGA,123455.063,3704.5720,N,01517.2860,E,1,5,1,0, M,0, M,0,*79,$GPGGA,123455.063,3704.5718,N,01517.2855,E,1,5,1,0, M,0, M,0,*74,37.0762,15.2881,37.0761958724,15.288091393,2,0.00,,3/18/2013 1:34:55 PM
$GPGGA,123456.077,3704.5720,N,01517.2860,E,1,5,1,0, M,0, M,0,*7F,$GPGGA,123456.077,3704.5716,N,01517.2857,E,1,5,1,0, M,0, M,0,*7E,37.0762,15.2881,37.0761932523,15.2880951635,2,0.00,,3/18/2013 1:34:56 PM
$GPGGA,123457.090,3704.5720,N,01517.2860,E,1,5,1,0, M,0, M,0,*77,$GPGGA,123457.090,3704.5716,N,01517.2863,E,1,5,1,0, M,0, M,0,*71,37.0762,15.2881,37.0761936735,15.2881056498,2,0.00,,3/18/2013 1:34:57 PM
$GPGGA,123458.104,3704.5720,N,01517.2860,E,1,5,1,0, M,0, M,0,*74,$GPGGA,123458.104,3704.5720,N,01517.2866,E,1,5,1,0, M,0, M,0,*72,37.0762,15.2881,37.0762000622,15.2881100297,2,0.00,,3/18/2013 1:34:58 PM
$GPGGA,123459.118,3704.5720,N,01517.2860,E,1,5,1,0, M,0, M,0,*78,$GPGGA,123459.118,3704.5723,N,01517.2864,E,1,5,1,0, M,0, M,0,*7F,37.0762,15.2881,37.0762045984,15.288107408,2,0.00,,3/18/2013 1:34:59 PM
$GPGGA,123500.132,3704.5720,N,01517.2860,E,1,5,1,0, M,0, M,0,*7D,$GPGGA,123500.132,3704.5724,N,01517.2864,E,1,5,1,0, M,0, M,0,*7D,37.0762,15.2881,37.0762058571,15.2881064345,2,0.00,,3/18/2013 1:35:00 PM
$GPGGA,123501.146,3704.5720,N,01517.2860,E,1,5,1,0, M,0, M,0,*7F,$GPGGA,123501.146,3704.5722,N,01517.2866,E,1,5,1,0, M,0, M,0,*7B,37.0762,15.2881,37.0762033407,15.2881092802,2,0.00,,3/18/2013 1:35:01 PM
$GPGGA,123502.160,3704.5720,N,01517.2860,E,1,5,1,0, M,0, M,0,*78,$GPGGA,123502.160,3704.5719,N,01517.2866,E,1,5,1,0, M,0, M,0,*74,37.0762,15.2881,37.0761988347,15.2881101364,2,0.00,,3/18/2013 1:35:02 PM
$GPGGA,123503.174,3704.5720,N,01517.2860,E,1,5,1,0, M,0, M,0,*7C,$GPGGA,123503.174,3704.5719,N,01517.2866,E,1,5,1,0, M,0, M,0,*70,37.0762,15.2881,37.0761981842,15.2881099212,2,0.00,,3/18/2013 1:35:03 PM
$GPGGA,123504.188,3704.5720,N,01517.2860,E,1,5,1,0, M,0, M,0,*78,$GPGGA,123504.188,3704.5720,N,01517.2866,E,1,5,1,0, M,0, M,0,*7E,37.0762,15.2881,37.0761993824,15.288110336,2,0.00,,3/18/2013 1:35:04 PM
$GPGGA,123505.202,3704.5720,N,01517.2860,E,1,5,1,0, M,0, M,0,*78,$GPGGA,123505.202,3704.5720,N,01517.2866,E,1,5,1,0, M,0, M,0,*7E,37.0762,15.2881,37.0761996145,15.288110409,2,0.00,,3/18/2013 1:35:05 PM
$GPGGA,123506.216,3704.5720,N,01517.2860,E,1,5,1,0, M,0, M,0,*7E,$GPGGA,123506.216,3704.5720,N,01517.2866,E,1,5,1,0, M,0, M,0,*78,37.0762,15.2881,37.0762002879,15.2881105394,2,0.00,,3/18/2013 1:35:06 PM
$GPGGA,123507.231,3704.5720,N,01517.2860,E,1,5,1,0, M,0, M,0,*7A,$GPGGA,123507.231,3704.5721,N,01517.2866,E,1,5,1,0, M,0, M,0,*7D,37.0762,15.2881,37.0762011508,15.288110156,2,0.00,,3/18/2013 1:35:07 PM
$GPGGA,123508.245,3704.5720,N,01517.2860,E,1,5,1,0, M,0, M,0,*76,$GPGGA,123508.245,3704.5721,N,01517.2866,E,1,5,1,0, M,0, M,0,*71,37.0762,15.2881,37.0762022683,15.2881100019,2,0.00,,3/18/2013 1:35:08 PM
$GPGGA,123509.259,3704.5720,N,01517.2860,E,1,5,1,0, M,0, M,0,*7A,$GPGGA,123509.259,3704.5723,N,01517.2865,E,1,5,1,0, M,0, M,0,*7C,37.0762,15.2881,37.0762054772,15.2881082215,2,0.00,,3/18/2013 1:35:09 PM
$GPGGA,123510.273,3704.5720,N,01517.2860,E,1,5,1,0, M,0, M,0,*7A,$GPGGA,123510.273,3704.5724,N,01517.2863,E,1,5,1,0, M,0, M,0,*7D,37.0762,15.2881,37.0762069342,15.2881043414,2,0.00,,3/18/2013 1:35:10 PM
$GPGGA,123511.287,3704.5720,N,01517.2860,E,1,5,1,0, M,0, M,0,*70,$GPGGA,123511.287,3704.5725,N,01517.2862,E,1,5,1,0, M,0, M,0,*77,37.0762,15.2881,37.0762076693,15.2881033163,2,0.00,,3/18/2013 1:35:11 PM
$GPGGA,123512.301,3704.5720,N,01517.2860,E,1,5,1,0, M,0, M,0,*7C,$GPGGA,123512.301,3704.5725,N,01517.2859,E,1,5,1,0, M,0, M,0,*73,37.0762,15.2881,37.0762075864,15.2880976589,2,0.00,,3/18/2013 1:35:12 PM
$GPGGA,123513.315,3704.5720,N,01517.2860,E,1,5,1,0, M,0, M,0,*78,$GPGGA,123513.315,3704.5723,N,01517.2856,E,1,5,1,0, M,0, M,0,*7E,37.0762,15.2881,37.076205388,15.2880935001,2,0.00,,3/18/2013 1:35:13 PM
$GPGGA,123514.329,3704.5720,N,01517.2860,E,1,5,1,0, M,0, M,0,*70,$GPGGA,123514.329,3704.5720,N,01517.2854,E,1,5,1,0, M,0, M,0,*77,37.0762,15.2881,37.0761993145,15.2880899534,2,0.00,,3/18/2013 1:35:14 PM
$GPGGA,123515.343,3704.5720,N,01517.2860,E,1,5,1,0, M,0, M,0,*7D,$GPGGA,123515.343,3704.5717,N,01517.2855,E,1,5,1,0, M,0, M,0,*7F,37.0762,15.2881,37.0761943804,15.2880920786,2,0.00,,3/18/2013 1:35:15 PM
$GPGGA,123516.357,3704.5720,N,01517.2860,E,1,5,1,0, M,0, M,0,*7B,$GPGGA,123516.357,3704.5715,N,01517.2858,E,1,5,1,0, M,0, M,0,*76,37.0762,15.2881,37.0761924842,15.2880974987,2,0.00,,3/18/2013 1:35:16 PM
$GPGGA,123517.370,3704.5720,N,01517.2860,E,1,5,1,0, M,0, M,0,*7F,$GPGGA,123517.370,3704.5716,N,01517.2860,E,1,5,1,0, M,0, M,0,*7A,37.0762,15.2881,37.0761929479,15.2880997322,2,0.00,,3/18/2013 1:35:17 PM
$GPGGA,123518.384,3704.5720,N,01517.2860,E,1,5,1,0, M,0, M,0,*7B,$GPGGA,123518.384,3704.5716,N,01517.2859,E,1,5,1,0, M,0, M,0,*74,37.0762,15.2881,37.0761934076,15.2880987552,2,0.00,,3/18/2013 1:35:18 PM
$GPGGA,123519.398,3704.5720,N,01517.2860,E,1,5,1,0, M,0, M,0,*77,$GPGGA,123519.398,3704.5717,N,01517.2857,E,1,5,1,0, M,0, M,0,*77,37.0762,15.2881,37.0761956035,15.2880949642,2,0.00,,3/18/2013 1:35:19 PM
$GPGGA,123520.412,3704.5720,N,01517.2860,E,1,5,1,0, M,0, M,0,*78,$GPGGA,123520.412,3704.5719,N,01517.2857,E,1,5,1,0, M,0, M,0,*76,37.0762,15.2881,37.0761976721,15.2880945064,2,0.00,,3/18/2013 1:35:20 PM
$GPGGA,123521.426,3704.5720,N,01517.2860,E,1,5,1,0, M,0, M,0,*7E,$GPGGA,123521.426,3704.5718,N,01517.2857,E,1,5,1,0, M,0, M,0,*71,37.0762,15.2881,37.0761962266,15.2880957582,2,0.00,,3/18/2013 1:35:21 PM
$GPGGA,123522.440,3704.5720,N,01517.2860,E,1,5,1,0, M,0, M,0,*7D,$GPGGA,123522.440,3704.5718,N,01517.2857,E,1,5,1,0, M,0, M,0,*72,37.0762,15.2881,37.0761968007,15.2880942259,2,0.00,,3/18/2013 1:35:22 PM
$GPGGA,123523.454,3704.5720,N,01517.2860,E,1,5,1,0, M,0, M,0,*79,$GPGGA,123523.454,3704.5718,N,01517.2857,E,1,5,1,0, M,0, M,0,*76,37.0762,15.2881,37.0761973022,15.2880956808,2,0.00,,3/18/2013 1:35:23 PM
$GPGGA,123524.469,3704.5720,N,01517.2860,E,1,5,1,0, M,0, M,0,*70,$GPGGA,123524.469,3704.5718,N,01517.2859,E,1,5,1,0, M,0, M,0,*71,37.0762,15.2881,37.076197322,15.2880979313,2,0.00,,3/18/2013 1:35:24 PM
$GPGGA,123525.483,3704.5720,N,01517.2860,E,1,5,1,0, M,0, M,0,*75,$GPGGA,123525.483,3704.5719,N,01517.2858,E,1,5,1,0, M,0, M,0,*74,37.0762,15.2881,37.0761977063,15.2880970931,2,0.00,,3/18/2013 1:35:25 PM
$GPGGA,123526.497,3704.5720,N,01517.2860,E,1,5,1,0, M,0, M,0,*73,$GPGGA,123526.497,3704.5719,N,01517.2857,E,1,5,1,0, M,0, M,0,*7D,37.0762,15.2881,37.0761988542,15.2880952708,2,0.00,,3/18/2013 1:35:26 PM
$GPGGA,123527.511,3704.5720,N,01517.2860,E,1,5,1,0, M,0, M,0,*7D,$GPGGA,123527.511,3704.5720,N,01517.2857,E,1,5,1,0, M,0, M,0,*79,37.0762,15.2881,37.0761992646,15.2880949378,2,0.00,,3/18/2013 1:35:27 PM
$GPGGA,123528.525,3704.5720,N,01517.2860,E,1,5,1,0, M,0, M,0,*75,$GPGGA,123528.525,3704.5719,N,01517.2857,E,1,5,1,0, M,0, M,0,*7B,37.0762,15.2881,37.0761990783,15.2880956013,2,0.00,,3/18/2013 1:35:28 PM
$GPGGA,123529.539,3704.5720,N,01517.2860,E,1,5,1,0, M,0, M,0,*79,$GPGGA,123529.539,3704.5718,N,01517.2858,E,1,5,1,0, M,0, M,0,*79,37.0762,15.2881,37.0761971908,15.288097019,2,0.00,,3/18/2013 1:35:29 PM
$GPGGA,123530.553,3704.5720,N,01517.2860,E,1,5,1,0, M,0, M,0,*7D,$GPGGA,123530.553,3704.5719,N,01517.2860,E,1,5,1,0, M,0, M,0,*77,37.0762,15.2881,37.0761975671,15.2880991889,2,0.00,,3/18/2013 1:35:30 PM
$GPGGA,123531.567,3704.5720,N,01517.2860,E,1,5,1,0, M,0, M,0,*7B,$GPGGA,123531.567,3704.5719,N,01517.2861,E,1,5,1,0, M,0, M,0,*70,37.0762,15.2881,37.0761985629,15.2881020438,2,0.00,,3/18/2013 1:35:31 PM
$GPGGA,123532.581,3704.5720,N,01517.2860,E,1,5,1,0, M,0, M,0,*70,$GPGGA,123532.581,3704.5719,N,01517.2861,E,1,5,1,0, M,0, M,0,*7B,37.0762,15.2881,37.0761987042,15.2881018018,2,0.00,,3/18/2013 1:35:32 PM
$GPGGA,123533.595,3704.5720,N,01517.2860,E,1,5,1,0, M,0, M,0,*74,$GPGGA,123533.595,3704.5719,N,01517.2859,E,1,5,1,0, M,0, M,0,*74,37.0762,15.2881,37.0761985304,15.2880987763,2,0.00,,3/18/2013 1:35:33 PM
$GPGGA,123534.609,3704.5720,N,01517.2860,E,1,5,1,0, M,0, M,0,*75,$GPGGA,123534.609,3704.5721,N,01517.2866,E,1,5,1,0, M,0, M,0,*72,37.0762,15.2881,37.0762009205,15.288109282,2,0.00,,3/18/2013 1:35:34 PM
$GPGGA,123535.623,3704.5720,N,01517.2860,E,1,5,1,0, M,0, M,0,*7C,$GPGGA,123535.623,3704.5722,N,01517.2868,E,1,5,1,0, M,0, M,0,*76,37.0762,15.2881,37.0762035,15.2881132389,2,0.00,,3/18/2013 1:35:35 PM
$GPGGA,123536.636,3704.5720,N,01517.2860,E,1,5,1,0, M,0, M,0,*7B,$GPGGA,123536.636,3704.5724,N,01517.2867,E,1,5,1,0, M,0, M,0,*78,37.0762,15.2881,37.0762068623,15.2881114793,2,0.00,,3/18/2013 1:35:36 PM
$GPGGA,123537.650,3704.5720,N,01517.2860,E,1,5,1,0, M,0, M,0,*7A,$GPGGA,123537.650,3704.5725,N,01517.2866,E,1,5,1,0, M,0, M,0,*79,37.0762,15.2881,37.0762085789,15.2881104005,2,0.00,,3/18/2013 1:35:37 PM
$GPGGA,123538.664,3704.5720,N,01517.2860,E,1,5,1,0, M,0, M,0,*72,$GPGGA,123538.664,3704.5724,N,01517.2866,E,1,5,1,0, M,0, M,0,*70,37.0762,15.2881,37.0762072085,15.2881106932,2,0.00,,3/18/2013 1:35:38 PM
$GPGGA,123539.678,3704.5720,N,01517.2860,E,1,5,1,0, M,0, M,0,*7E,$GPGGA,123539.678,3704.5724,N,01517.2867,E,1,5,1,0, M,0, M,0,*7D,37.0762,15.2881,37.0762072707,15.2881118063,2,0.00,,3/18/2013 1:35:39 PM
$GPGGA,123540.692,3704.5720,N,01517.2860,E,1,5,1,0, M,0, M,0,*74,$GPGGA,123540.692,3704.5726,N,01517.2867,E,1,5,1,0, M,0, M,0,*75,37.0762,15.2881,37.0762095654,15.2881108741,2,0.00,,3/18/2013 1:35:40 PM
$GPGGA,123541.707,3704.5720,N,01517.2860,E,1,5,1,0, M,0, M,0,*78,$GPGGA,123541.707,3704.5727,N,01517.2865,E,1,5,1,0, M,0, M,0,*7A,37.0762,15.2881,37.0762109968,15.2881083,2,0.00,,3/18/2013 1:35:41 PM
$GPGGA,123542.721,3704.5720,N,01517.2860,E,1,5,1,0, M,0, M,0,*7F,$GPGGA,123542.721,3704.5727,N,01517.2862,E,1,5,1,0, M,0, M,0,*7A,37.0762,15.2881,37.0762112178,15.2881040198,2,0.00,,3/18/2013 1:35:42 PM
$GPGGA,123543.735,3704.5720,N,01517.2860,E,1,5,1,0, M,0, M,0,*7B,$GPGGA,123543.735,3704.5726,N,01517.2861,E,1,5,1,0, M,0, M,0,*7C,37.0762,15.2881,37.0762103287,15.2881023241,2,0.00,,3/18/2013 1:35:43 PM
$GPGGA,123544.749,3704.5720,N,01517.2860,E,1,5,1,0, M,0, M,0,*77,$GPGGA,123544.749,3704.5726,N,01517.2861,E,1,5,1,0, M,0, M,0,*70,37.0762,15.2881,37.0762098111,15.2881015514,2,0.00,,3/18/2013 1:35:44 PM
$GPGGA,123545.763,3704.5720,N,01517.2860,E,1,5,1,0, M,0, M,0,*7E,$GPGGA,123545.763,3704.5725,N,01517.2862,E,1,5,1,0, M,0, M,0,*79,37.0762,15.2881,37.0762076141,15.2881033371,2,0.00,,3/18/2013 1:35:45 PM
$GPGGA,123546.777,3704.5720,N,01517.2860,E,1,5,1,0, M,0, M,0,*78,$GPGGA,123546.777,3704.5725,N,01517.2863,E,1,5,1,0, M,0, M,0,*7E,37.0762,15.2881,37.0762078518,15.2881051581,2,0.00,,3/18/2013 1:35:46 PM
$GPGGA,123547.791,3704.5720,N,01517.2860,E,1,5,1,0, M,0, M,0,*71,$GPGGA,123547.791,3704.5725,N,01517.2863,E,1,5,1,0, M,0, M,0,*77,37.0762,15.2881,37.0762081008,15.2881046737,2,0.00,,3/18/2013 1:35:47 PM
$GPGGA,123548.805,3704.5720,N,01517.2860,E,1,5,1,0, M,0, M,0,*7C,$GPGGA,123548.805,3704.5724,N,01517.2862,E,1,5,1,0, M,0, M,0,*7A,37.0762,15.2881,37.076206901,15.2881039631,2,0.00,,3/18/2013 1:35:48 PM
$GPGGA,123549.819,3704.5720,N,01517.2860,E,1,5,1,0, M,0, M,0,*70,$GPGGA,123549.819,3704.5724,N,01517.2863,E,1,5,1,0, M,0, M,0,*77,37.0762,15.2881,37.0762074703,15.2881054347,2,0.00,,3/18/2013 1:35:49 PM
$GPGGA,123550.833,3704.5720,N,01517.2860,E,1,5,1,0, M,0, M,0,*70,$GPGGA,123550.833,3704.5725,N,01517.2863,E,1,5,1,0, M,0, M,0,*76,37.0762,15.2881,37.0762081885,15.2881051183,2,0.00,,3/18/2013 1:35:50 PM
$GPGGA,123551.847,3704.5720,N,01517.2860,E,1,5,1,0, M,0, M,0,*72,$GPGGA,123551.847,3704.5725,N,01517.2862,E,1,5,1,0, M,0, M,0,*75,37.0762,15.2881,37.0762091212,15.288103909,2,0.00,,3/18/2013 1:35:51 PM
$GPGGA,123552.861,3704.5720,N,01517.2860,E,1,5,1,0, M,0, M,0,*75,$GPGGA,123552.861,3704.5725,N,01517.2863,E,1,5,1,0, M,0, M,0,*73,37.0762,15.2881,37.0762090523,15.2881049843,2,0.00,,3/18/2013 1:35:52 PM
$GPGGA,123553.875,3704.5720,N,01517.2860,E,1,5,1,0, M,0, M,0,*71,$GPGGA,123553.875,3704.5725,N,01517.2864,E,1,5,1,0, M,0, M,0,*70,37.0762,15.2881,37.0762079115,15.2881067167,2,0.00,,3/18/2013 1:35:53 PM
$GPGGA,123554.889,3704.5720,N,01517.2860,E,1,5,1,0, M,0, M,0,*75,$GPGGA,123554.889,3704.5724,N,01517.2864,E,1,5,1,0, M,0, M,0,*75,37.0762,15.2881,37.0762063987,15.2881069068,2,0.00,,3/18/2013 1:35:54 PM
$GPGGA,123555.903,3704.5720,N,01517.2860,E,1,5,1,0, M,0, M,0,*77,$GPGGA,123555.903,3704.5724,N,01517.2864,E,1,5,1,0, M,0, M,0,*77,37.0762,15.2881,37.0762065077,15.288106294,2,0.00,,3/18/2013 1:35:55 PM
$GPGGA,123556.917,3704.5720,N,01517.2860,E,1,5,1,0, M,0, M,0,*71,$GPGGA,123556.917,3704.5725,N,01517.2863,E,1,5,1,0, M,0, M,0,*77,37.0762,15.2881,37.0762082284,15.2881045889,2,0.00,,3/18/2013 1:35:56 PM
$GPGGA,123557.931,3704.5720,N,01517.2860,E,1,5,1,0, M,0, M,0,*74,$GPGGA,123557.931,3704.5726,N,01517.2862,E,1,5,1,0, M,0, M,0,*70,37.0762,15.2881,37.0762097402,15.2881026589,2,0.00,,3/18/2013 1:35:57 PM
$GPGGA,123558.945,3704.5720,N,01517.2860,E,1,5,1,0, M,0, M,0,*78,$GPGGA,123558.945,3704.5726,N,01517.2860,E,1,5,1,0, M,0, M,0,*7E,37.0762,15.2881,37.0762099411,15.2881006889,2,0.00,,3/18/2013 1:35:58 PM
$GPGGA,123559.960,3704.5720,N,01517.2860,E,1,5,1,0, M,0, M,0,*7E,$GPGGA,123559.960,3704.5726,N,01517.2862,E,1,5,1,0, M,0, M,0,*7A,37.0762,15.2881,37.0762099838,15.2881039673,2,0.00,,3/18/2013 1:35:59 PM
$GPGGA,123600.973,3704.5720,N,01517.2860,E,1,5,1,0, M,0, M,0,*73,$GPGGA,123600.973,3704.5726,N,01517.2864,E,1,5,1,0, M,0, M,0,*71,37.0762,15.2881,37.0762095047,15.2881062134,2,0.00,,3/18/2013 1:36:00 PM
$GPGGA,123601.987,3704.5720,N,01517.2860,E,1,5,1,0, M,0, M,0,*79,$GPGGA,123601.987,3704.5725,N,01517.2864,E,1,5,1,0, M,0, M,0,*78,37.0762,15.2881,37.0762089224,15.2881065744,2,0.00,,3/18/2013 1:36:01 PM
$GPGGA,123603.002,3704.5720,N,01517.2860,E,1,5,1,0, M,0, M,0,*7F,$GPGGA,123603.002,3704.5725,N,01517.2864,E,1,5,1,0, M,0, M,0,*7E,37.0762,15.2881,37.0762077232,15.2881071574,2,0.00,,3/18/2013 1:36:03 PM
$GPGGA,123604.015,3704.5720,N,01517.2860,E,1,5,1,0, M,0, M,0,*7E,$GPGGA,123604.015,3704.5724,N,01517.2864,E,1,5,1,0, M,0, M,0,*7E,37.0762,15.2881,37.0762063636,15.288106396,2,0.00,,3/18/2013 1:36:04 PM
$GPGGA,123605.029,3704.5720,N,01517.2860,E,1,5,1,0, M,0, M,0,*70,$GPGGA,123605.029,3704.5723,N,01517.2864,E,1,5,1,0, M,0, M,0,*77,37.0762,15.2881,37.0762049977,15.2881062799,2,0.00,,3/18/2013 1:36:05 PM
$GPGGA,123606.043,3704.5720,N,01517.2860,E,1,5,1,0, M,0, M,0,*7F,$GPGGA,123606.043,3704.5722,N,01517.2864,E,1,5,1,0, M,0, M,0,*79,37.0762,15.2881,37.076203366,15.2881067142,2,0.00,,3/18/2013 1:36:06 PM
$GPGGA,123607.057,3704.5720,N,01517.2860,E,1,5,1,0, M,0, M,0,*7B,$GPGGA,123607.057,3704.5721,N,01517.2864,E,1,5,1,0, M,0, M,0,*7E,37.0762,15.2881,37.0762018314,15.2881058465,2,0.00,,3/18/2013 1:36:07 PM
$GPGGA,123608.071,3704.5720,N,01517.2860,E,1,5,1,0, M,0, M,0,*70,$GPGGA,123608.071,3704.5720,N,01517.2863,E,1,5,1,0, M,0, M,0,*73,37.0762,15.2881,37.0762005274,15.2881050109,2,0.00,,3/18/2013 1:36:08 PM
$GPGGA,123609.085,3704.5720,N,01517.2860,E,1,5,1,0, M,0, M,0,*7A,$GPGGA,123609.085,3704.5719,N,01517.2863,E,1,5,1,0, M,0, M,0,*73,37.0762,15.2881,37.0761991408,15.2881047912,2,0.00,,3/18/2013 1:36:09 PM
$GPGGA,123610.099,3704.5720,N,01517.2860,E,1,5,1,0, M,0, M,0,*7F,$GPGGA,123610.099,3704.5720,N,01517.2864,E,1,5,1,0, M,0, M,0,*7B,37.0762,15.2881,37.0761993015,15.288106639,2,0.00,,3/18/2013 1:36:10 PM
$GPGGA,123611.113,3704.5720,N,01517.2860,E,1,5,1,0, M,0, M,0,*7D,$GPGGA,123611.113,3704.5720,N,01517.2864,E,1,5,1,0, M,0, M,0,*79,37.0762,15.2881,37.0762002728,15.2881069172,2,0.00,,3/18/2013 1:36:11 PM
$GPGGA,123612.127,3704.5720,N,01517.2860,E,1,5,1,0, M,0, M,0,*79,$GPGGA,123612.127,3704.5721,N,01517.2864,E,1,5,1,0, M,0, M,0,*7C,37.0762,15.2881,37.0762014394,15.288106563,2,0.00,,3/18/2013 1:36:12 PM
$GPGGA,123613.141,3704.5720,N,01517.2860,E,1,5,1,0, M,0, M,0,*78,$GPGGA,123613.141,3704.5721,N,01517.2864,E,1,5,1,0, M,0, M,0,*7D,37.0762,15.2881,37.0762024003,15.288106102,2,0.00,,3/18/2013 1:36:13 PM
$GPGGA,123614.155,3704.5720,N,01517.2860,E,1,5,1,0, M,0, M,0,*7A,$GPGGA,123614.155,3704.5721,N,01517.2864,E,1,5,1,0, M,0, M,0,*7F,37.0762,15.2881,37.0762021827,15.2881059861,2,0.00,,3/18/2013 1:36:14 PM
$GPGGA,123615.169,3704.5720,N,01517.2860,E,1,5,1,0, M,0, M,0,*74,$GPGGA,123615.169,3704.5721,N,01517.2864,E,1,5,1,0, M,0, M,0,*71,37.0762,15.2881,37.0762022098,15.2881062672,2,0.00,,3/18/2013 1:36:15 PM
$GPGGA,123616.183,3704.5720,N,01517.2860,E,1,5,1,0, M,0, M,0,*73,$GPGGA,123616.183,3704.5721,N,01517.2864,E,1,5,1,0, M,0, M,0,*76,37.0762,15.2881,37.0762022771,15.288106557,2,0.00,,3/18/2013 1:36:16 PM
$GPGGA,123617.198,3704.5720,N,01517.2860,E,1,5,1,0, M,0, M,0,*78,$GPGGA,123617.198,3704.5722,N,01517.2864,E,1,5,1,0, M,0, M,0,*7E,37.0762,15.2881,37.076202998,15.2881074714,2,0.00,,3/18/2013 1:36:17 PM
$GPGGA,123618.212,3704.5720,N,01517.2860,E,1,5,1,0, M,0, M,0,*76,$GPGGA,123618.212,3704.5722,N,01517.2865,E,1,5,1,0, M,0, M,0,*71,37.0762,15.2881,37.0762036164,15.2881079506,2,0.00,,3/18/2013 1:36:18 PM
$GPGGA,123619.226,3704.5720,N,01517.2860,E,1,5,1,0, M,0, M,0,*70,$GPGGA,123619.226,3704.5723,N,01517.2865,E,1,5,1,0, M,0, M,0,*76,37.0762,15.2881,37.0762042325,15.2881079654,2,0.00,,3/18/2013 1:36:19 PM
$GPGGA,123620.240,3704.5720,N,01517.2860,E,1,5,1,0, M,0, M,0,*7A,$GPGGA,123620.240,3704.5720,N,01517.2865,E,1,5,1,0, M,0, M,0,*7F,37.0762,15.2881,37.0762001567,15.2881079022,2,0.00,,3/18/2013 1:36:20 PM
$GPGGA,123621.254,3704.5720,N,01517.2860,E,1,5,1,0, M,0, M,0,*7E,$GPGGA,123621.254,3704.5719,N,01517.2864,E,1,5,1,0, M,0, M,0,*70,37.0762,15.2881,37.0761978995,15.2881064335,2,0.00,,3/18/2013 1:36:21 PM
$GPGGA,123622.267,3704.5720,N,01517.2860,E,1,5,1,0, M,0, M,0,*7D,$GPGGA,123622.267,3704.5718,N,01517.2859,E,1,5,1,0, M,0, M,0,*7C,37.0762,15.2881,37.0761963647,15.2880980815,2,0.00,,3/18/2013 1:36:22 PM
$GPGGA,123623.282,3704.5720,N,01517.2860,E,1,5,1,0, M,0, M,0,*77,$GPGGA,123623.282,3704.5717,N,01517.2858,E,1,5,1,0, M,0, M,0,*78,37.0762,15.2881,37.0761949212,15.2880965,2,0.00,,3/18/2013 1:36:23 PM
$GPGGA,123624.296,3704.5720,N,01517.2860,E,1,5,1,0, M,0, M,0,*75,$GPGGA,123624.296,3704.5717,N,01517.2858,E,1,5,1,0, M,0, M,0,*7A,37.0762,15.2881,37.0761945332,15.2880974786,2,0.00,,3/18/2013 1:36:24 PM
$GPGGA,123625.309,3704.5720,N,01517.2860,E,1,5,1,0, M,0, M,0,*73,$GPGGA,123625.309,3704.5716,N,01517.2859,E,1,5,1,0, M,0, M,0,*7C,37.0762,15.2881,37.0761940505,15.2880983105,2,0.00,,3/18/2013 1:36:25 PM
$GPGGA,123626.323,3704.5720,N,01517.2860,E,1,5,1,0, M,0, M,0,*78,$GPGGA,123626.323,3704.5716,N,01517.2859,E,1,5,1,0, M,0, M,0,*77,37.0762,15.2881,37.0761935236,15.2880988179,2,0.00,,3/18/2013 1:36:26 PM
$GPGGA,123627.337,3704.5720,N,01517.2860,E,1,5,1,0, M,0, M,0,*7C,$GPGGA,123627.337,3704.5715,N,01517.2862,E,1,5,1,0, M,0, M,0,*78,37.0762,15.2881,37.0761922023,15.2881039284,2,0.00,,3/18/2013 1:36:27 PM
$GPGGA,123628.351,3704.5720,N,01517.2860,E,1,5,1,0, M,0, M,0,*73,$GPGGA,123628.351,3704.5716,N,01517.2864,E,1,5,1,0, M,0, M,0,*72,37.0762,15.2881,37.0761928,15.2881066537,2,0.00,,3/18/2013 1:36:28 PM
$GPGGA,123629.365,3704.5720,N,01517.2860,E,1,5,1,0, M,0, M,0,*75,$GPGGA,123629.365,3704.5716,N,01517.2863,E,1,5,1,0, M,0, M,0,*73,37.0762,15.2881,37.076192545,15.2881044012,2,0.00,,3/18/2013 1:36:29 PM
$GPGGA,123630.379,3704.5720,N,01517.2860,E,1,5,1,0, M,0, M,0,*70,$GPGGA,123630.379,3704.5715,N,01517.2861,E,1,5,1,0, M,0, M,0,*77,37.0762,15.2881,37.0761916755,15.2881015738,2,0.00,,3/18/2013 1:36:30 PM
$GPGGA,123631.393,3704.5720,N,01517.2860,E,1,5,1,0, M,0, M,0,*75,$GPGGA,123631.393,3704.5715,N,01517.2859,E,1,5,1,0, M,0, M,0,*79,37.0762,15.2881,37.0761920719,15.2880990957,2,0.00,,3/18/2013 1:36:31 PM
$GPGGA,123632.407,3704.5720,N,01517.2860,E,1,5,1,0, M,0, M,0,*7C,$GPGGA,123632.407,3704.5716,N,01517.2858,E,1,5,1,0, M,0, M,0,*72,37.0762,15.2881,37.0761933423,15.2880970161,2,0.00,,3/18/2013 1:36:32 PM
$GPGGA,123633.421,3704.5720,N,01517.2860,E,1,5,1,0, M,0, M,0,*79,$GPGGA,123633.421,3704.5717,N,01517.2858,E,1,5,1,0, M,0, M,0,*76,37.0762,15.2881,37.07619475,15.2880960476,2,0.00,,3/18/2013 1:36:33 PM
$GPGGA,123634.436,3704.5720,N,01517.2860,E,1,5,1,0, M,0, M,0,*78,$GPGGA,123634.436,3704.5717,N,01517.2859,E,1,5,1,0, M,0, M,0,*76,37.0762,15.2881,37.0761952434,15.2880987185,2,0.00,,3/18/2013 1:36:34 PM
$GPGGA,123635.451,3704.5720,N,01517.2860,E,1,5,1,0, M,0, M,0,*78,$GPGGA,123635.451,3704.5717,N,01517.2859,E,1,5,1,0, M,0, M,0,*76,37.0762,15.2881,37.0761952786,15.288097881,2,0.00,,3/18/2013 1:36:35 PM
$GPGGA,123636.463,3704.5720,N,01517.2860,E,1,5,1,0, M,0, M,0,*7A,$GPGGA,123636.463,3704.5718,N,01517.2857,E,1,5,1,0, M,0, M,0,*75,37.0762,15.2881,37.0761967189,15.2880943486,2,0.00,,3/18/2013 1:36:36 PM
$GPGGA,123637.477,3704.5720,N,01517.2860,E,1,5,1,0, M,0, M,0,*7E,$GPGGA,123637.477,3704.5718,N,01517.2855,E,1,5,1,0, M,0, M,0,*73,37.0762,15.2881,37.0761958498,15.2880918996,2,0.00,,3/18/2013 1:36:37 PM
$GPGGA,123638.492,3704.5720,N,01517.2860,E,1,5,1,0, M,0, M,0,*7A,$GPGGA,123638.492,3704.5718,N,01517.2856,E,1,5,1,0, M,0, M,0,*74,37.0762,15.2881,37.076196001,15.2880937129,2,0.00,,3/18/2013 1:36:38 PM
$GPGGA,123639.506,3704.5720,N,01517.2860,E,1,5,1,0, M,0, M,0,*77,$GPGGA,123639.506,3704.5718,N,01517.2857,E,1,5,1,0, M,0, M,0,*78,37.0762,15.2881,37.0761966919,15.2880947033,2,0.00,,3/18/2013 1:36:39 PM
$GPGGA,123640.519,3704.5720,N,01517.2860,E,1,5,1,0, M,0, M,0,*77,$GPGGA,123640.519,3704.5718,N,01517.2858,E,1,5,1,0, M,0, M,0,*77,37.0762,15.2881,37.0761971625,15.288096137,2,0.00,,3/18/2013 1:36:40 PM
$GPGGA,123641.533,3704.5720,N,01517.2860,E,1,5,1,0, M,0, M,0,*7E,$GPGGA,123641.533,3704.5719,N,01517.2857,E,1,5,1,0, M,0, M,0,*70,37.0762,15.2881,37.0761985594,15.2880946449,2,0.00,,3/18/2013 1:36:41 PM
$GPGGA,123642.547,3704.5720,N,01517.2860,E,1,5,1,0, M,0, M,0,*7E,$GPGGA,123642.547,3704.5719,N,01517.2856,E,1,5,1,0, M,0, M,0,*71,37.0762,15.2881,37.0761978175,15.2880932179,2,0.00,,3/18/2013 1:36:42 PM
$GPGGA,123643.561,3704.5720,N,01517.2860,E,1,5,1,0, M,0, M,0,*7B,$GPGGA,123643.561,3704.5719,N,01517.2856,E,1,5,1,0, M,0, M,0,*74,37.0762,15.2881,37.0761978338,15.2880927606,2,0.00,,3/18/2013 1:36:43 PM
$GPGGA,123644.576,3704.5720,N,01517.2860,E,1,5,1,0, M,0, M,0,*7A,$GPGGA,123644.576,3704.5719,N,01517.2856,E,1,5,1,0, M,0, M,0,*75,37.0762,15.2881,37.0761981666,15.2880930151,2,0.00,,3/18/2013 1:36:44 PM
$GPGGA,123645.589,3704.5720,N,01517.2860,E,1,5,1,0, M,0, M,0,*7B,$GPGGA,123645.589,3704.5719,N,01517.2856,E,1,5,1,0, M,0, M,0,*74,37.0762,15.2881,37.0761984073,15.2880932465,2,0.00,,3/18/2013 1:36:45 PM
$GPGGA,123646.603,3704.5720,N,01517.2860,E,1,5,1,0, M,0, M,0,*79,$GPGGA,123646.603,3704.5720,N,01517.2856,E,1,5,1,0, M,0, M,0,*7C,37.0762,15.2881,37.0762006133,15.2880934654,2,0.00,,3/18/2013 1:36:46 PM
$GPGGA,123647.617,3704.5720,N,01517.2860,E,1,5,1,0, M,0, M,0,*7D,$GPGGA,123647.617,3704.5723,N,01517.2856,E,1,5,1,0, M,0, M,0,*7B,37.0762,15.2881,37.0762048602,15.2880939626,2,0.00,,3/18/2013 1:36:47 PM
$GPGGA,123648.631,3704.5720,N,01517.2860,E,1,5,1,0, M,0, M,0,*76,$GPGGA,123648.631,3704.5724,N,01517.2857,E,1,5,1,0, M,0, M,0,*76,37.0762,15.2881,37.0762060235,15.2880945207,2,0.00,,3/18/2013 1:36:48 PM
$GPGGA,123649.645,3704.5720,N,01517.2860,E,1,5,1,0, M,0, M,0,*74,$GPGGA,123649.645,3704.5724,N,01517.2856,E,1,5,1,0, M,0, M,0,*75,37.0762,15.2881,37.0762060683,15.2880939984,2,0.00,,3/18/2013 1:36:49 PM
$GPGGA,123650.659,3704.5720,N,01517.2860,E,1,5,1,0, M,0, M,0,*71,$GPGGA,123650.659,3704.5724,N,01517.2856,E,1,5,1,0, M,0, M,0,*70,37.0762,15.2881,37.0762066009,15.2880941605,2,0.00,,3/18/2013 1:36:50 PM
$GPGGA,123651.675,3704.5720,N,01517.2860,E,1,5,1,0, M,0, M,0,*7E,$GPGGA,123651.675,3704.5724,N,01517.2858,E,1,5,1,0, M,0, M,0,*71,37.0762,15.2881,37.0762067659,15.2880967481,2,0.00,,3/18/2013 1:36:51 PM
$GPGGA,123652.689,3704.5720,N,01517.2860,E,1,5,1,0, M,0, M,0,*7E,$GPGGA,123652.689,3704.5723,N,01517.2860,E,1,5,1,0, M,0, M,0,*7D,37.0762,15.2881,37.0762055325,15.2881007168,2,0.00,,3/18/2013 1:36:52 PM
$GPGGA,123653.702,3704.5720,N,01517.2860,E,1,5,1,0, M,0, M,0,*7D,$GPGGA,123653.702,3704.5722,N,01517.2863,E,1,5,1,0, M,0, M,0,*7C,37.0762,15.2881,37.0762033119,15.2881055667,2,0.00,,3/18/2013 1:36:53 PM
$GPGGA,123654.716,3704.5720,N,01517.2860,E,1,5,1,0, M,0, M,0,*7F,$GPGGA,123654.716,3704.5720,N,01517.2865,E,1,5,1,0, M,0, M,0,*7A,37.0762,15.2881,37.0762002977,15.2881083819,2,0.00,,3/18/2013 1:36:54 PM
$GPGGA,123655.729,3704.5720,N,01517.2860,E,1,5,1,0, M,0, M,0,*72,$GPGGA,123655.729,3704.5719,N,01517.2865,E,1,5,1,0, M,0, M,0,*7D,37.0762,15.2881,37.0761991379,15.2881089464,2,0.00,,3/18/2013 1:36:55 PM
$GPGGA,123656.743,3704.5720,N,01517.2860,E,1,5,1,0, M,0, M,0,*7D,$GPGGA,123656.743,3704.5719,N,01517.2865,E,1,5,1,0, M,0, M,0,*72,37.0762,15.2881,37.076198137,15.2881082265,2,0.00,,3/18/2013 1:36:56 PM
$GPGGA,123657.757,3704.5720,N,01517.2860,E,1,5,1,0, M,0, M,0,*79,$GPGGA,123657.757,3704.5718,N,01517.2864,E,1,5,1,0, M,0, M,0,*76,37.0762,15.2881,37.0761966839,15.2881062166,2,0.00,,3/18/2013 1:36:57 PM
$GPGGA,123658.771,3704.5720,N,01517.2860,E,1,5,1,0, M,0, M,0,*72,$GPGGA,123658.771,3704.5718,N,01517.2864,E,1,5,1,0, M,0, M,0,*7D,37.0762,15.2881,37.0761969796,15.2881063167,2,0.00,,3/18/2013 1:36:58 PM
$GPGGA,123659.785,3704.5720,N,01517.2860,E,1,5,1,0, M,0, M,0,*78,$GPGGA,123659.785,3704.5719,N,01517.2864,E,1,5,1,0, M,0, M,0,*76,37.0762,15.2881,37.0761987825,15.2881072503,2,0.00,,3/18/2013 1:36:59 PM
$GPGGA,123700.799,3704.5720,N,01517.2860,E,1,5,1,0, M,0, M,0,*78,$GPGGA,123700.799,3704.5720,N,01517.2865,E,1,5,1,0, M,0, M,0,*7D,37.0762,15.2881,37.0762003012,15.2881075825,2,0.00,,3/18/2013 1:37:00 PM
$GPGGA,123701.813,3704.5720,N,01517.2860,E,1,5,1,0, M,0, M,0,*74,$GPGGA,123701.813,3704.5720,N,01517.2865,E,1,5,1,0, M,0, M,0,*71,37.0762,15.2881,37.0762006927,15.2881080927,2,0.00,,3/18/2013 1:37:01 PM
$GPGGA,123702.827,3704.5720,N,01517.2860,E,1,5,1,0, M,0, M,0,*70,$GPGGA,123702.827,3704.5721,N,01517.2865,E,1,5,1,0, M,0, M,0,*74,37.0762,15.2881,37.0762009433,15.2881078814,2,0.00,,3/18/2013 1:37:02 PM
$GPGGA,123703.841,3704.5720,N,01517.2860,E,1,5,1,0, M,0, M,0,*71,$GPGGA,123703.841,3704.5720,N,01517.2865,E,1,5,1,0, M,0, M,0,*74,37.0762,15.2881,37.0762008113,15.2881078643,2,0.00,,3/18/2013 1:37:03 PM
$GPGGA,123704.855,3704.5720,N,01517.2860,E,1,5,1,0, M,0, M,0,*73,$GPGGA,123704.855,3704.5720,N,01517.2864,E,1,5,1,0, M,0, M,0,*77,37.0762,15.2881,37.0762004127,15.288107389,2,0.00,,3/18/2013 1:37:04 PM
$GPGGA,123705.869,3704.5720,N,01517.2860,E,1,5,1,0, M,0, M,0,*7D,$GPGGA,123705.869,3704.5720,N,01517.2865,E,1,5,1,0, M,0, M,0,*78,37.0762,15.2881,37.076200427,15.2881075116,2,0.00,,3/18/2013 1:37:05 PM
$GPGGA,123706.883,3704.5720,N,01517.2860,E,1,5,1,0, M,0, M,0,*7A,$GPGGA,123706.883,3704.5720,N,01517.2865,E,1,5,1,0, M,0, M,0,*7F,37.0762,15.2881,37.0762004277,15.2881075857,2,0.00,,3/18/2013 1:37:06 PM
