GPGGA Base Position,,,,,,,,,,,,,,,GPGGA End Position,,,,,,,,,,,,,,,Base Latitude,Base Longitude,End Latitude,End Longitude,Node Count, Extra Tether Length,Node Address,X,Y,Z,Unscaled Pressure,Depth,Node Address,X,Y,Z,Unscaled Pressure,Depth,,Time
$GPGGA,152820.385,3554.7404,N,01430.4232,E,1,5,1,0, M,0, M,0,*75,$GPGGA,152820.389,3554.7404,N,01430.4232,E,1,5,1,1.682496, M,0, M,0,*51,35.9123398825398,14.5070534969357,35.9123398825,14.5070534969,1,0.00,,3/28/2013 4:28:20 PM
$GPGGA,152821.399,3554.7404,N,01430.4232,E,1,5,1,0, M,0, M,0,*79,$GPGGA,152821.399,3554.7404,N,01430.4232,E,1,5,1,1.682496, M,0, M,0,*51,35.9123398825398,14.5070534969357,35.9123398825,14.5070534969,1,0.00,,3/28/2013 4:28:21 PM
$GPGGA,152822.413,3554.7404,N,01430.4232,E,1,5,1,0, M,0, M,0,*7F,$GPGGA,152822.413,3554.7404,N,01430.4232,E,1,5,1,1.68583428571428, M,0, M,0,*53,35.9123398825398,14.5070534969357,35.9123398825,14.5070534969,1,0.00,,3/28/2013 4:28:22 PM
$GPGGA,152823.427,3554.7404,N,01430.4232,E,1,5,1,0, M,0, M,0,*79,$GPGGA,152823.427,3554.7404,N,01430.4232,E,1,5,1,1.682496, M,0, M,0,*51,35.9123398825398,14.5070534969357,35.9123398825,14.5070534969,1,0.00,,3/28/2013 4:28:23 PM
$GPGGA,152824.441,3554.7404,N,01430.4232,E,1,5,1,0, M,0, M,0,*7E,$GPGGA,152824.441,3554.7404,N,01430.4232,E,1,5,1,1.682496, M,0, M,0,*56,35.9123398825398,14.5070534969357,35.9123398825,14.5070534969,1,0.00,,3/28/2013 4:28:24 PM
$GPGGA,152825.455,3554.7404,N,01430.4232,E,1,5,1,0, M,0, M,0,*7A,$GPGGA,152825.455,3554.7404,N,01430.4232,E,1,5,1,1.682496, M,0, M,0,*52,35.9123398825398,14.5070534969357,35.9123398825,14.5070534969,1,0.00,,3/28/2013 4:28:25 PM
$GPGGA,152826.470,3554.7404,N,01430.4232,E,1,5,1,0, M,0, M,0,*7E,$GPGGA,152826.470,3554.7404,N,01430.4232,E,1,5,1,1.682496, M,0, M,0,*56,35.9123398825398,14.5070534969357,35.9123398825,14.5070534969,1,0.00,,3/28/2013 4:28:26 PM
$GPGGA,152827.484,3554.7404,N,01430.4232,E,1,5,1,0, M,0, M,0,*74,$GPGGA,152827.484,3554.7404,N,01430.4232,E,1,5,1,1.682496, M,0, M,0,*5C,35.9123398825398,14.5070534969357,35.9123398825,14.5070534969,1,0.00,,3/28/2013 4:28:27 PM
$GPGGA,152828.498,3554.7404,N,01430.4232,E,1,5,1,0, M,0, M,0,*76,$GPGGA,152828.498,3554.7404,N,01430.4232,E,1,5,1,1.682496, M,0, M,0,*5E,35.9123398825398,14.5070534969357,35.9123398825,14.5070534969,1,0.00,,3/28/2013 4:28:28 PM
$GPGGA,152829.512,3554.7404,N,01430.4232,E,1,5,1,0, M,0, M,0,*74,$GPGGA,152829.512,3554.7404,N,01430.4232,E,1,5,1,1.68588812903226, M,0, M,0,*57,35.9123398825398,14.5070534969357,35.9123398825,14.5070534969,1,0.00,,3/28/2013 4:28:29 PM
$GPGGA,152830.526,3554.7404,N,01430.4232,E,1,5,1,0, M,0, M,0,*7B,$GPGGA,152830.526,3554.7404,N,01430.4232,E,1,5,1,1.682496, M,0, M,0,*53,35.9123398825398,14.5070534969357,35.9123398825,14.5070534969,1,0.00,,3/28/2013 4:28:30 PM
$GPGGA,152831.540,3554.7404,N,01430.4232,E,1,5,1,0, M,0, M,0,*7A,$GPGGA,152831.540,3554.7404,N,01430.4232,E,1,5,1,1.6417904516129, M,0, M,0,*64,35.9123398825398,14.5070534969357,35.9123398825,14.5070534969,1,0.00,,3/28/2013 4:28:31 PM
$GPGGA,152832.554,3554.7404,N,01430.4232,E,1,5,1,0, M,0, M,0,*7C,$GPGGA,152832.554,3554.7404,N,01430.4232,E,1,5,1,1.49415689552239, M,0, M,0,*53,35.9123398825398,14.5070534969357,35.9123398825,14.5070534969,1,0.00,,3/28/2013 4:28:32 PM
$GPGGA,152833.568,3554.7404,N,01430.4232,E,1,5,1,0, M,0, M,0,*72,$GPGGA,152833.568,3554.7404,N,01430.4232,E,1,5,1,1.472184, M,0, M,0,*51,35.9123398825398,14.5070534969357,35.9123398825,14.5070534969,1,0.00,,3/28/2013 4:28:33 PM
$GPGGA,152834.581,3554.7404,N,01430.4232,E,1,5,1,0, M,0, M,0,*72,$GPGGA,152834.581,3554.7404,N,01430.4232,E,1,5,1,1.38538857142857, M,0, M,0,*5F,35.9123398825398,14.5070534969357,35.9123398825,14.5070534969,1,0.00,,3/28/2013 4:28:34 PM
$GPGGA,152835.595,3554.7404,N,01430.4232,E,1,5,1,0, M,0, M,0,*76,$GPGGA,152835.595,3554.7404,N,01430.4232,E,1,5,1,1.28524, M,0, M,0,*60,35.9123398825398,14.5070534969357,35.9123398825,14.5070534969,1,0.00,,3/28/2013 4:28:35 PM
$GPGGA,152836.609,3554.7404,N,01430.4232,E,1,5,1,0, M,0, M,0,*73,$GPGGA,152836.609,3554.7408,N,01430.4237,E,1,5,1,1.252728, M,0, M,0,*5D,35.9123398825398,14.5070534969357,35.9123460482,14.5070614613,2,0.00,,3/28/2013 4:28:36 PM
$GPGGA,152837.623,3554.7404,N,01430.4232,E,1,5,1,0, M,0, M,0,*7A,$GPGGA,152837.623,3554.7408,N,01430.4237,E,1,5,1,1.16328825, M,0, M,0,*5D,35.9123398825398,14.5070534969357,35.912347449,14.5070619192,2,0.00,,3/28/2013 4:28:37 PM
$GPGGA,152838.637,3554.7404,N,01430.4232,E,1,5,1,0, M,0, M,0,*70,$GPGGA,152838.637,3554.7410,N,01430.4234,E,1,5,1,1.235583, M,0, M,0,*56,35.9123398825398,14.5070534969357,35.9123491902,14.5070567198,2,0.00,,3/28/2013 4:28:38 PM
$GPGGA,152839.651,3554.7404,N,01430.4232,E,1,5,1,0, M,0, M,0,*71,$GPGGA,152839.651,3554.7410,N,01430.4233,E,1,5,1,1.24215525, M,0, M,0,*58,35.9123398825398,14.5070534969357,35.9123508208,14.5070542726,2,0.00,,3/28/2013 4:28:39 PM
$GPGGA,152840.665,3554.7404,N,01430.4232,E,1,5,1,0, M,0, M,0,*78,$GPGGA,152840.665,3554.7411,N,01430.4231,E,1,5,1,1.261872, M,0, M,0,*58,35.9123398825398,14.5070534969357,35.9123520751,14.5070509914,2,0.00,,3/28/2013 4:28:40 PM
$GPGGA,152841.679,3554.7404,N,01430.4232,E,1,5,1,0, M,0, M,0,*74,$GPGGA,152841.679,3554.7411,N,01430.4231,E,1,5,1,1.261872, M,0, M,0,*54,35.9123398825398,14.5070534969357,35.9123524471,14.5070511016,2,0.00,,3/28/2013 4:28:41 PM
$GPGGA,152842.693,3554.7404,N,01430.4232,E,1,5,1,0, M,0, M,0,*73,$GPGGA,152842.693,3554.7411,N,01430.4230,E,1,5,1,1.261872, M,0, M,0,*52,35.9123398825398,14.5070534969357,35.9123523923,14.5070499179,2,0.00,,3/28/2013 4:28:42 PM
$GPGGA,152843.708,3554.7404,N,01430.4232,E,1,5,1,0, M,0, M,0,*71,$GPGGA,152843.708,3554.7411,N,01430.4230,E,1,5,1,1.261872, M,0, M,0,*50,35.9123398825398,14.5070534969357,35.9123524634,14.5070492866,2,0.00,,3/28/2013 4:28:43 PM
$GPGGA,152844.722,3554.7404,N,01430.4232,E,1,5,1,0, M,0, M,0,*7E,$GPGGA,152844.722,3554.7411,N,01430.4230,E,1,5,1,1.24830348387097, M,0, M,0,*57,35.9123398825398,14.5070534969357,35.9123522294,14.5070503372,2,0.00,,3/28/2013 4:28:44 PM
$GPGGA,152845.736,3554.7404,N,01430.4232,E,1,5,1,0, M,0, M,0,*7A,$GPGGA,152845.736,3554.7411,N,01430.4230,E,1,5,1,1.0647045, M,0, M,0,*67,35.9123398825398,14.5070534969357,35.9123524523,14.5070503869,2,0.00,,3/28/2013 4:28:45 PM
$GPGGA,152846.750,3554.7404,N,01430.4232,E,1,5,1,0, M,0, M,0,*79,$GPGGA,152846.750,3554.7411,N,01430.4229,E,1,5,1,0.867536999999999, M,0, M,0,*69,35.9123398825398,14.5070534969357,35.9123517732,14.5070484892,2,0.00,,3/28/2013 4:28:46 PM
$GPGGA,152847.764,3554.7404,N,01430.4232,E,1,5,1,0, M,0, M,0,*7F,$GPGGA,152847.764,3554.7411,N,01430.4230,E,1,5,1,0.688293818181818, M,0, M,0,*61,35.9123398825398,14.5070534969357,35.9123520804,14.5070498602,2,0.00,,3/28/2013 4:28:47 PM
$GPGGA,152848.778,3554.7404,N,01430.4232,E,1,5,1,0, M,0, M,0,*7D,$GPGGA,152848.778,3554.7411,N,01430.4230,E,1,5,1,0.525779999999999, M,0, M,0,*67,35.9123398825398,14.5070534969357,35.9123518555,14.5070498442,2,0.00,,3/28/2013 4:28:48 PM
$GPGGA,152849.792,3554.7404,N,01430.4232,E,1,5,1,0, M,0, M,0,*78,$GPGGA,152849.792,3554.7410,N,01430.4227,E,1,5,1,0.217096258064516, M,0, M,0,*63,35.9123398825398,14.5070534969357,35.9123504041,14.5070456485,2,0.00,,3/28/2013 4:28:49 PM
$GPGGA,152850.806,3554.7404,N,01430.4232,E,1,5,1,0, M,0, M,0,*72,$GPGGA,152850.806,3554.7410,N,01430.4227,E,1,5,1,0.197167499999999, M,0, M,0,*66,35.9123398825398,14.5070534969357,35.9123500286,14.5070443108,2,0.00,,3/28/2013 4:28:50 PM
$GPGGA,152851.820,3554.7404,N,01430.4232,E,1,5,1,0, M,0, M,0,*77,$GPGGA,152851.820,3554.7410,N,01430.4226,E,1,5,1,0.197167499999999, M,0, M,0,*62,35.9123398825398,14.5070534969357,35.9123497337,14.507043359,2,0.00,,3/28/2013 4:28:51 PM
$GPGGA,152852.834,3554.7404,N,01430.4232,E,1,5,1,0, M,0, M,0,*71,$GPGGA,152852.834,3554.7410,N,01430.4226,E,1,5,1,-0.0854392500000003, M,0, M,0,*75,35.9123398825398,14.5070534969357,35.9123499826,14.5070441665,2,0.00,,3/28/2013 4:28:52 PM
$GPGGA,152853.848,3554.7404,N,01430.4232,E,1,5,1,0, M,0, M,0,*7B,$GPGGA,152853.848,3554.7409,N,01430.4226,E,1,5,1,-0.295751250000001, M,0, M,0,*4B,35.9123398825398,14.5070534969357,35.9123487148,14.5070428024,2,0.00,,3/28/2013 4:28:53 PM
$GPGGA,152854.861,3554.7404,N,01430.4232,E,1,5,1,0, M,0, M,0,*77,$GPGGA,152854.861,3554.7410,N,01430.4228,E,1,5,1,-0.499491000000001, M,0, M,0,*43,35.9123398825398,14.5070534969357,35.9123503529,14.507046161,2,0.00,,3/28/2013 4:28:54 PM
$GPGGA,152855.875,3554.7404,N,01430.4232,E,1,5,1,0, M,0, M,0,*73,$GPGGA,152855.875,3554.7410,N,01430.4228,E,1,5,1,-0.801814500000001, M,0, M,0,*4E,35.9123398825398,14.5070534969357,35.9123500457,14.5070466786,2,0.00,,3/28/2013 4:28:55 PM
$GPGGA,152856.890,3554.7404,N,01430.4232,E,1,5,1,0, M,0, M,0,*7B,$GPGGA,152856.890,3554.7411,N,01430.4231,E,1,5,1,-0.841248000000001, M,0, M,0,*4D,35.9123398825398,14.5070534969357,35.9123514356,14.5070521119,2,0.00,,3/28/2013 4:28:56 PM
$GPGGA,152857.904,3554.7404,N,01430.4232,E,1,5,1,0, M,0, M,0,*76,$GPGGA,152857.904,3554.7410,N,01430.4234,E,1,5,1,-0.83467575, M,0, M,0,*7F,35.9123398825398,14.5070534969357,35.9123501161,14.5070566327,2,0.00,,3/28/2013 4:28:57 PM
$GPGGA,152858.918,3554.7404,N,01430.4232,E,1,5,1,0, M,0, M,0,*74,$GPGGA,152858.918,3554.7411,N,01430.4233,E,1,5,1,-0.9595485, M,0, M,0,*4B,35.9123398825398,14.5070534969357,35.912350919,14.5070542898,2,0.00,,3/28/2013 4:28:58 PM
$GPGGA,152859.932,3554.7404,N,01430.4232,E,1,5,1,0, M,0, M,0,*7D,$GPGGA,152859.932,3554.7411,N,01430.4232,E,1,5,1,-0.926687250000001, M,0, M,0,*48,35.9123398825398,14.5070534969357,35.9123513185,14.5070526058,2,0.00,,3/28/2013 4:28:59 PM
$GPGGA,152900.947,3554.7404,N,01430.4232,E,1,5,1,0, M,0, M,0,*72,$GPGGA,152900.947,3554.7411,N,01430.4231,E,1,5,1,-1.00407019354839, M,0, M,0,*7C,35.9123398825398,14.5070534969357,35.9123515454,14.5070515572,2,0.00,,3/28/2013 4:29:00 PM
$GPGGA,152901.961,3554.7404,N,01430.4232,E,1,5,1,0, M,0, M,0,*77,$GPGGA,152901.961,3554.7411,N,01430.4229,E,1,5,1,-1.01763870967742, M,0, M,0,*7E,35.9123398825398,14.5070534969357,35.9123513747,14.5070491435,2,0.00,,3/28/2013 4:29:01 PM
$GPGGA,152902.975,3554.7404,N,01430.4232,E,1,5,1,0, M,0, M,0,*71,$GPGGA,152902.975,3554.7411,N,01430.4230,E,1,5,1,-0.841248000000001, M,0, M,0,*46,35.9123398825398,14.5070534969357,35.9123515031,14.5070500442,2,0.00,,3/28/2013 4:29:02 PM
$GPGGA,152903.989,3554.7404,N,01430.4232,E,1,5,1,0, M,0, M,0,*73,$GPGGA,152903.989,3554.7411,N,01430.4231,E,1,5,1,-0.841248000000001, M,0, M,0,*45,35.9123398825398,14.5070534969357,35.9123510835,14.507050976,2,0.00,,3/28/2013 4:29:03 PM
$GPGGA,152905.003,3554.7404,N,01430.4232,E,1,5,1,0, M,0, M,0,*7E,$GPGGA,152905.003,3554.7410,N,01430.4230,E,1,5,1,-0.847820250000001, M,0, M,0,*4D,35.9123398825398,14.5070534969357,35.9123505862,14.5070494826,2,0.00,,3/28/2013 4:29:05 PM
$GPGGA,152906.016,3554.7404,N,01430.4232,E,1,5,1,0, M,0, M,0,*79,$GPGGA,152906.016,3554.7410,N,01430.4232,E,1,5,1,-0.841248000000001, M,0, M,0,*4D,35.9123398825398,14.5070534969357,35.9123506433,14.507052816,2,0.00,,3/28/2013 4:29:06 PM
$GPGGA,152907.030,3554.7404,N,01430.4232,E,1,5,1,0, M,0, M,0,*7C,$GPGGA,152907.030,3554.7412,N,01430.4220,E,1,5,1,-0.8543925, M,0, M,0,*4F,35.9123398825398,14.5070534969357,35.9123530679,14.5070336543,2,3.00,,3/28/2013 4:29:07 PM
$GPGGA,152908.044,3554.7404,N,01430.4232,E,1,5,1,0, M,0, M,0,*70,$GPGGA,152908.044,3554.7411,N,01430.4212,E,1,5,1,-0.887253750000001, M,0, M,0,*45,35.9123398825398,14.5070534969357,35.9123522684,14.5070197567,2,5.00,,3/28/2013 4:29:08 PM
$GPGGA,152909.058,3554.7404,N,01430.4232,E,1,5,1,0, M,0, M,0,*7C,$GPGGA,152909.058,3554.7410,N,01430.4211,E,1,5,1,-1.025271, M,0, M,0,*79,35.9123398825398,14.5070534969357,35.9123498579,14.5070184121,2,5.00,,3/28/2013 4:29:09 PM
$GPGGA,152910.072,3554.7404,N,01430.4232,E,1,5,1,0, M,0, M,0,*7C,$GPGGA,152910.072,3554.7410,N,01430.4213,E,1,5,1,-0.9332595, M,0, M,0,*4B,35.9123398825398,14.5070534969357,35.9123507198,14.5070220051,2,5.00,,3/28/2013 4:29:10 PM
$GPGGA,152911.086,3554.7404,N,01430.4232,E,1,5,1,0, M,0, M,0,*76,$GPGGA,152911.086,3554.7414,N,01430.4219,E,1,5,1,-0.75580875, M,0, M,0,*78,35.9123398825398,14.5070534969357,35.9123566362,14.5070314224,2,5.00,,3/28/2013 4:29:11 PM
$GPGGA,152912.100,3554.7404,N,01430.4232,E,1,5,1,0, M,0, M,0,*7A,$GPGGA,152912.100,3554.7417,N,01430.4228,E,1,5,1,-0.83467575, M,0, M,0,*79,35.9123398825398,14.5070534969357,35.9123616841,14.5070462198,2,5.00,,3/28/2013 4:29:12 PM
$GPGGA,152913.114,3554.7404,N,01430.4232,E,1,5,1,0, M,0, M,0,*7E,$GPGGA,152913.114,3554.7422,N,01430.4224,E,1,5,1,-0.841248000000001, M,0, M,0,*4C,35.9123398825398,14.5070534969357,35.9123701113,14.5070403604,2,5.00,,3/28/2013 4:29:13 PM
$GPGGA,152914.128,3554.7404,N,01430.4232,E,1,5,1,0, M,0, M,0,*76,$GPGGA,152914.128,3554.7424,N,01430.4219,E,1,5,1,-0.736092000000001, M,0, M,0,*46,35.9123398825398,14.5070534969357,35.9123732694,14.5070314039,2,5.00,,3/28/2013 4:29:14 PM
$GPGGA,152915.142,3554.7404,N,01430.4232,E,1,5,1,0, M,0, M,0,*7B,$GPGGA,152915.142,3554.7425,N,01430.4218,E,1,5,1,-0.637508250000001, M,0, M,0,*4A,35.9123398825398,14.5070534969357,35.9123743075,14.507030517,2,5.00,,3/28/2013 4:29:15 PM
$GPGGA,152916.156,3554.7404,N,01430.4232,E,1,5,1,0, M,0, M,0,*7D,$GPGGA,152916.156,3554.7426,N,01430.4219,E,1,5,1,-0.814959000000001, M,0, M,0,*4E,35.9123398825398,14.5070534969357,35.9123771674,14.5070309467,2,5.00,,3/28/2013 4:29:16 PM
$GPGGA,152917.170,3554.7404,N,01430.4232,E,1,5,1,0, M,0, M,0,*78,$GPGGA,152917.170,3554.7422,N,01430.4213,E,1,5,1,-0.630936, M,0, M,0,*75,35.9123398825398,14.5070534969357,35.9123707304,14.5070214305,2,5.00,,3/28/2013 4:29:17 PM
$GPGGA,152918.185,3554.7404,N,01430.4232,E,1,5,1,0, M,0, M,0,*7D,$GPGGA,152918.185,3554.7418,N,01430.4212,E,1,5,1,-0.630936, M,0, M,0,*78,35.9123398825398,14.5070534969357,35.9123641315,14.5070195197,2,5.00,,3/28/2013 4:29:18 PM
$GPGGA,152919.199,3554.7404,N,01430.4232,E,1,5,1,0, M,0, M,0,*71,$GPGGA,152919.199,3554.7416,N,01430.4215,E,1,5,1,-0.630936, M,0, M,0,*7D,35.9123398825398,14.5070534969357,35.912360575,14.5070252136,2,5.00,,3/28/2013 4:29:19 PM
$GPGGA,152920.213,3554.7404,N,01430.4232,E,1,5,1,0, M,0, M,0,*7A,$GPGGA,152920.213,3554.7415,N,01430.4218,E,1,5,1,-0.675547636363637, M,0, M,0,*44,35.9123398825398,14.5070534969357,35.912358431,14.5070299076,2,5.00,,3/28/2013 4:29:20 PM
$GPGGA,152921.227,3554.7404,N,01430.4232,E,1,5,1,0, M,0, M,0,*7C,$GPGGA,152921.227,3554.7412,N,01430.4218,E,1,5,1,-0.841248000000001, M,0, M,0,*42,35.9123398825398,14.5070534969357,35.9123527896,14.5070306424,2,5.00,,3/28/2013 4:29:21 PM
$GPGGA,152922.241,3554.7404,N,01430.4232,E,1,5,1,0, M,0, M,0,*7F,$GPGGA,152922.241,3554.7429,N,01430.4210,E,1,5,1,-0.832835520000001, M,0, M,0,*42,35.9123398825398,14.5070534969357,35.9123815189,14.5070161181,3,0.00,,3/28/2013 4:29:22 PM
$GPGGA,152923.255,3554.7404,N,01430.4232,E,1,5,1,0, M,0, M,0,*7B,$GPGGA,152923.255,3554.7429,N,01430.4206,E,1,5,1,-0.74109942857143, M,0, M,0,*78,35.9123398825398,14.5070534969357,35.9123815328,14.5070102181,3,0.00,,3/28/2013 4:29:23 PM
$GPGGA,152924.269,3554.7404,N,01430.4232,E,1,5,1,0, M,0, M,0,*73,$GPGGA,152924.269,3554.7430,N,01430.4207,E,1,5,1,-0.681010285714287, M,0, M,0,*4F,35.9123398825398,14.5070534969357,35.9123831549,14.5070117351,3,0.00,,3/28/2013 4:29:24 PM
$GPGGA,152925.283,3554.7404,N,01430.4232,E,1,5,1,0, M,0, M,0,*76,$GPGGA,152925.283,3554.7430,N,01430.4206,E,1,5,1,-0.831688363636364, M,0, M,0,*4D,35.9123398825398,14.5070534969357,35.9123830153,14.507010692,3,0.00,,3/28/2013 4:29:25 PM
$GPGGA,152926.296,3554.7404,N,01430.4232,E,1,5,1,0, M,0, M,0,*71,$GPGGA,152926.296,3554.7431,N,01430.4211,E,1,5,1,-0.721069714285716, M,0, M,0,*43,35.9123398825398,14.5070534969357,35.9123856143,14.507018872,3,0.00,,3/28/2013 4:29:26 PM
$GPGGA,152927.310,3554.7404,N,01430.4232,E,1,5,1,0, M,0, M,0,*7F,$GPGGA,152927.310,3554.7431,N,01430.4210,E,1,5,1,-0.791173714285715, M,0, M,0,*4E,35.9123398825398,14.5070534969357,35.912385238,14.5070170597,3,0.00,,3/28/2013 4:29:27 PM
$GPGGA,152928.324,3554.7404,N,01430.4232,E,1,5,1,0, M,0, M,0,*77,$GPGGA,152928.324,3554.7431,N,01430.4211,E,1,5,1,-0.841248000000001, M,0, M,0,*41,35.9123398825398,14.5070534969357,35.9123848803,14.5070185916,3,0.00,,3/28/2013 4:29:28 PM
$GPGGA,152929.338,3554.7404,N,01430.4232,E,1,5,1,0, M,0, M,0,*7B,$GPGGA,152929.338,3554.7432,N,01430.4213,E,1,5,1,-0.771144, M,0, M,0,*7E,35.9123398825398,14.5070534969357,35.9123861743,14.5070215192,3,0.00,,3/28/2013 4:29:29 PM
$GPGGA,152930.352,3554.7404,N,01430.4232,E,1,5,1,0, M,0, M,0,*7F,$GPGGA,152930.352,3554.7430,N,01430.4210,E,1,5,1,-0.841248000000001, M,0, M,0,*49,35.9123398825398,14.5070534969357,35.912383713,14.5070174057,3,0.00,,3/28/2013 4:29:30 PM
$GPGGA,152931.366,3554.7404,N,01430.4232,E,1,5,1,0, M,0, M,0,*79,$GPGGA,152931.366,3554.7432,N,01430.4215,E,1,5,1,-0.831233142857142, M,0, M,0,*48,35.9123398825398,14.5070534969357,35.9123870428,14.5070242769,3,0.00,,3/28/2013 4:29:31 PM
$GPGGA,152932.380,3554.7404,N,01430.4232,E,1,5,1,0, M,0, M,0,*72,$GPGGA,152932.380,3554.7432,N,01430.4214,E,1,5,1,-0.811203428571428, M,0, M,0,*4A,35.9123398825398,14.5070534969357,35.9123860458,14.507023699,3,0.00,,3/28/2013 4:29:32 PM
$GPGGA,152933.394,3554.7404,N,01430.4232,E,1,5,1,0, M,0, M,0,*76,$GPGGA,152933.394,3554.7431,N,01430.4211,E,1,5,1,-0.841248000000001, M,0, M,0,*40,35.9123398825398,14.5070534969357,35.9123850498,14.5070185634,3,0.00,,3/28/2013 4:29:33 PM
$GPGGA,152934.408,3554.7404,N,01430.4232,E,1,5,1,0, M,0, M,0,*73,$GPGGA,152934.408,3554.7431,N,01430.4214,E,1,5,1,-0.841248000000001, M,0, M,0,*40,35.9123398825398,14.5070534969357,35.9123852543,14.5070229665,3,0.00,,3/28/2013 4:29:34 PM
$GPGGA,152935.423,3554.7404,N,01430.4232,E,1,5,1,0, M,0, M,0,*7B,$GPGGA,152935.423,3554.7428,N,01430.4206,E,1,5,1,-0.811203428571428, M,0, M,0,*4B,35.9123398825398,14.5070534969357,35.9123800911,14.5070105618,3,0.00,,3/28/2013 4:29:35 PM
$GPGGA,152936.437,3554.7404,N,01430.4232,E,1,5,1,0, M,0, M,0,*7D,$GPGGA,152936.437,3554.7429,N,01430.4208,E,1,5,1,-0.841248000000001, M,0, M,0,*4A,35.9123398825398,14.5070534969357,35.9123824012,14.507013081,3,0.00,,3/28/2013 4:29:36 PM
$GPGGA,152937.450,3554.7404,N,01430.4232,E,1,5,1,0, M,0, M,0,*7D,$GPGGA,152937.450,3554.7429,N,01430.4208,E,1,5,1,-0.841248000000001, M,0, M,0,*4A,35.9123398825398,14.5070534969357,35.9123820829,14.5070131646,3,0.00,,3/28/2013 4:29:37 PM
$GPGGA,152938.465,3554.7404,N,01430.4232,E,1,5,1,0, M,0, M,0,*74,$GPGGA,152938.465,3554.7431,N,01430.4208,E,1,5,1,-0.691025142857143, M,0, M,0,*4A,35.9123398825398,14.5070534969357,35.9123846474,14.5070130772,3,0.00,,3/28/2013 4:29:38 PM
$GPGGA,152939.479,3554.7404,N,01430.4232,E,1,5,1,0, M,0, M,0,*78,$GPGGA,152939.479,3554.7431,N,01430.4209,E,1,5,1,-0.811203428571428, M,0, M,0,*4F,35.9123398825398,14.5070534969357,35.9123851094,14.5070155288,3,0.00,,3/28/2013 4:29:39 PM
$GPGGA,152940.493,3554.7404,N,01430.4232,E,1,5,1,0, M,0, M,0,*72,$GPGGA,152940.493,3554.7432,N,01430.4211,E,1,5,1,-0.841248000000001, M,0, M,0,*47,35.9123398825398,14.5070534969357,35.9123860159,14.5070190936,3,0.00,,3/28/2013 4:29:40 PM
$GPGGA,152941.507,3554.7404,N,01430.4232,E,1,5,1,0, M,0, M,0,*7F,$GPGGA,152941.507,3554.7429,N,01430.4207,E,1,5,1,-0.791173714285715, M,0, M,0,*41,35.9123398825398,14.5070534969357,35.9123815279,14.5070115193,3,0.00,,3/28/2013 4:29:41 PM
$GPGGA,152942.521,3554.7404,N,01430.4232,E,1,5,1,0, M,0, M,0,*78,$GPGGA,152942.521,3554.7429,N,01430.4206,E,1,5,1,-0.841248000000001, M,0, M,0,*41,35.9123398825398,14.5070534969357,35.9123812297,14.507010308,3,0.00,,3/28/2013 4:29:42 PM
$GPGGA,152943.535,3554.7404,N,01430.4232,E,1,5,1,0, M,0, M,0,*7C,$GPGGA,152943.535,3554.7429,N,01430.4208,E,1,5,1,-0.841248000000001, M,0, M,0,*4B,35.9123398825398,14.5070534969357,35.9123814156,14.5070131728,3,0.00,,3/28/2013 4:29:43 PM
$GPGGA,152944.549,3554.7404,N,01430.4232,E,1,5,1,0, M,0, M,0,*70,$GPGGA,152944.549,3554.7427,N,01430.4203,E,1,5,1,-0.822128727272727, M,0, M,0,*44,35.9123398825398,14.5070534969357,35.9123775149,14.5070056955,3,0.00,,3/28/2013 4:29:44 PM
$GPGGA,152945.562,3554.7404,N,01430.4232,E,1,5,1,0, M,0, M,0,*78,$GPGGA,152945.562,3554.7428,N,01430.4205,E,1,5,1,-0.841248000000001, M,0, M,0,*43,35.9123398825398,14.5070534969357,35.9123805566,14.5070081789,3,0.00,,3/28/2013 4:29:45 PM
$GPGGA,152946.576,3554.7404,N,01430.4232,E,1,5,1,0, M,0, M,0,*7E,$GPGGA,152946.576,3554.7427,N,01430.4202,E,1,5,1,-0.841248000000001, M,0, M,0,*4D,35.9123398825398,14.5070534969357,35.9123782365,14.5070040291,3,0.00,,3/28/2013 4:29:46 PM
$GPGGA,152947.590,3554.7404,N,01430.4232,E,1,5,1,0, M,0, M,0,*77,$GPGGA,152947.590,3554.7426,N,01430.4201,E,1,5,1,-0.764770909090909, M,0, M,0,*48,35.9123398825398,14.5070534969357,35.9123765607,14.5070018749,3,0.00,,3/28/2013 4:29:47 PM
$GPGGA,152948.604,3554.7404,N,01430.4232,E,1,5,1,0, M,0, M,0,*76,$GPGGA,152948.604,3554.7429,N,01430.4205,E,1,5,1,-0.841248000000001, M,0, M,0,*4C,35.9123398825398,14.5070534969357,35.9123819107,14.5070078501,3,0.00,,3/28/2013 4:29:48 PM
$GPGGA,152949.618,3554.7404,N,01430.4232,E,1,5,1,0, M,0, M,0,*7A,$GPGGA,152949.618,3554.7426,N,01430.4203,E,1,5,1,-0.831233142857142, M,0, M,0,*49,35.9123398825398,14.5070534969357,35.9123771235,14.5070042099,3,0.00,,3/28/2013 4:29:49 PM
$GPGGA,152950.632,3554.7404,N,01430.4232,E,1,5,1,0, M,0, M,0,*7A,$GPGGA,152950.632,3554.7428,N,01430.4206,E,1,5,1,-0.841248000000001, M,0, M,0,*42,35.9123398825398,14.5070534969357,35.9123805812,14.5070098715,3,0.00,,3/28/2013 4:29:50 PM
$GPGGA,152951.646,3554.7404,N,01430.4232,E,1,5,1,0, M,0, M,0,*78,$GPGGA,152951.646,3554.7427,N,01430.4203,E,1,5,1,-0.841248000000001, M,0, M,0,*4A,35.9123398825398,14.5070534969357,35.9123780295,14.5070057991,3,0.00,,3/28/2013 4:29:51 PM
$GPGGA,152952.660,3554.7404,N,01430.4232,E,1,5,1,0, M,0, M,0,*7F,$GPGGA,152952.660,3554.7424,N,01430.4201,E,1,5,1,-0.831233142857142, M,0, M,0,*4C,35.9123398825398,14.5070534969357,35.912373705,14.5070022888,3,0.00,,3/28/2013 4:29:52 PM
$GPGGA,152953.675,3554.7404,N,01430.4232,E,1,5,1,0, M,0, M,0,*7A,$GPGGA,152953.675,3554.7424,N,01430.4199,E,1,5,1,-0.660980571428573, M,0, M,0,*44,35.9123398825398,14.5070534969357,35.9123727308,14.5069979508,3,0.00,,3/28/2013 4:29:53 PM
$GPGGA,152954.689,3554.7404,N,01430.4232,E,1,5,1,0, M,0, M,0,*7E,$GPGGA,152954.689,3554.7425,N,01430.4198,E,1,5,1,-0.841248000000001, M,0, M,0,*4F,35.9123398825398,14.5070534969357,35.91237555,14.506997285,3,0.00,,3/28/2013 4:29:54 PM
$GPGGA,152955.703,3554.7404,N,01430.4232,E,1,5,1,0, M,0, M,0,*7C,$GPGGA,152955.703,3554.7425,N,01430.4199,E,1,5,1,-0.841248000000001, M,0, M,0,*4C,35.9123398825398,14.5070534969357,35.9123747997,14.5069975432,3,0.00,,3/28/2013 4:29:55 PM
$GPGGA,152956.716,3554.7404,N,01430.4232,E,1,5,1,0, M,0, M,0,*7B,$GPGGA,152956.716,3554.7426,N,01430.4200,E,1,5,1,-0.721069714285716, M,0, M,0,*4F,35.9123398825398,14.5070534969357,35.9123771005,14.5069992127,3,0.00,,3/28/2013 4:29:56 PM
$GPGGA,152957.730,3554.7404,N,01430.4232,E,1,5,1,0, M,0, M,0,*7E,$GPGGA,152957.730,3554.7427,N,01430.4202,E,1,5,1,-0.841248000000001, M,0, M,0,*4D,35.9123398825398,14.5070534969357,35.9123789317,14.5070033177,3,0.00,,3/28/2013 4:29:57 PM
$GPGGA,152958.744,3554.7404,N,01430.4232,E,1,5,1,0, M,0, M,0,*72,$GPGGA,152958.744,3554.7426,N,01430.4203,E,1,5,1,-0.841248000000001, M,0, M,0,*41,35.9123398825398,14.5070534969357,35.9123766776,14.5070053176,3,0.00,,3/28/2013 4:29:58 PM
$GPGGA,152959.758,3554.7404,N,01430.4232,E,1,5,1,0, M,0, M,0,*7E,$GPGGA,152959.758,3554.7427,N,01430.4204,E,1,5,1,-0.771144, M,0, M,0,*79,35.9123398825398,14.5070534969357,35.9123777886,14.50700635,3,0.00,,3/28/2013 4:29:59 PM
$GPGGA,153000.772,3554.7404,N,01430.4232,E,1,5,1,0, M,0, M,0,*72,$GPGGA,153000.772,3554.7427,N,01430.4205,E,1,5,1,-0.901337142857144, M,0, M,0,*47,35.9123398825398,14.5070534969357,35.9123791381,14.507007716,3,0.00,,3/28/2013 4:30:00 PM
$GPGGA,153001.786,3554.7404,N,01430.4232,E,1,5,1,0, M,0, M,0,*78,$GPGGA,153001.786,3554.7425,N,01430.4202,E,1,5,1,-0.861277714285715, M,0, M,0,*48,35.9123398825398,14.5070534969357,35.9123742674,14.5070032259,3,0.00,,3/28/2013 4:30:01 PM
$GPGGA,153002.800,3554.7404,N,01430.4232,E,1,5,1,0, M,0, M,0,*7A,$GPGGA,153002.800,3554.7427,N,01430.4202,E,1,5,1,-0.745651636363637, M,0, M,0,*48,35.9123398825398,14.5070534969357,35.9123784523,14.507002965,3,0.00,,3/28/2013 4:30:02 PM
$GPGGA,153003.814,3554.7404,N,01430.4232,E,1,5,1,0, M,0, M,0,*7E,$GPGGA,153003.814,3554.7427,N,01430.4203,E,1,5,1,-0.841248000000001, M,0, M,0,*4C,35.9123398825398,14.5070534969357,35.9123783742,14.5070051694,3,0.00,,3/28/2013 4:30:03 PM
$GPGGA,153004.828,3554.7404,N,01430.4232,E,1,5,1,0, M,0, M,0,*76,$GPGGA,153004.828,3554.7425,N,01430.4202,E,1,5,1,-0.841248000000001, M,0, M,0,*47,35.9123398825398,14.5070534969357,35.912374598,14.5070030788,3,0.00,,3/28/2013 4:30:04 PM
$GPGGA,153005.842,3554.7404,N,01430.4232,E,1,5,1,0, M,0, M,0,*7B,$GPGGA,153005.842,3554.7425,N,01430.4201,E,1,5,1,-0.711054857142857, M,0, M,0,*4A,35.9123398825398,14.5070534969357,35.9123748833,14.5070021536,3,0.00,,3/28/2013 4:30:05 PM
$GPGGA,153006.856,3554.7404,N,01430.4232,E,1,5,1,0, M,0, M,0,*7D,$GPGGA,153006.856,3554.7427,N,01430.4204,E,1,5,1,-0.879486545454546, M,0, M,0,*40,35.9123398825398,14.5070534969357,35.9123785459,14.5070058571,3,0.00,,3/28/2013 4:30:06 PM
$GPGGA,153007.870,3554.7404,N,01430.4232,E,1,5,1,0, M,0, M,0,*78,$GPGGA,153007.870,3554.7423,N,01430.4202,E,1,5,1,-0.861277714285715, M,0, M,0,*4E,35.9123398825398,14.5070534969357,35.9123712634,14.5070034268,3,0.00,,3/28/2013 4:30:07 PM
$GPGGA,153008.884,3554.7404,N,01430.4232,E,1,5,1,0, M,0, M,0,*7C,$GPGGA,153008.884,3554.7426,N,01430.4202,E,1,5,1,-0.721069714285716, M,0, M,0,*4A,35.9123398825398,14.5070534969357,35.912376868,14.5070031225,3,0.00,,3/28/2013 4:30:08 PM
$GPGGA,153009.898,3554.7404,N,01430.4232,E,1,5,1,0, M,0, M,0,*70,$GPGGA,153009.898,3554.7424,N,01430.4201,E,1,5,1,-0.861277714285715, M,0, M,0,*42,35.9123398825398,14.5070534969357,35.9123732613,14.507001734,3,0.00,,3/28/2013 4:30:09 PM
$GPGGA,153010.913,3554.7404,N,01430.4232,E,1,5,1,0, M,0, M,0,*7A,$GPGGA,153010.913,3554.7425,N,01430.4202,E,1,5,1,-0.801188571428572, M,0, M,0,*4C,35.9123398825398,14.5070534969357,35.9123747743,14.507002954,3,0.00,,3/28/2013 4:30:10 PM
$GPGGA,153011.927,3554.7404,N,01430.4232,E,1,5,1,0, M,0, M,0,*7C,$GPGGA,153011.927,3554.7427,N,01430.4201,E,1,5,1,-0.721069714285716, M,0, M,0,*48,35.9123398825398,14.5070534969357,35.9123776631,14.5070014342,3,0.00,,3/28/2013 4:30:11 PM
$GPGGA,153012.941,3554.7404,N,01430.4232,E,1,5,1,0, M,0, M,0,*7F,$GPGGA,153012.941,3554.7425,N,01430.4200,E,1,5,1,-0.841248000000001, M,0, M,0,*4C,35.9123398825398,14.5070534969357,35.9123755378,14.5070006769,3,0.00,,3/28/2013 4:30:12 PM
$GPGGA,153013.954,3554.7404,N,01430.4232,E,1,5,1,0, M,0, M,0,*7A,$GPGGA,153013.954,3554.7425,N,01430.4200,E,1,5,1,-0.841248000000001, M,0, M,0,*49,35.9123398825398,14.5070534969357,35.9123751531,14.5070002748,3,0.00,,3/28/2013 4:30:13 PM
$GPGGA,153014.968,3554.7404,N,01430.4232,E,1,5,1,0, M,0, M,0,*72,$GPGGA,153014.968,3554.7423,N,01430.4198,E,1,5,1,-0.761129142857143, M,0, M,0,*46,35.9123398825398,14.5070534969357,35.9123721175,14.5069958799,3,0.00,,3/28/2013 4:30:14 PM
$GPGGA,153015.982,3554.7404,N,01430.4232,E,1,5,1,0, M,0, M,0,*77,$GPGGA,153015.982,3554.7427,N,01430.4202,E,1,5,1,-0.841248000000001, M,0, M,0,*44,35.9123398825398,14.5070534969357,35.9123778253,14.5070039808,3,0.00,,3/28/2013 4:30:15 PM
$GPGGA,153016.996,3554.7404,N,01430.4232,E,1,5,1,0, M,0, M,0,*71,$GPGGA,153016.996,3554.7423,N,01430.4197,E,1,5,1,-0.821218285714286, M,0, M,0,*4A,35.9123398825398,14.5070534969357,35.9123720299,14.5069954069,3,0.00,,3/28/2013 4:30:16 PM
$GPGGA,153018.010,3554.7404,N,01430.4232,E,1,5,1,0, M,0, M,0,*78,$GPGGA,153018.010,3554.7428,N,01430.4202,E,1,5,1,-0.831688363636364, M,0, M,0,*4E,35.9123398825398,14.5070534969357,35.9123795271,14.5070025078,3,0.00,,3/28/2013 4:30:18 PM
$GPGGA,153019.024,3554.7404,N,01430.4232,E,1,5,1,0, M,0, M,0,*7E,$GPGGA,153019.024,3554.7429,N,01430.4204,E,1,5,1,-0.841248000000001, M,0, M,0,*45,35.9123398825398,14.5070534969357,35.9123809734,14.5070070717,3,0.00,,3/28/2013 4:30:19 PM
$GPGGA,153020.039,3554.7404,N,01430.4232,E,1,5,1,0, M,0, M,0,*78,$GPGGA,153020.039,3554.7425,N,01430.4201,E,1,5,1,-0.841248000000001, M,0, M,0,*4A,35.9123398825398,14.5070534969357,35.9123748994,14.5070022167,3,0.00,,3/28/2013 4:30:20 PM
$GPGGA,153021.052,3554.7404,N,01430.4232,E,1,5,1,0, M,0, M,0,*74,$GPGGA,153021.052,3554.7424,N,01430.4200,E,1,5,1,-0.841248000000001, M,0, M,0,*46,35.9123398825398,14.5070534969357,35.9123727776,14.5070005776,3,0.00,,3/28/2013 4:30:21 PM
$GPGGA,153022.066,3554.7404,N,01430.4232,E,1,5,1,0, M,0, M,0,*70,$GPGGA,153022.066,3554.7419,N,01430.4199,E,1,5,1,-0.841248000000001, M,0, M,0,*4F,35.9123398825398,14.5070534969357,35.9123656364,14.5069980309,3,0.00,,3/28/2013 4:30:22 PM
$GPGGA,153023.080,3554.7404,N,01430.4232,E,1,5,1,0, M,0, M,0,*79,$GPGGA,153023.080,3554.7417,N,01430.4196,E,1,5,1,-0.745651636363637, M,0, M,0,*46,35.9123398825398,14.5070534969357,35.9123624729,14.5069939481,3,0.00,,3/28/2013 4:30:23 PM
$GPGGA,153024.094,3554.7404,N,01430.4232,E,1,5,1,0, M,0, M,0,*7B,$GPGGA,153024.094,3554.7418,N,01430.4193,E,1,5,1,-0.707413090909092, M,0, M,0,*49,35.9123398825398,14.5070534969357,35.9123626123,14.5069878081,3,0.00,,3/28/2013 4:30:24 PM
$GPGGA,153025.109,3554.7404,N,01430.4232,E,1,5,1,0, M,0, M,0,*7F,$GPGGA,153025.109,3554.7422,N,01430.4195,E,1,5,1,-0.841248000000001, M,0, M,0,*44,35.9123398825398,14.5070534969357,35.9123705822,14.5069916145,3,0.00,,3/28/2013 4:30:25 PM
$GPGGA,153026.123,3554.7404,N,01430.4232,E,1,5,1,0, M,0, M,0,*74,$GPGGA,153026.123,3554.7421,N,01430.4195,E,1,5,1,-0.841248000000001, M,0, M,0,*4C,35.9123398825398,14.5070534969357,35.9123677799,14.5069910273,3,0.00,,3/28/2013 4:30:26 PM
$GPGGA,153027.137,3554.7404,N,01430.4232,E,1,5,1,0, M,0, M,0,*70,$GPGGA,153027.137,3554.7422,N,01430.4198,E,1,5,1,-0.841248000000001, M,0, M,0,*46,35.9123398825398,14.5070534969357,35.9123699594,14.5069958648,3,0.00,,3/28/2013 4:30:27 PM
$GPGGA,153028.151,3554.7404,N,01430.4232,E,1,5,1,0, M,0, M,0,*7F,$GPGGA,153028.151,3554.7422,N,01430.4202,E,1,5,1,-0.871292571428573, M,0, M,0,*40,35.9123398825398,14.5070534969357,35.9123701502,14.5070025872,3,0.00,,3/28/2013 4:30:28 PM
$GPGGA,153029.165,3554.7404,N,01430.4232,E,1,5,1,0, M,0, M,0,*79,$GPGGA,153029.165,3554.7419,N,01430.4202,E,1,5,1,-0.841248000000001, M,0, M,0,*47,35.9123398825398,14.5070534969357,35.91236574,14.5070036367,3,0.00,,3/28/2013 4:30:29 PM
$GPGGA,153030.179,3554.7404,N,01430.4232,E,1,5,1,0, M,0, M,0,*7C,$GPGGA,153030.179,3554.7423,N,01430.4203,E,1,5,1,-0.841248000000001, M,0, M,0,*4A,35.9123398825398,14.5070534969357,35.912371513,14.5070044447,3,0.00,,3/28/2013 4:30:30 PM
$GPGGA,153031.193,3554.7404,N,01430.4232,E,1,5,1,0, M,0, M,0,*79,$GPGGA,153031.193,3554.7421,N,01430.4201,E,1,5,1,-0.841248000000001, M,0, M,0,*4F,35.9123398825398,14.5070534969357,35.9123686787,14.5070015135,3,0.00,,3/28/2013 4:30:31 PM
$GPGGA,153032.207,3554.7404,N,01430.4232,E,1,5,1,0, M,0, M,0,*74,$GPGGA,153032.207,3554.7420,N,01430.4199,E,1,5,1,-0.711054857142857, M,0, M,0,*42,35.9123398825398,14.5070534969357,35.9123659645,14.5069982013,3,0.00,,3/28/2013 4:30:32 PM
$GPGGA,153033.220,3554.7404,N,01430.4232,E,1,5,1,0, M,0, M,0,*70,$GPGGA,153033.220,3554.7417,N,01430.4200,E,1,5,1,-0.640950857142858, M,0, M,0,*46,35.9123398825398,14.5070534969357,35.912361663,14.5069996449,3,0.00,,3/28/2013 4:30:33 PM
$GPGGA,153034.234,3554.7404,N,01430.4232,E,1,5,1,0, M,0, M,0,*72,$GPGGA,153034.234,3554.7409,N,01430.4200,E,1,5,1,-0.630936, M,0, M,0,*74,35.9123398825398,14.5070534969357,35.91234902,14.5069996786,3,0.00,,3/28/2013 4:30:34 PM
$GPGGA,153035.248,3554.7404,N,01430.4232,E,1,5,1,0, M,0, M,0,*78,$GPGGA,153035.248,3554.7408,N,01430.4198,E,1,5,1,-0.520772571428571, M,0, M,0,*4F,35.9123398825398,14.5070534969357,35.9123469704,14.5069960565,3,0.00,,3/28/2013 4:30:35 PM
$GPGGA,153036.262,3554.7404,N,01430.4232,E,1,5,1,0, M,0, M,0,*73,$GPGGA,153036.262,3554.7406,N,01430.4196,E,1,5,1,-0.430638857142858, M,0, M,0,*4D,35.9123398825398,14.5070534969357,35.9123440514,14.5069940636,3,0.00,,3/28/2013 4:30:36 PM
$GPGGA,153037.276,3554.7404,N,01430.4232,E,1,5,1,0, M,0, M,0,*77,$GPGGA,153037.276,3554.7412,N,01430.4196,E,1,5,1,-0.330490285714286, M,0, M,0,*42,35.9123398825398,14.5070534969357,35.9123539178,14.5069941474,3,0.00,,3/28/2013 4:30:37 PM
$GPGGA,153038.290,3554.7404,N,01430.4232,E,1,5,1,0, M,0, M,0,*70,$GPGGA,153038.290,3554.7419,N,01430.4213,E,1,5,1,-0.210312, M,0, M,0,*7F,35.9123398825398,14.5070534969357,35.9123645871,14.5070212301,3,0.00,,3/28/2013 4:30:38 PM
$GPGGA,153039.304,3554.7404,N,01430.4232,E,1,5,1,0, M,0, M,0,*7D,$GPGGA,153039.304,3554.7408,N,01430.4220,E,1,5,1,-0.0701040000000012, M,0, M,0,*70,35.9123398825398,14.5070534969357,35.9123463223,14.5070326448,3,0.00,,3/28/2013 4:30:39 PM
$GPGGA,153040.318,3554.7404,N,01430.4232,E,1,5,1,0, M,0, M,0,*7E,$GPGGA,153040.318,3554.7395,N,01430.4217,E,1,5,1,0.100148571428571, M,0, M,0,*6A,35.9123398825398,14.5070534969357,35.9123251296,14.5070291245,3,0.00,,3/28/2013 4:30:40 PM
$GPGGA,153041.332,3554.7404,N,01430.4232,E,1,5,1,0, M,0, M,0,*77,$GPGGA,153041.332,3554.7384,N,01430.4222,E,1,5,1,0.310460571428571, M,0, M,0,*69,35.9123398825398,14.5070534969357,35.9123070855,14.5070373015,3,0.00,,3/28/2013 4:30:41 PM
$GPGGA,153042.346,3554.7404,N,01430.4232,E,1,5,1,0, M,0, M,0,*77,$GPGGA,153042.346,3554.7411,N,01430.4251,E,1,5,1,0.681010285714286, M,0, M,0,*67,35.9123398825398,14.5070534969357,35.9123510257,14.5070846202,3,0.00,,3/28/2013 4:30:42 PM
$GPGGA,153043.360,3554.7404,N,01430.4232,E,1,5,1,0, M,0, M,0,*72,$GPGGA,153043.360,3554.7413,N,01430.4263,E,1,5,1,0.841247999999999, M,0, M,0,*6B,35.9123398825398,14.5070534969357,35.9123552053,14.5071044723,3,0.00,,3/28/2013 4:30:43 PM
$GPGGA,153044.374,3554.7404,N,01430.4232,E,1,5,1,0, M,0, M,0,*70,$GPGGA,153044.374,3554.7409,N,01430.4266,E,1,5,1,0.822128727272726, M,0, M,0,*67,35.9123398825398,14.5070534969357,35.9123489665,14.5071104471,3,0.00,,3/28/2013 4:30:44 PM
$GPGGA,153045.389,3554.7404,N,01430.4232,E,1,5,1,0, M,0, M,0,*73,$GPGGA,153045.389,3554.7410,N,01430.4264,E,1,5,1,0.761129142857142, M,0, M,0,*6B,35.9123398825398,14.5070534969357,35.9123493234,14.507106072,3,0.00,,3/28/2013 4:30:45 PM
$GPGGA,153046.403,3554.7404,N,01430.4232,E,1,5,1,0, M,0, M,0,*75,$GPGGA,153046.403,3554.7408,N,01430.4260,E,1,5,1,0.640950857142857, M,0, M,0,*69,35.9123398825398,14.5070534969357,35.9123473536,14.5071000966,3,0.00,,3/28/2013 4:30:46 PM
$GPGGA,153047.417,3554.7404,N,01430.4232,E,1,5,1,0, M,0, M,0,*71,$GPGGA,153047.417,3554.7411,N,01430.4256,E,1,5,1,0.620921142857142, M,0, M,0,*6D,35.9123398825398,14.5070534969357,35.9123520006,14.5070932737,3,0.00,,3/28/2013 4:30:47 PM
$GPGGA,153048.431,3554.7404,N,01430.4232,E,1,5,1,0, M,0, M,0,*7A,$GPGGA,153048.431,3554.7418,N,01430.4253,E,1,5,1,0.490728, M,0, M,0,*5E,35.9123398825398,14.5070534969357,35.9123637806,14.5070881954,3,0.00,,3/28/2013 4:30:48 PM
$GPGGA,153049.445,3554.7404,N,01430.4232,E,1,5,1,0, M,0, M,0,*78,$GPGGA,153049.445,3554.7422,N,01430.4247,E,1,5,1,0.420624, M,0, M,0,*56,35.9123398825398,14.5070534969357,35.9123704503,14.5070788551,3,0.00,,3/28/2013 4:30:49 PM
$GPGGA,153050.459,3554.7404,N,01430.4232,E,1,5,1,0, M,0, M,0,*7D,$GPGGA,153050.459,3554.7421,N,01430.4244,E,1,5,1,0.390579428571427, M,0, M,0,*68,35.9123398825398,14.5070534969357,35.9123683308,14.5070725102,3,0.00,,3/28/2013 4:30:50 PM
$GPGGA,153051.473,3554.7404,N,01430.4232,E,1,5,1,0, M,0, M,0,*74,$GPGGA,153051.473,3554.7419,N,01430.4244,E,1,5,1,0.300445714285714, M,0, M,0,*6E,35.9123398825398,14.5070534969357,35.9123646886,14.5070732323,3,0.00,,3/28/2013 4:30:51 PM
$GPGGA,153052.486,3554.7404,N,01430.4232,E,1,5,1,0, M,0, M,0,*7D,$GPGGA,153052.486,3554.7419,N,01430.4240,E,1,5,1,0.220326857142858, M,0, M,0,*65,35.9123398825398,14.5070534969357,35.9123648233,14.5070661085,3,0.00,,3/28/2013 4:30:52 PM
$GPGGA,153053.500,3554.7404,N,01430.4232,E,1,5,1,0, M,0, M,0,*73,$GPGGA,153053.500,3554.7410,N,01430.4234,E,1,5,1,0.218400923076923, M,0, M,0,*60,35.9123398825398,14.5070534969357,35.9123504944,14.5070570798,2,0.00,,3/28/2013 4:30:53 PM
$GPGGA,153054.514,3554.7404,N,01430.4232,E,1,5,1,0, M,0, M,0,*71,$GPGGA,153054.514,3554.7412,N,01430.4238,E,1,5,1,0.364540799999999, M,0, M,0,*65,35.9123398825398,14.5070534969357,35.9123531544,14.5070626254,2,1.00,,3/28/2013 4:30:54 PM
$GPGGA,153055.528,3554.7404,N,01430.4232,E,1,5,1,0, M,0, M,0,*7F,$GPGGA,153055.528,3554.7418,N,01430.4239,E,1,5,1,0.223058181818181, M,0, M,0,*68,35.9123398825398,14.5070534969357,35.9123625127,14.5070653219,2,4.00,,3/28/2013 4:30:55 PM
$GPGGA,153056.542,3554.7404,N,01430.4232,E,1,5,1,0, M,0, M,0,*70,$GPGGA,153056.542,3554.7421,N,01430.4234,E,1,5,1,0.19059525, M,0, M,0,*59,35.9123398825398,14.5070534969357,35.9123682007,14.5070563447,2,4.00,,3/28/2013 4:30:56 PM
$GPGGA,153057.556,3554.7404,N,01430.4232,E,1,5,1,0, M,0, M,0,*74,$GPGGA,153057.556,3554.7422,N,01430.4234,E,1,5,1,0.0210311999999997, M,0, M,0,*5F,35.9123398825398,14.5070534969357,35.9123701031,14.5070570431,2,4.00,,3/28/2013 4:30:57 PM
$GPGGA,153058.570,3554.7404,N,01430.4232,E,1,5,1,0, M,0, M,0,*7F,$GPGGA,153058.570,3554.7421,N,01430.4227,E,1,5,1,-0.149253677419356, M,0, M,0,*4D,35.9123398825398,14.5070534969357,35.9123688557,14.5070442785,2,4.00,,3/28/2013 4:30:58 PM
$GPGGA,153059.584,3554.7404,N,01430.4232,E,1,5,1,0, M,0, M,0,*75,$GPGGA,153059.584,3554.7421,N,01430.4230,E,1,5,1,-0.0197167500000005, M,0, M,0,*7C,35.9123398825398,14.5070534969357,35.9123687814,14.5070496709,2,4.00,,3/28/2013 4:30:59 PM
$GPGGA,153100.598,3554.7404,N,01430.4232,E,1,5,1,0, M,0, M,0,*75,$GPGGA,153100.598,3554.7419,N,01430.4224,E,1,5,1,-0.12487275, M,0, M,0,*75,35.9123398825398,14.5070534969357,35.9123653755,14.5070406314,2,4.00,,3/28/2013 4:31:00 PM
$GPGGA,153101.612,3554.7404,N,01430.4232,E,1,5,1,0, M,0, M,0,*75,$GPGGA,153101.612,3554.7420,N,01430.4227,E,1,5,1,-0.308895750000001, M,0, M,0,*48,35.9123398825398,14.5070534969357,35.9123662975,14.5070446843,2,4.00,,3/28/2013 4:31:01 PM
$GPGGA,153102.626,3554.7404,N,01430.4232,E,1,5,1,0, M,0, M,0,*71,$GPGGA,153102.626,3554.7421,N,01430.4225,E,1,5,1,-0.584930250000001, M,0, M,0,*46,35.9123398825398,14.5070534969357,35.912368185,14.5070421057,2,4.00,,3/28/2013 4:31:02 PM
$GPGGA,153103.641,3554.7404,N,01430.4232,E,1,5,1,0, M,0, M,0,*71,$GPGGA,153103.641,3554.7419,N,01430.4227,E,1,5,1,-0.936227612903227, M,0, M,0,*49,35.9123398825398,14.5070534969357,35.9123658125,14.507044795,2,4.00,,3/28/2013 4:31:03 PM
$GPGGA,153104.655,3554.7404,N,01430.4232,E,1,5,1,0, M,0, M,0,*73,$GPGGA,153104.655,3554.7418,N,01430.4225,E,1,5,1,-1.13699925, M,0, M,0,*70,35.9123398825398,14.5070534969357,35.9123640178,14.5070412922,2,4.00,,3/28/2013 4:31:04 PM
$GPGGA,153105.669,3554.7404,N,01430.4232,E,1,5,1,0, M,0, M,0,*7D,$GPGGA,153105.669,3554.7417,N,01430.4225,E,1,5,1,-1.41112567741936, M,0, M,0,*76,35.9123398825398,14.5070534969357,35.9123609549,14.5070416107,2,4.00,,3/28/2013 4:31:05 PM
$GPGGA,153106.683,3554.7404,N,01430.4232,E,1,5,1,0, M,0, M,0,*7A,$GPGGA,153106.683,3554.7414,N,01430.4228,E,1,5,1,-1.5641955, M,0, M,0,*4D,35.9123398825398,14.5070534969357,35.9123562791,14.5070466314,2,4.00,,3/28/2013 4:31:06 PM
$GPGGA,153107.697,3554.7404,N,01430.4232,E,1,5,1,0, M,0, M,0,*7E,$GPGGA,153107.697,3554.7417,N,01430.4224,E,1,5,1,-1.29473325, M,0, M,0,*76,35.9123398825398,14.5070534969357,35.9123611089,14.5070402387,2,4.00,,3/28/2013 4:31:07 PM
$GPGGA,153108.711,3554.7404,N,01430.4232,E,1,5,1,0, M,0, M,0,*7E,$GPGGA,153108.711,3554.7413,N,01430.4223,E,1,5,1,-1.51818975, M,0, M,0,*74,35.9123398825398,14.5070534969357,35.9123545097,14.5070384586,2,4.00,,3/28/2013 4:31:08 PM
$GPGGA,153109.725,3554.7404,N,01430.4232,E,1,5,1,0, M,0, M,0,*78,$GPGGA,153109.725,3554.7414,N,01430.4222,E,1,5,1,-1.50504525, M,0, M,0,*7C,35.9123398825398,14.5070534969357,35.9123564803,14.5070374238,2,4.00,,3/28/2013 4:31:09 PM
$GPGGA,153110.739,3554.7404,N,01430.4232,E,1,5,1,0, M,0, M,0,*7D,$GPGGA,153110.739,3554.7415,N,01430.4220,E,1,5,1,-1.472184, M,0, M,0,*70,35.9123398825398,14.5070534969357,35.9123583069,14.5070325723,2,4.00,,3/28/2013 4:31:10 PM
$GPGGA,153111.753,3554.7404,N,01430.4232,E,1,5,1,0, M,0, M,0,*70,$GPGGA,153111.753,3554.7414,N,01430.4219,E,1,5,1,-1.6693515, M,0, M,0,*41,35.9123398825398,14.5070534969357,35.9123570635,14.50703242,2,4.00,,3/28/2013 4:31:11 PM
$GPGGA,153112.766,3554.7404,N,01430.4232,E,1,5,1,0, M,0, M,0,*75,$GPGGA,153112.766,3554.7414,N,01430.4223,E,1,5,1,-1.66277925, M,0, M,0,*7A,35.9123398825398,14.5070534969357,35.9123570873,14.5070390217,2,4.00,,3/28/2013 4:31:12 PM
$GPGGA,153113.780,3554.7404,N,01430.4232,E,1,5,1,0, M,0, M,0,*7C,$GPGGA,153113.780,3554.7414,N,01430.4228,E,1,5,1,-1.682496, M,0, M,0,*73,35.9123398825398,14.5070534969357,35.9123574582,14.5070463825,2,4.00,,3/28/2013 4:31:13 PM
$GPGGA,153114.794,3554.7404,N,01430.4232,E,1,5,1,0, M,0, M,0,*7E,$GPGGA,153114.794,3554.7415,N,01430.4229,E,1,5,1,-1.54447875, M,0, M,0,*7A,35.9123398825398,14.5070534969357,35.9123580853,14.507049091,2,4.00,,3/28/2013 4:31:14 PM
$GPGGA,153115.808,3554.7404,N,01430.4232,E,1,5,1,0, M,0, M,0,*75,$GPGGA,153115.808,3554.7415,N,01430.4228,E,1,5,1,-1.51818975, M,0, M,0,*72,35.9123398825398,14.5070534969357,35.9123584381,14.507047315,2,4.00,,3/28/2013 4:31:15 PM
$GPGGA,153116.822,3554.7404,N,01430.4232,E,1,5,1,0, M,0, M,0,*7E,$GPGGA,153116.822,3554.7415,N,01430.4225,E,1,5,1,-1.629918, M,0, M,0,*77,35.9123398825398,14.5070534969357,35.912359078,14.5070415795,2,4.00,,3/28/2013 4:31:16 PM
$GPGGA,153117.836,3554.7404,N,01430.4232,E,1,5,1,0, M,0, M,0,*7A,$GPGGA,153117.836,3554.7415,N,01430.4222,E,1,5,1,-1.656207, M,0, M,0,*79,35.9123398825398,14.5070534969357,35.9123589173,14.5070365856,2,4.00,,3/28/2013 4:31:17 PM
$GPGGA,153118.850,3554.7404,N,01430.4232,E,1,5,1,0, M,0, M,0,*75,$GPGGA,153118.850,3554.7416,N,01430.4221,E,1,5,1,-1.65535896774194, M,0, M,0,*79,35.9123398825398,14.5070534969357,35.9123593559,14.507034344,2,4.00,,3/28/2013 4:31:18 PM
$GPGGA,153119.864,3554.7404,N,01430.4232,E,1,5,1,0, M,0, M,0,*73,$GPGGA,153119.864,3554.7415,N,01430.4224,E,1,5,1,-1.6430625, M,0, M,0,*46,35.9123398825398,14.5070534969357,35.9123583936,14.5070403032,2,4.00,,3/28/2013 4:31:19 PM
$GPGGA,153120.879,3554.7404,N,01430.4232,E,1,5,1,0, M,0, M,0,*75,$GPGGA,153120.879,3554.7416,N,01430.4228,E,1,5,1,-1.51818975, M,0, M,0,*71,35.9123398825398,14.5070534969357,35.9123594998,14.5070464046,2,4.00,,3/28/2013 4:31:20 PM
$GPGGA,153121.893,3554.7404,N,01430.4232,E,1,5,1,0, M,0, M,0,*70,$GPGGA,153121.893,3554.7415,N,01430.4230,E,1,5,1,-1.55762325, M,0, M,0,*77,35.9123398825398,14.5070534969357,35.9123583619,14.5070498791,2,4.00,,3/28/2013 4:31:21 PM
$GPGGA,153122.907,3554.7404,N,01430.4232,E,1,5,1,0, M,0, M,0,*7F,$GPGGA,153122.907,3554.7415,N,01430.4232,E,1,5,1,-1.50610529032258, M,0, M,0,*7F,35.9123398825398,14.5070534969357,35.9123590364,14.5070539113,2,4.00,,3/28/2013 4:31:22 PM
$GPGGA,153123.921,3554.7404,N,01430.4232,E,1,5,1,0, M,0, M,0,*7A,$GPGGA,153123.921,3554.7415,N,01430.4231,E,1,5,1,-1.5641955, M,0, M,0,*44,35.9123398825398,14.5070534969357,35.912359104,14.5070519788,2,4.00,,3/28/2013 4:31:23 PM
$GPGGA,153124.935,3554.7404,N,01430.4232,E,1,5,1,0, M,0, M,0,*78,$GPGGA,153124.935,3554.7415,N,01430.4227,E,1,5,1,-1.682496, M,0, M,0,*79,35.9123398825398,14.5070534969357,35.9123584062,14.5070452468,2,4.00,,3/28/2013 4:31:24 PM
$GPGGA,153125.949,3554.7404,N,01430.4232,E,1,5,1,0, M,0, M,0,*72,$GPGGA,153125.949,3554.7415,N,01430.4227,E,1,5,1,-1.682496, M,0, M,0,*73,35.9123398825398,14.5070534969357,35.9123589855,14.5070444919,2,4.00,,3/28/2013 4:31:25 PM
$GPGGA,153126.963,3554.7404,N,01430.4232,E,1,5,1,0, M,0, M,0,*79,$GPGGA,153126.963,3554.7415,N,01430.4227,E,1,5,1,-1.6693515, M,0, M,0,*44,35.9123398825398,14.5070534969357,35.9123590775,14.5070457667,2,4.00,,3/28/2013 4:31:26 PM
$GPGGA,153127.977,3554.7404,N,01430.4232,E,1,5,1,0, M,0, M,0,*7D,$GPGGA,153127.977,3554.7416,N,01430.4226,E,1,5,1,-1.67592375, M,0, M,0,*77,35.9123398825398,14.5070534969357,35.9123599103,14.5070439763,2,4.00,,3/28/2013 4:31:27 PM
$GPGGA,153128.991,3554.7404,N,01430.4232,E,1,5,1,0, M,0, M,0,*7A,$GPGGA,153128.991,3554.7415,N,01430.4229,E,1,5,1,-1.682496, M,0, M,0,*75,35.9123398825398,14.5070534969357,35.9123588427,14.5070476738,2,4.00,,3/28/2013 4:31:28 PM
$GPGGA,153130.005,3554.7404,N,01430.4232,E,1,5,1,0, M,0, M,0,*77,$GPGGA,153130.005,3554.7416,N,01430.4228,E,1,5,1,-1.59430064516129, M,0, M,0,*7C,35.9123398825398,14.5070534969357,35.9123595951,14.5070462113,2,4.00,,3/28/2013 4:31:30 PM
$GPGGA,153131.019,3554.7404,N,01430.4232,E,1,5,1,0, M,0, M,0,*7B,$GPGGA,153131.019,3554.7416,N,01430.4224,E,1,5,1,-1.64963475, M,0, M,0,*75,35.9123398825398,14.5070534969357,35.9123601423,14.5070406985,2,4.00,,3/28/2013 4:31:31 PM
$GPGGA,153132.032,3554.7404,N,01430.4232,E,1,5,1,0, M,0, M,0,*71,$GPGGA,153132.032,3554.7415,N,01430.4224,E,1,5,1,-1.682496, M,0, M,0,*73,35.9123398825398,14.5070534969357,35.9123587397,14.5070405142,2,4.00,,3/28/2013 4:31:32 PM
$GPGGA,153133.047,3554.7404,N,01430.4232,E,1,5,1,0, M,0, M,0,*72,$GPGGA,153133.047,3554.7417,N,01430.4224,E,1,5,1,-1.57415345454545, M,0, M,0,*74,35.9123398825398,14.5070534969357,35.9123612177,14.5070392655,2,4.00,,3/28/2013 4:31:33 PM
$GPGGA,153134.061,3554.7404,N,01430.4232,E,1,5,1,0, M,0, M,0,*71,$GPGGA,153134.061,3554.7416,N,01430.4223,E,1,5,1,-1.61465341935484, M,0, M,0,*71,35.9123398825398,14.5070534969357,35.9123601981,14.5070377551,2,4.00,,3/28/2013 4:31:34 PM
$GPGGA,153135.075,3554.7404,N,01430.4232,E,1,5,1,0, M,0, M,0,*75,$GPGGA,153135.075,3554.7416,N,01430.4223,E,1,5,1,-1.6693515, M,0, M,0,*4F,35.9123398825398,14.5070534969357,35.9123593643,14.5070388469,2,4.00,,3/28/2013 4:31:35 PM
$GPGGA,153136.089,3554.7404,N,01430.4232,E,1,5,1,0, M,0, M,0,*75,$GPGGA,153136.089,3554.7417,N,01430.4223,E,1,5,1,-1.50504525, M,0, M,0,*73,35.9123398825398,14.5070534969357,35.9123616149,14.5070384392,2,4.00,,3/28/2013 4:31:36 PM
$GPGGA,153137.103,3554.7404,N,01430.4232,E,1,5,1,0, M,0, M,0,*77,$GPGGA,153137.103,3554.7416,N,01430.4223,E,1,5,1,-1.66214322580645, M,0, M,0,*78,35.9123398825398,14.5070534969357,35.9123601235,14.5070383647,2,4.00,,3/28/2013 4:31:37 PM
$GPGGA,153138.118,3554.7404,N,01430.4232,E,1,5,1,0, M,0, M,0,*72,$GPGGA,153138.118,3554.7416,N,01430.4224,E,1,5,1,-1.682496, M,0, M,0,*73,35.9123398825398,14.5070534969357,35.9123600466,14.5070403257,2,4.00,,3/28/2013 4:31:38 PM
$GPGGA,153139.132,3554.7404,N,01430.4232,E,1,5,1,0, M,0, M,0,*7B,$GPGGA,153139.132,3554.7417,N,01430.4227,E,1,5,1,-1.59705675, M,0, M,0,*75,35.9123398825398,14.5070534969357,35.9123608599,14.5070445273,2,4.00,,3/28/2013 4:31:39 PM
$GPGGA,153140.146,3554.7404,N,01430.4232,E,1,5,1,0, M,0, M,0,*76,$GPGGA,153140.146,3554.7417,N,01430.4226,E,1,5,1,-1.59705675, M,0, M,0,*79,35.9123398825398,14.5070534969357,35.9123610079,14.5070437364,2,4.00,,3/28/2013 4:31:40 PM
$GPGGA,153141.160,3554.7404,N,01430.4232,E,1,5,1,0, M,0, M,0,*73,$GPGGA,153141.160,3554.7416,N,01430.4226,E,1,5,1,-1.682496, M,0, M,0,*70,35.9123398825398,14.5070534969357,35.9123600557,14.5070437195,2,4.00,,3/28/2013 4:31:41 PM
$GPGGA,153142.174,3554.7404,N,01430.4232,E,1,5,1,0, M,0, M,0,*75,$GPGGA,153142.174,3554.7417,N,01430.4227,E,1,5,1,-1.682496, M,0, M,0,*76,35.9123398825398,14.5070534969357,35.9123608385,14.5070447142,2,4.00,,3/28/2013 4:31:42 PM
$GPGGA,153143.188,3554.7404,N,01430.4232,E,1,5,1,0, M,0, M,0,*77,$GPGGA,153143.188,3554.7416,N,01430.4228,E,1,5,1,-1.682496, M,0, M,0,*7A,35.9123398825398,14.5070534969357,35.9123598592,14.5070463674,2,4.00,,3/28/2013 4:31:43 PM
$GPGGA,153144.201,3554.7404,N,01430.4232,E,1,5,1,0, M,0, M,0,*72,$GPGGA,153144.201,3554.7416,N,01430.4229,E,1,5,1,-1.682496, M,0, M,0,*7E,35.9123398825398,14.5070534969357,35.9123597541,14.507048976,2,4.00,,3/28/2013 4:31:44 PM
$GPGGA,153145.215,3554.7404,N,01430.4232,E,1,5,1,0, M,0, M,0,*76,$GPGGA,153145.215,3554.7416,N,01430.4230,E,1,5,1,-1.63500619354839, M,0, M,0,*7B,35.9123398825398,14.5070534969357,35.9123606076,14.5070493774,2,4.00,,3/28/2013 4:31:45 PM
$GPGGA,153146.229,3554.7404,N,01430.4232,E,1,5,1,0, M,0, M,0,*7A,$GPGGA,153146.229,3554.7417,N,01430.4228,E,1,5,1,-1.58391225, M,0, M,0,*72,35.9123398825398,14.5070534969357,35.9123611853,14.507046982,2,4.00,,3/28/2013 4:31:46 PM
$GPGGA,153147.243,3554.7404,N,01430.4232,E,1,5,1,0, M,0, M,0,*77,$GPGGA,153147.243,3554.7416,N,01430.4226,E,1,5,1,-1.6693515, M,0, M,0,*48,35.9123398825398,14.5070534969357,35.9123596953,14.5070432123,2,4.00,,3/28/2013 4:31:47 PM
$GPGGA,153148.257,3554.7404,N,01430.4232,E,1,5,1,0, M,0, M,0,*7D,$GPGGA,153148.257,3554.7416,N,01430.4225,E,1,5,1,-1.68906825, M,0, M,0,*74,35.9123398825398,14.5070534969357,35.9123605001,14.5070416761,2,4.00,,3/28/2013 4:31:48 PM
$GPGGA,153149.271,3554.7404,N,01430.4232,E,1,5,1,0, M,0, M,0,*78,$GPGGA,153149.271,3554.7416,N,01430.4224,E,1,5,1,-1.682496, M,0, M,0,*79,35.9123398825398,14.5070534969357,35.9123605316,14.5070407786,2,4.00,,3/28/2013 4:31:49 PM
$GPGGA,153150.285,3554.7404,N,01430.4232,E,1,5,1,0, M,0, M,0,*7B,$GPGGA,153150.285,3554.7415,N,01430.4226,E,1,5,1,-1.682496, M,0, M,0,*7B,35.9123398825398,14.5070534969357,35.9123590745,14.5070427332,2,4.00,,3/28/2013 4:31:50 PM
$GPGGA,153151.299,3554.7404,N,01430.4232,E,1,5,1,0, M,0, M,0,*77,$GPGGA,153151.299,3554.7417,N,01430.4227,E,1,5,1,-1.682496, M,0, M,0,*74,35.9123398825398,14.5070534969357,35.9123611961,14.507045127,2,4.00,,3/28/2013 4:31:51 PM
$GPGGA,153152.313,3554.7404,N,01430.4232,E,1,5,1,0, M,0, M,0,*77,$GPGGA,153152.313,3554.7416,N,01430.4228,E,1,5,1,-1.682496, M,0, M,0,*7A,35.9123398825398,14.5070534969357,35.9123605136,14.5070464449,2,4.00,,3/28/2013 4:31:52 PM
$GPGGA,153153.327,3554.7404,N,01430.4232,E,1,5,1,0, M,0, M,0,*71,$GPGGA,153153.327,3554.7416,N,01430.4229,E,1,5,1,-1.682496, M,0, M,0,*7D,35.9123398825398,14.5070534969357,35.9123593836,14.5070482668,2,4.00,,3/28/2013 4:31:53 PM
$GPGGA,153154.341,3554.7404,N,01430.4232,E,1,5,1,0, M,0, M,0,*76,$GPGGA,153154.341,3554.7417,N,01430.4226,E,1,5,1,-1.53133425, M,0, M,0,*77,35.9123398825398,14.5070534969357,35.9123620976,14.5070425319,2,4.00,,3/28/2013 4:31:54 PM
$GPGGA,153155.356,3554.7404,N,01430.4232,E,1,5,1,0, M,0, M,0,*71,$GPGGA,153155.356,3554.7416,N,01430.4223,E,1,5,1,-1.656207, M,0, M,0,*70,35.9123398825398,14.5070534969357,35.9123598756,14.5070378541,2,4.00,,3/28/2013 4:31:55 PM
$GPGGA,153156.370,3554.7404,N,01430.4232,E,1,5,1,0, M,0, M,0,*76,$GPGGA,153156.370,3554.7416,N,01430.4222,E,1,5,1,-1.682496, M,0, M,0,*71,35.9123398825398,14.5070534969357,35.9123597337,14.5070368251,2,4.00,,3/28/2013 4:31:56 PM
$GPGGA,153157.384,3554.7404,N,01430.4232,E,1,5,1,0, M,0, M,0,*7C,$GPGGA,153157.384,3554.7417,N,01430.4221,E,1,5,1,-1.5379065, M,0, M,0,*45,35.9123398825398,14.5070534969357,35.9123620598,14.5070346039,2,4.00,,3/28/2013 4:31:57 PM
$GPGGA,153158.398,3554.7404,N,01430.4232,E,1,5,1,0, M,0, M,0,*7E,$GPGGA,153158.398,3554.7416,N,01430.4223,E,1,5,1,-1.682496, M,0, M,0,*78,35.9123398825398,14.5070534969357,35.912359382,14.5070387917,2,4.00,,3/28/2013 4:31:58 PM
$GPGGA,153159.412,3554.7404,N,01430.4232,E,1,5,1,0, M,0, M,0,*7A,$GPGGA,153159.412,3554.7417,N,01430.4227,E,1,5,1,-1.56716361290323, M,0, M,0,*70,35.9123398825398,14.5070534969357,35.9123619139,14.5070448797,2,4.00,,3/28/2013 4:31:59 PM
$GPGGA,153200.426,3554.7404,N,01430.4232,E,1,5,1,0, M,0, M,0,*72,$GPGGA,153200.426,3554.7418,N,01430.4228,E,1,5,1,-1.63649025, M,0, M,0,*7F,35.9123398825398,14.5070534969357,35.9123636012,14.5070463706,2,4.00,,3/28/2013 4:32:00 PM
$GPGGA,153201.440,3554.7404,N,01430.4232,E,1,5,1,0, M,0, M,0,*73,$GPGGA,153201.440,3554.7416,N,01430.4231,E,1,5,1,-1.61020125, M,0, M,0,*72,35.9123398825398,14.5070534969357,35.9123602112,14.5070521642,2,4.00,,3/28/2013 4:32:01 PM
$GPGGA,153202.454,3554.7404,N,01430.4232,E,1,5,1,0, M,0, M,0,*75,$GPGGA,153202.454,3554.7420,N,01430.4231,E,1,5,1,-1.31445, M,0, M,0,*45,35.9123398825398,14.5070534969357,35.9123665618,14.5070518239,2,4.00,,3/28/2013 4:32:02 PM
$GPGGA,153203.467,3554.7404,N,01430.4232,E,1,5,1,0, M,0, M,0,*74,$GPGGA,153203.467,3554.7415,N,01430.4231,E,1,5,1,-1.472184, M,0, M,0,*79,35.9123398825398,14.5070534969357,35.9123584522,14.5070523184,2,4.00,,3/28/2013 4:32:03 PM
$GPGGA,153204.481,3554.7404,N,01430.4232,E,1,5,1,0, M,0, M,0,*7B,$GPGGA,153204.481,3554.7414,N,01430.4222,E,1,5,1,-1.34731125, M,0, M,0,*7D,35.9123398825398,14.5070534969357,35.9123560728,14.5070361251,2,4.00,,3/28/2013 4:32:04 PM
$GPGGA,153205.495,3554.7404,N,01430.4232,E,1,5,1,0, M,0, M,0,*7F,$GPGGA,153205.495,3554.7413,N,01430.4219,E,1,5,1,-1.288161, M,0, M,0,*76,35.9123398825398,14.5070534969357,35.9123542742,14.5070308357,2,4.00,,3/28/2013 4:32:05 PM
$GPGGA,153206.509,3554.7404,N,01430.4232,E,1,5,1,0, M,0, M,0,*78,$GPGGA,153206.509,3554.7415,N,01430.4230,E,1,5,1,-1.29473325, M,0, M,0,*77,35.9123398825398,14.5070534969357,35.9123582499,14.5070503891,2,4.00,,3/28/2013 4:32:06 PM
$GPGGA,153207.523,3554.7404,N,01430.4232,E,1,5,1,0, M,0, M,0,*71,$GPGGA,153207.523,3554.7417,N,01430.4236,E,1,5,1,-0.762381000000001, M,0, M,0,*4C,35.9123398825398,14.5070534969357,35.9123619109,14.5070607001,2,4.00,,3/28/2013 4:32:07 PM
$GPGGA,153208.537,3554.7404,N,01430.4232,E,1,5,1,0, M,0, M,0,*7B,$GPGGA,153208.537,3554.7419,N,01430.4243,E,1,5,1,-0.15116175, M,0, M,0,*73,35.9123398825398,14.5070534969357,35.9123642583,14.5070710062,2,4.00,,3/28/2013 4:32:08 PM
$GPGGA,153209.551,3554.7404,N,01430.4232,E,1,5,1,0, M,0, M,0,*7A,$GPGGA,153209.551,3554.7420,N,01430.4241,E,1,5,1,0.184022999999999, M,0, M,0,*62,35.9123398825398,14.5070534969357,35.9123658671,14.5070683133,2,4.00,,3/28/2013 4:32:09 PM
$GPGGA,153210.565,3554.7404,N,01430.4232,E,1,5,1,0, M,0, M,0,*75,$GPGGA,153210.565,3554.7424,N,01430.4250,E,1,5,1,0.808386749999999, M,0, M,0,*6A,35.9123398825398,14.5070534969357,35.9123735229,14.5070836548,2,4.00,,3/28/2013 4:32:10 PM
$GPGGA,153211.579,3554.7404,N,01430.4232,E,1,5,1,0, M,0, M,0,*79,$GPGGA,153211.579,3554.7419,N,01430.4260,E,1,5,1,1.288161, M,0, M,0,*59,35.9123398825398,14.5070534969357,35.9123648137,14.5070992107,2,4.00,,3/28/2013 4:32:11 PM
$GPGGA,153212.593,3554.7404,N,01430.4232,E,1,5,1,0, M,0, M,0,*7E,$GPGGA,153212.593,3554.7417,N,01430.4261,E,1,5,1,1.32102225, M,0, M,0,*52,35.9123398825398,14.5070534969357,35.912361154,14.5071019184,2,4.00,,3/28/2013 4:32:12 PM
$GPGGA,153213.608,3554.7404,N,01430.4232,E,1,5,1,0, M,0, M,0,*7E,$GPGGA,153213.608,3554.7419,N,01430.4258,E,1,5,1,1.16328825, M,0, M,0,*50,35.9123398825398,14.5070534969357,35.9123647227,14.5070964615,2,4.00,,3/28/2013 4:32:13 PM
$GPGGA,153214.622,3554.7404,N,01430.4232,E,1,5,1,0, M,0, M,0,*71,$GPGGA,153214.622,3554.7423,N,01430.4256,E,1,5,1,0.87410925, M,0, M,0,*5C,35.9123398825398,14.5070534969357,35.9123714999,14.5070937635,2,4.00,,3/28/2013 4:32:14 PM
$GPGGA,153215.636,3554.7404,N,01430.4232,E,1,5,1,0, M,0, M,0,*75,$GPGGA,153215.636,3554.7418,N,01430.4260,E,1,5,1,0.742664249999999, M,0, M,0,*6B,35.9123398825398,14.5070534969357,35.9123634875,14.5070994462,2,4.00,,3/28/2013 4:32:15 PM
$GPGGA,153216.650,3554.7404,N,01430.4232,E,1,5,1,0, M,0, M,0,*76,$GPGGA,153216.650,3554.7412,N,01430.4262,E,1,5,1,0.782097749999999, M,0, M,0,*63,35.9123398825398,14.5070534969357,35.9123527763,14.5071025464,2,4.00,,3/28/2013 4:32:16 PM
$GPGGA,153217.663,3554.7404,N,01430.4232,E,1,5,1,0, M,0, M,0,*77,$GPGGA,153217.663,3554.7417,N,01430.4260,E,1,5,1,0.630935999999999, M,0, M,0,*6F,35.9123398825398,14.5070534969357,35.9123619363,14.507100268,2,4.00,,3/28/2013 4:32:17 PM
$GPGGA,153218.677,3554.7404,N,01430.4232,E,1,5,1,0, M,0, M,0,*7D,$GPGGA,153218.677,3554.7418,N,01430.4255,E,1,5,1,0.361473749999999, M,0, M,0,*61,35.9123398825398,14.5070534969357,35.9123630129,14.5070924253,2,4.00,,3/28/2013 4:32:18 PM
$GPGGA,153219.692,3554.7404,N,01430.4232,E,1,5,1,0, M,0, M,0,*77,$GPGGA,153219.692,3554.7418,N,01430.4254,E,1,5,1,0.169606451612903, M,0, M,0,*65,35.9123398825398,14.5070534969357,35.9123625037,14.5070899343,2,4.00,,3/28/2013 4:32:19 PM
$GPGGA,153220.706,3554.7404,N,01430.4232,E,1,5,1,0, M,0, M,0,*71,$GPGGA,153220.706,3554.7418,N,01430.4255,E,1,5,1,-0.00657225000000052, M,0, M,0,*48,35.9123398825398,14.5070534969357,35.9123632138,14.5070915412,2,4.00,,3/28/2013 4:32:20 PM
$GPGGA,153221.720,3554.7404,N,01430.4232,E,1,5,1,0, M,0, M,0,*74,$GPGGA,153221.720,3554.7423,N,01430.4252,E,1,5,1,-0.251017548387098, M,0, M,0,*40,35.9123398825398,14.5070534969357,35.9123716605,14.5070866226,2,4.00,,3/28/2013 4:32:21 PM
$GPGGA,153222.734,3554.7404,N,01430.4232,E,1,5,1,0, M,0, M,0,*72,$GPGGA,153222.734,3554.7420,N,01430.4251,E,1,5,1,-0.571785750000001, M,0, M,0,*48,35.9123398825398,14.5070534969357,35.9123672303,14.5070846863,2,4.00,,3/28/2013 4:32:22 PM
$GPGGA,153223.747,3554.7404,N,01430.4232,E,1,5,1,0, M,0, M,0,*77,$GPGGA,153223.747,3554.7420,N,01430.4249,E,1,5,1,-0.630936, M,0, M,0,*77,35.9123398825398,14.5070534969357,35.9123662097,14.5070823375,2,4.00,,3/28/2013 4:32:23 PM
$GPGGA,153224.761,3554.7404,N,01430.4232,E,1,5,1,0, M,0, M,0,*74,$GPGGA,153224.761,3554.7420,N,01430.4248,E,1,5,1,-0.793758193548388, M,0, M,0,*4A,35.9123398825398,14.5070534969357,35.9123664287,14.5070796655,2,4.00,,3/28/2013 4:32:24 PM
$GPGGA,153225.775,3554.7404,N,01430.4232,E,1,5,1,0, M,0, M,0,*70,$GPGGA,153225.775,3554.7415,N,01430.4243,E,1,5,1,-0.875169290322582, M,0, M,0,*46,35.9123398825398,14.5070534969357,35.9123583807,14.5070711294,2,4.00,,3/28/2013 4:32:25 PM
$GPGGA,153226.789,3554.7404,N,01430.4232,E,1,5,1,0, M,0, M,0,*70,$GPGGA,153226.789,3554.7416,N,01430.4240,E,1,5,1,-1.03184325, M,0, M,0,*7E,35.9123398825398,14.5070534969357,35.9123595344,14.5070660764,2,4.00,,3/28/2013 4:32:26 PM
$GPGGA,153227.803,3554.7404,N,01430.4232,E,1,5,1,0, M,0, M,0,*7C,$GPGGA,153227.803,3554.7417,N,01430.4242,E,1,5,1,-0.9595485, M,0, M,0,*43,35.9123398825398,14.5070534969357,35.9123614434,14.5070703509,2,4.00,,3/28/2013 4:32:27 PM
$GPGGA,153228.817,3554.7404,N,01430.4232,E,1,5,1,0, M,0, M,0,*76,$GPGGA,153228.817,3554.7417,N,01430.4247,E,1,5,1,-0.766621161290324, M,0, M,0,*4F,35.9123398825398,14.5070534969357,35.9123623764,14.5070791638,2,4.00,,3/28/2013 4:32:28 PM
$GPGGA,153229.831,3554.7404,N,01430.4232,E,1,5,1,0, M,0, M,0,*73,$GPGGA,153229.831,3554.7415,N,01430.4256,E,1,5,1,-0.269462250000001, M,0, M,0,*49,35.9123398825398,14.5070534969357,35.9123585567,14.5070926361,2,4.00,,3/28/2013 4:32:29 PM
$GPGGA,153230.846,3554.7404,N,01430.4232,E,1,5,1,0, M,0, M,0,*7B,$GPGGA,153230.846,3554.7416,N,01430.4260,E,1,5,1,-0.026289000000001, M,0, M,0,*4A,35.9123398825398,14.5070534969357,35.9123601023,14.5071007893,2,4.00,,3/28/2013 4:32:30 PM
$GPGGA,153231.860,3554.7404,N,01430.4232,E,1,5,1,0, M,0, M,0,*7E,$GPGGA,153231.860,3554.7414,N,01430.4262,E,1,5,1,-0.0271370322580658, M,0, M,0,*7C,35.9123398825398,14.5070534969357,35.9123571963,14.5071040932,2,4.00,,3/28/2013 4:32:31 PM
$GPGGA,153232.874,3554.7404,N,01430.4232,E,1,5,1,0, M,0, M,0,*78,$GPGGA,153232.874,3554.7410,N,01430.4262,E,1,5,1,-0.157734000000001, M,0, M,0,*49,35.9123398825398,14.5070534969357,35.9123502792,14.5071040416,2,4.00,,3/28/2013 4:32:32 PM
$GPGGA,153233.887,3554.7404,N,01430.4232,E,1,5,1,0, M,0, M,0,*75,$GPGGA,153233.887,3554.7410,N,01430.4261,E,1,5,1,-0.345997161290324, M,0, M,0,*48,35.9123398825398,14.5070534969357,35.9123497297,14.5071020715,2,4.00,,3/28/2013 4:32:33 PM
$GPGGA,153234.901,3554.7404,N,01430.4232,E,1,5,1,0, M,0, M,0,*7D,$GPGGA,153234.901,3554.7411,N,01430.4259,E,1,5,1,-0.413839741935484, M,0, M,0,*46,35.9123398825398,14.5070534969357,35.9123513847,14.5070990959,2,4.00,,3/28/2013 4:32:34 PM
$GPGGA,153235.915,3554.7404,N,01430.4232,E,1,5,1,0, M,0, M,0,*79,$GPGGA,153235.915,3554.7411,N,01430.4258,E,1,5,1,-0.420624000000001, M,0, M,0,*45,35.9123398825398,14.5070534969357,35.9123520429,14.5070973288,2,4.00,,3/28/2013 4:32:35 PM
