GPGGA Base Position,,,,,,,,,,,,,,,GPGGA End Position,,,,,,,,,,,,,,,Base Latitude,Base Longitude,End Latitude,End Longitude,Node Count, Extra Tether Length,Node Address,X,Y,Z,Unscaled Pressure,Depth,Node Address,X,Y,Z,Unscaled Pressure,Depth,,Time
$GPGGA,145508.440,3554.7414,N,01430.4232,E,1,5,1,0, M,0, M,0,*7B,$GPGGA,145508.442,3554.7414,N,01430.4232,E,1,5,1,1.682496, M,0, M,0,*51,35.9123572106388,14.5070536523009,35.9123572106,14.5070536523,1,0.00,,3/28/2013 3:55:08 PM
$GPGGA,145509.454,3554.7414,N,01430.4232,E,1,5,1,0, M,0, M,0,*7F,$GPGGA,145509.454,3554.7414,N,01430.4232,E,1,5,1,1.66525731147541, M,0, M,0,*55,35.9123572106388,14.5070536523009,35.9123572106,14.5070536523,1,0.00,,3/28/2013 3:55:09 PM
$GPGGA,145510.468,3554.7414,N,01430.4232,E,1,5,1,0, M,0, M,0,*78,$GPGGA,145510.468,3554.7414,N,01430.4232,E,1,5,1,1.53227314285714, M,0, M,0,*5D,35.9123572106388,14.5070536523009,35.9123572106,14.5070536523,1,0.00,,3/28/2013 3:55:10 PM
$GPGGA,145511.482,3554.7414,N,01430.4232,E,1,5,1,0, M,0, M,0,*7D,$GPGGA,145511.482,3554.7414,N,01430.4232,E,1,5,1,1.472184, M,0, M,0,*5E,35.9123572106388,14.5070536523009,35.9123572106,14.5070536523,1,0.00,,3/28/2013 3:55:11 PM
$GPGGA,145512.496,3554.7414,N,01430.4232,E,1,5,1,0, M,0, M,0,*7B,$GPGGA,145512.496,3554.7414,N,01430.4232,E,1,5,1,1.4168387368421, M,0, M,0,*69,35.9123572106388,14.5070536523009,35.9123572106,14.5070536523,1,0.00,,3/28/2013 3:55:12 PM
$GPGGA,145513.510,3554.7414,N,01430.4232,E,1,5,1,0, M,0, M,0,*75,$GPGGA,145513.510,3554.7414,N,01430.4232,E,1,5,1,1.261872, M,0, M,0,*52,35.9123572106388,14.5070536523009,35.9123572106,14.5070536523,1,0.00,,3/28/2013 3:55:13 PM
$GPGGA,145514.524,3554.7414,N,01430.4232,E,1,5,1,0, M,0, M,0,*75,$GPGGA,145514.524,3554.7414,N,01430.4232,E,1,5,1,1.18385303225806, M,0, M,0,*56,35.9123572106388,14.5070536523009,35.9123572106,14.5070536523,1,0.00,,3/28/2013 3:55:14 PM
$GPGGA,145515.539,3554.7414,N,01430.4232,E,1,5,1,0, M,0, M,0,*78,$GPGGA,145515.539,3554.7416,N,01430.4238,E,1,5,1,1.05156, M,0, M,0,*68,35.9123572106388,14.5070536523009,35.9123604088,14.5070627273,2,0.00,,3/28/2013 3:55:15 PM
$GPGGA,145516.553,3554.7414,N,01430.4232,E,1,5,1,0, M,0, M,0,*77,$GPGGA,145516.553,3554.7418,N,01430.4235,E,1,5,1,1.05156, M,0, M,0,*64,35.9123572106388,14.5070536523009,35.912364019,14.5070589063,2,0.00,,3/28/2013 3:55:16 PM
$GPGGA,145517.567,3554.7414,N,01430.4232,E,1,5,1,0, M,0, M,0,*71,$GPGGA,145517.567,3554.7419,N,01430.4231,E,1,5,1,1.04477574193548, M,0, M,0,*54,35.9123572106388,14.5070536523009,35.9123641961,14.5070524551,2,0.00,,3/28/2013 3:55:17 PM
$GPGGA,145518.581,3554.7414,N,01430.4232,E,1,5,1,0, M,0, M,0,*76,$GPGGA,145518.581,3554.7415,N,01430.4226,E,1,5,1,0.956580387096774, M,0, M,0,*6C,35.9123572106388,14.5070536523009,35.912358815,14.5070436585,2,0.00,,3/28/2013 3:55:18 PM
$GPGGA,145519.594,3554.7414,N,01430.4232,E,1,5,1,0, M,0, M,0,*73,$GPGGA,145519.594,3554.7415,N,01430.4226,E,1,5,1,0.841247999999999, M,0, M,0,*6C,35.9123572106388,14.5070536523009,35.9123590406,14.5070439931,2,0.00,,3/28/2013 3:55:19 PM
$GPGGA,145520.608,3554.7414,N,01430.4232,E,1,5,1,0, M,0, M,0,*7F,$GPGGA,145520.608,3554.7418,N,01430.4228,E,1,5,1,0.841247999999999, M,0, M,0,*63,35.9123572106388,14.5070536523009,35.9123627273,14.5070460847,2,0.00,,3/28/2013 3:55:20 PM
$GPGGA,145521.622,3554.7414,N,01430.4232,E,1,5,1,0, M,0, M,0,*76,$GPGGA,145521.622,3554.7420,N,01430.4229,E,1,5,1,0.841247999999999, M,0, M,0,*60,35.9123572106388,14.5070536523009,35.9123674106,14.507048444,2,0.00,,3/28/2013 3:55:21 PM
$GPGGA,145522.636,3554.7414,N,01430.4232,E,1,5,1,0, M,0, M,0,*70,$GPGGA,145522.636,3554.7420,N,01430.4228,E,1,5,1,0.841247999999999, M,0, M,0,*67,35.9123572106388,14.5070536523009,35.9123673895,14.5070472579,2,0.00,,3/28/2013 3:55:22 PM
$GPGGA,145523.650,3554.7414,N,01430.4232,E,1,5,1,0, M,0, M,0,*71,$GPGGA,145523.650,3554.7420,N,01430.4228,E,1,5,1,0.657224999999999, M,0, M,0,*6A,35.9123572106388,14.5070536523009,35.9123670059,14.5070460434,2,0.00,,3/28/2013 3:55:23 PM
$GPGGA,145524.664,3554.7414,N,01430.4232,E,1,5,1,0, M,0, M,0,*71,$GPGGA,145524.664,3554.7420,N,01430.4227,E,1,5,1,0.420624, M,0, M,0,*5A,35.9123572106388,14.5070536523009,35.91236683,14.5070451404,2,0.00,,3/28/2013 3:55:24 PM
$GPGGA,145525.678,3554.7414,N,01430.4232,E,1,5,1,0, M,0, M,0,*7D,$GPGGA,145525.678,3554.7420,N,01430.4228,E,1,5,1,0.28260675, M,0, M,0,*55,35.9123572106388,14.5070536523009,35.912367096,14.5070462299,2,0.00,,3/28/2013 3:55:25 PM
$GPGGA,145526.692,3554.7414,N,01430.4232,E,1,5,1,0, M,0, M,0,*7A,$GPGGA,145526.692,3554.7420,N,01430.4227,E,1,5,1,0.26946225, M,0, M,0,*5D,35.9123572106388,14.5070536523009,35.9123671965,14.5070446407,2,0.00,,3/28/2013 3:55:26 PM
$GPGGA,145527.706,3554.7414,N,01430.4232,E,1,5,1,0, M,0, M,0,*77,$GPGGA,145527.706,3554.7421,N,01430.4227,E,1,5,1,0.583446193548386, M,0, M,0,*6C,35.9123572106388,14.5070536523009,35.9123688044,14.5070452691,2,0.00,,3/28/2013 3:55:27 PM
$GPGGA,145528.721,3554.7414,N,01430.4232,E,1,5,1,0, M,0, M,0,*7D,$GPGGA,145528.721,3554.7421,N,01430.4226,E,1,5,1,0.841247999999999, M,0, M,0,*65,35.9123572106388,14.5070536523009,35.9123677729,14.5070434162,2,0.00,,3/28/2013 3:55:28 PM
$GPGGA,145529.735,3554.7414,N,01430.4232,E,1,5,1,0, M,0, M,0,*79,$GPGGA,145529.735,3554.7420,N,01430.4226,E,1,5,1,1.025271, M,0, M,0,*57,35.9123572106388,14.5070536523009,35.9123671908,14.5070427559,2,0.00,,3/28/2013 3:55:29 PM
$GPGGA,145530.749,3554.7414,N,01430.4232,E,1,5,1,0, M,0, M,0,*7A,$GPGGA,145530.749,3554.7420,N,01430.4225,E,1,5,1,1.05156, M,0, M,0,*63,35.9123572106388,14.5070536523009,35.9123659086,14.507041462,2,0.00,,3/28/2013 3:55:30 PM
$GPGGA,145531.762,3554.7414,N,01430.4232,E,1,5,1,0, M,0, M,0,*72,$GPGGA,145531.762,3554.7418,N,01430.4224,E,1,5,1,1.16290164705882, M,0, M,0,*59,35.9123572106388,14.5070536523009,35.9123639364,14.5070403632,2,0.00,,3/28/2013 3:55:31 PM
$GPGGA,145532.777,3554.7414,N,01430.4232,E,1,5,1,0, M,0, M,0,*75,$GPGGA,145532.777,3554.7418,N,01430.4224,E,1,5,1,1.26844425, M,0, M,0,*5E,35.9123572106388,14.5070536523009,35.9123637336,14.5070399179,2,0.00,,3/28/2013 3:55:32 PM
$GPGGA,145533.790,3554.7414,N,01430.4232,E,1,5,1,0, M,0, M,0,*7D,$GPGGA,145533.790,3554.7420,N,01430.4225,E,1,5,1,1.22795070967742, M,0, M,0,*56,35.9123572106388,14.5070536523009,35.9123671406,14.5070423438,2,0.00,,3/28/2013 3:55:33 PM
$GPGGA,145534.805,3554.7414,N,01430.4232,E,1,5,1,0, M,0, M,0,*79,$GPGGA,145534.805,3554.7421,N,01430.4226,E,1,5,1,1.15308993103448, M,0, M,0,*53,35.9123572106388,14.5070536523009,35.9123675756,14.5070428407,2,0.00,,3/28/2013 3:55:34 PM
$GPGGA,145535.818,3554.7414,N,01430.4232,E,1,5,1,0, M,0, M,0,*74,$GPGGA,145535.818,3554.7420,N,01430.4225,E,1,5,1,1.261872, M,0, M,0,*52,35.9123572106388,14.5070536523009,35.9123660336,14.5070412223,2,0.00,,3/28/2013 3:55:35 PM
$GPGGA,145536.832,3554.7414,N,01430.4232,E,1,5,1,0, M,0, M,0,*7F,$GPGGA,145536.832,3554.7419,N,01430.4224,E,1,5,1,1.261872, M,0, M,0,*52,35.9123572106388,14.5070536523009,35.9123649808,14.507040553,2,0.00,,3/28/2013 3:55:36 PM
$GPGGA,145537.846,3554.7414,N,01430.4232,E,1,5,1,0, M,0, M,0,*7D,$GPGGA,145537.846,3554.7419,N,01430.4224,E,1,5,1,1.30538482758621, M,0, M,0,*54,35.9123572106388,14.5070536523009,35.9123654794,14.5070407537,2,0.00,,3/28/2013 3:55:37 PM
$GPGGA,145538.860,3554.7414,N,01430.4232,E,1,5,1,0, M,0, M,0,*76,$GPGGA,145538.860,3554.7420,N,01430.4225,E,1,5,1,1.261872, M,0, M,0,*50,35.9123572106388,14.5070536523009,35.912366714,14.5070417171,2,0.00,,3/28/2013 3:55:38 PM
$GPGGA,145539.875,3554.7414,N,01430.4232,E,1,5,1,0, M,0, M,0,*73,$GPGGA,145539.875,3554.7420,N,01430.4225,E,1,5,1,1.261872, M,0, M,0,*55,35.9123572106388,14.5070536523009,35.9123671571,14.5070422729,2,0.00,,3/28/2013 3:55:39 PM
$GPGGA,145540.888,3554.7414,N,01430.4232,E,1,5,1,0, M,0, M,0,*7F,$GPGGA,145540.888,3554.7420,N,01430.4224,E,1,5,1,1.261872, M,0, M,0,*58,35.9123572106388,14.5070536523009,35.9123659273,14.5070406962,2,0.00,,3/28/2013 3:55:40 PM
$GPGGA,145541.902,3554.7414,N,01430.4232,E,1,5,1,0, M,0, M,0,*7D,$GPGGA,145541.902,3554.7419,N,01430.4224,E,1,5,1,1.261872, M,0, M,0,*50,35.9123572106388,14.5070536523009,35.9123656489,14.5070404776,2,0.00,,3/28/2013 3:55:41 PM
$GPGGA,145542.916,3554.7414,N,01430.4232,E,1,5,1,0, M,0, M,0,*7B,$GPGGA,145542.916,3554.7420,N,01430.4225,E,1,5,1,1.261872, M,0, M,0,*5D,35.9123572106388,14.5070536523009,35.9123663346,14.5070412537,2,0.00,,3/28/2013 3:55:42 PM
$GPGGA,145543.930,3554.7414,N,01430.4232,E,1,5,1,0, M,0, M,0,*7E,$GPGGA,145543.930,3554.7418,N,01430.4223,E,1,5,1,1.27637627586207, M,0, M,0,*57,35.9123572106388,14.5070536523009,35.91236372,14.507038885,2,0.00,,3/28/2013 3:55:43 PM
$GPGGA,145544.944,3554.7414,N,01430.4232,E,1,5,1,0, M,0, M,0,*7A,$GPGGA,145544.944,3554.7418,N,01430.4223,E,1,5,1,1.28222477419355, M,0, M,0,*5A,35.9123572106388,14.5070536523009,35.9123634903,14.507038741,2,0.00,,3/28/2013 3:55:44 PM
$GPGGA,145545.958,3554.7414,N,01430.4232,E,1,5,1,0, M,0, M,0,*76,$GPGGA,145545.958,3554.7419,N,01430.4224,E,1,5,1,1.261872, M,0, M,0,*5B,35.9123572106388,14.5070536523009,35.9123641863,14.5070391931,2,0.00,,3/28/2013 3:55:45 PM
$GPGGA,145546.972,3554.7414,N,01430.4232,E,1,5,1,0, M,0, M,0,*7D,$GPGGA,145546.972,3554.7421,N,01430.4218,E,1,5,1,1.130427, M,0, M,0,*5F,35.9123572106388,14.5070536523009,35.9123679238,14.5070302143,2,1.00,,3/28/2013 3:55:46 PM
$GPGGA,145547.986,3554.7414,N,01430.4232,E,1,5,1,0, M,0, M,0,*77,$GPGGA,145547.986,3554.7422,N,01430.4213,E,1,5,1,0.99240975, M,0, M,0,*52,35.9123572106388,14.5070536523009,35.9123695737,14.5070223556,2,2.00,,3/28/2013 3:55:47 PM
$GPGGA,145549.000,3554.7414,N,01430.4232,E,1,5,1,0, M,0, M,0,*7E,$GPGGA,145549.000,3554.7421,N,01430.4209,E,1,5,1,0.771143999999999, M,0, M,0,*60,35.9123572106388,14.5070536523009,35.9123687614,14.5070152956,2,4.00,,3/28/2013 3:55:49 PM
$GPGGA,145550.016,3554.7414,N,01430.4232,E,1,5,1,0, M,0, M,0,*71,$GPGGA,145550.016,3554.7420,N,01430.4207,E,1,5,1,0.594675310344828, M,0, M,0,*61,35.9123572106388,14.5070536523009,35.9123662311,14.5070123073,2,4.00,,3/28/2013 3:55:50 PM
$GPGGA,145551.030,3554.7414,N,01430.4232,E,1,5,1,0, M,0, M,0,*74,$GPGGA,145551.030,3554.7419,N,01430.4206,E,1,5,1,0.427876137931035, M,0, M,0,*60,35.9123572106388,14.5070536523009,35.9123652324,14.5070100801,2,5.00,,3/28/2013 3:55:51 PM
$GPGGA,145552.044,3554.7414,N,01430.4232,E,1,5,1,0, M,0, M,0,*74,$GPGGA,145552.044,3554.7422,N,01430.4211,E,1,5,1,0.249745499999999, M,0, M,0,*63,35.9123572106388,14.5070536523009,35.912370781,14.5070190044,2,5.00,,3/28/2013 3:55:52 PM
$GPGGA,145553.056,3554.7414,N,01430.4232,E,1,5,1,0, M,0, M,0,*76,$GPGGA,145553.056,3554.7423,N,01430.4214,E,1,5,1,0.0542740645161284, M,0, M,0,*57,35.9123572106388,14.5070536523009,35.9123711262,14.507022841,2,5.00,,3/28/2013 3:55:53 PM
$GPGGA,145554.070,3554.7414,N,01430.4232,E,1,5,1,0, M,0, M,0,*75,$GPGGA,145554.070,3554.7421,N,01430.4212,E,1,5,1,0.0262889999999999, M,0, M,0,*59,35.9123572106388,14.5070536523009,35.9123675054,14.5070191965,2,5.00,,3/28/2013 3:55:54 PM
$GPGGA,145555.085,3554.7414,N,01430.4232,E,1,5,1,0, M,0, M,0,*7E,$GPGGA,145555.085,3554.7418,N,01430.4213,E,1,5,1,-0.13801725, M,0, M,0,*79,35.9123572106388,14.5070536523009,35.9123630938,14.5070221889,2,5.00,,3/28/2013 3:55:55 PM
$GPGGA,145556.098,3554.7414,N,01430.4232,E,1,5,1,0, M,0, M,0,*71,$GPGGA,145556.098,3554.7417,N,01430.4213,E,1,5,1,-0.210312, M,0, M,0,*71,35.9123572106388,14.5070536523009,35.9123622468,14.5070222384,2,5.00,,3/28/2013 3:55:56 PM
$GPGGA,145557.112,3554.7414,N,01430.4232,E,1,5,1,0, M,0, M,0,*73,$GPGGA,145557.112,3554.7416,N,01430.4211,E,1,5,1,-0.210312, M,0, M,0,*70,35.9123572106388,14.5070536523009,35.9123607775,14.5070188813,2,5.00,,3/28/2013 3:55:57 PM
$GPGGA,145558.126,3554.7414,N,01430.4232,E,1,5,1,0, M,0, M,0,*7B,$GPGGA,145558.126,3554.7418,N,01430.4213,E,1,5,1,-0.0881953548387107, M,0, M,0,*7A,35.9123572106388,14.5070536523009,35.9123635708,14.5070211833,2,5.00,,3/28/2013 3:55:58 PM
$GPGGA,145559.140,3554.7414,N,01430.4232,E,1,5,1,0, M,0, M,0,*7A,$GPGGA,145559.140,3554.7423,N,01430.4212,E,1,5,1,0.00657224999999944, M,0, M,0,*6B,35.9123572106388,14.5070536523009,35.9123719534,14.5070193398,2,5.00,,3/28/2013 3:55:59 PM
$GPGGA,145600.154,3554.7414,N,01430.4232,E,1,5,1,0, M,0, M,0,*70,$GPGGA,145600.154,3554.7428,N,01430.4208,E,1,5,1,0.284938838709676, M,0, M,0,*6E,35.9123572106388,14.5070536523009,35.9123802315,14.5070138513,2,5.00,,3/28/2013 3:56:00 PM
$GPGGA,145601.168,3554.7414,N,01430.4232,E,1,5,1,0, M,0, M,0,*7E,$GPGGA,145601.168,3554.7427,N,01430.4200,E,1,5,1,0.663797249999999, M,0, M,0,*64,35.9123572106388,14.5070536523009,35.9123780881,14.5070006087,2,5.00,,3/28/2013 3:56:01 PM
$GPGGA,145602.182,3554.7414,N,01430.4232,E,1,5,1,0, M,0, M,0,*79,$GPGGA,145602.182,3554.7424,N,01430.4197,E,1,5,1,0.93983175, M,0, M,0,*53,35.9123572106388,14.5070536523009,35.9123725791,14.5069941676,2,5.00,,3/28/2013 3:56:02 PM
$GPGGA,145603.196,3554.7414,N,01430.4232,E,1,5,1,0, M,0, M,0,*7D,$GPGGA,145603.196,3554.7425,N,01430.4196,E,1,5,1,1.2750165, M,0, M,0,*6F,35.9123572106388,14.5070536523009,35.9123757884,14.5069929502,2,5.00,,3/28/2013 3:56:03 PM
$GPGGA,145604.210,3554.7414,N,01430.4232,E,1,5,1,0, M,0, M,0,*77,$GPGGA,145604.210,3554.7427,N,01430.4195,E,1,5,1,1.47875625, M,0, M,0,*5E,35.9123572106388,14.5070536523009,35.9123783548,14.5069919005,2,5.00,,3/28/2013 3:56:04 PM
$GPGGA,145605.224,3554.7414,N,01430.4232,E,1,5,1,0, M,0, M,0,*71,$GPGGA,145605.224,3554.7425,N,01430.4193,E,1,5,1,1.629918, M,0, M,0,*59,35.9123572106388,14.5070536523009,35.9123749482,14.5069883953,2,5.00,,3/28/2013 3:56:05 PM
$GPGGA,145606.238,3554.7414,N,01430.4232,E,1,5,1,0, M,0, M,0,*7F,$GPGGA,145606.238,3554.7424,N,01430.4193,E,1,5,1,1.682496, M,0, M,0,*5C,35.9123572106388,14.5070536523009,35.9123725436,14.5069876487,2,5.00,,3/28/2013 3:56:06 PM
$GPGGA,145607.252,3554.7414,N,01430.4232,E,1,5,1,0, M,0, M,0,*72,$GPGGA,145607.252,3554.7430,N,01430.4195,E,1,5,1,1.682496, M,0, M,0,*52,35.9123572106388,14.5070536523009,35.9123826781,14.5069912903,2,5.00,,3/28/2013 3:56:07 PM
$GPGGA,145608.268,3554.7414,N,01430.4232,E,1,5,1,0, M,0, M,0,*74,$GPGGA,145608.268,3554.7418,N,01430.4196,E,1,5,1,1.682496, M,0, M,0,*5D,35.9123572106388,14.5070536523009,35.9123635801,14.5069932476,2,5.00,,3/28/2013 3:56:08 PM
$GPGGA,145609.281,3554.7414,N,01430.4232,E,1,5,1,0, M,0, M,0,*72,$GPGGA,145609.281,3554.7432,N,01430.4188,E,1,5,1,1.67498485714286, M,0, M,0,*58,35.9123572106388,14.5070536523009,35.912386889,14.5069801901,3,0.00,,3/28/2013 3:56:09 PM
$GPGGA,145610.295,3554.7414,N,01430.4232,E,1,5,1,0, M,0, M,0,*7F,$GPGGA,145610.295,3554.7431,N,01430.4189,E,1,5,1,1.65245142857143, M,0, M,0,*5F,35.9123572106388,14.5070536523009,35.9123853795,14.5069811574,3,0.00,,3/28/2013 3:56:10 PM
$GPGGA,145611.309,3554.7414,N,01430.4232,E,1,5,1,0, M,0, M,0,*7A,$GPGGA,145611.309,3554.7425,N,01430.4186,E,1,5,1,1.472184, M,0, M,0,*57,35.9123572106388,14.5070536523009,35.9123746699,14.5069763212,3,0.00,,3/28/2013 3:56:11 PM
$GPGGA,145612.322,3554.7414,N,01430.4232,E,1,5,1,0, M,0, M,0,*70,$GPGGA,145612.322,3554.7414,N,01430.4183,E,1,5,1,1.56231771428571, M,0, M,0,*59,35.9123572106388,14.5070536523009,35.9123571554,14.5069713669,3,0.00,,3/28/2013 3:56:12 PM
$GPGGA,145613.336,3554.7414,N,01430.4232,E,1,5,1,0, M,0, M,0,*74,$GPGGA,145613.336,3554.7414,N,01430.4183,E,1,5,1,1.682496, M,0, M,0,*55,35.9123572106388,14.5070536523009,35.9123569584,14.5069716609,3,0.00,,3/28/2013 3:56:13 PM
$GPGGA,145614.350,3554.7414,N,01430.4232,E,1,5,1,0, M,0, M,0,*73,$GPGGA,145614.350,3554.7415,N,01430.4183,E,1,5,1,1.682496, M,0, M,0,*53,35.9123572106388,14.5070536523009,35.9123580822,14.5069719428,3,0.00,,3/28/2013 3:56:14 PM
$GPGGA,145615.364,3554.7414,N,01430.4232,E,1,5,1,0, M,0, M,0,*75,$GPGGA,145615.364,3554.7424,N,01430.4178,E,1,5,1,1.67248114285714, M,0, M,0,*52,35.9123572106388,14.5070536523009,35.9123738133,14.5069628623,3,1.00,,3/28/2013 3:56:15 PM
$GPGGA,145616.378,3554.7414,N,01430.4232,E,1,5,1,0, M,0, M,0,*7B,$GPGGA,145616.378,3554.7419,N,01430.4170,E,1,5,1,1.682496, M,0, M,0,*5B,35.9123572106388,14.5070536523009,35.9123641718,14.5069499809,3,2.00,,3/28/2013 3:56:16 PM
$GPGGA,145617.392,3554.7414,N,01430.4232,E,1,5,1,0, M,0, M,0,*7E,$GPGGA,145617.392,3554.7430,N,01430.4172,E,1,5,1,1.63242171428571, M,0, M,0,*5B,35.9123572106388,14.5070536523009,35.9123836324,14.5069535942,3,2.00,,3/28/2013 3:56:17 PM
$GPGGA,145618.406,3554.7414,N,01430.4232,E,1,5,1,0, M,0, M,0,*7B,$GPGGA,145618.406,3554.7421,N,01430.4169,E,1,5,1,1.472184, M,0, M,0,*53,35.9123572106388,14.5070536523009,35.9123687005,14.5069485829,3,2.00,,3/28/2013 3:56:18 PM
$GPGGA,145619.420,3554.7414,N,01430.4232,E,1,5,1,0, M,0, M,0,*7E,$GPGGA,145619.420,3554.7417,N,01430.4169,E,1,5,1,1.46262436363636, M,0, M,0,*5F,35.9123572106388,14.5070536523009,35.9123620905,14.5069481658,3,2.00,,3/28/2013 3:56:19 PM
$GPGGA,145620.434,3554.7414,N,01430.4232,E,1,5,1,0, M,0, M,0,*71,$GPGGA,145620.434,3554.7419,N,01430.4169,E,1,5,1,1.20451418181818, M,0, M,0,*58,35.9123572106388,14.5070536523009,35.9123647465,14.5069481593,3,2.00,,3/28/2013 3:56:20 PM
$GPGGA,145621.448,3554.7414,N,01430.4232,E,1,5,1,0, M,0, M,0,*7B,$GPGGA,145621.448,3554.7414,N,01430.4169,E,1,5,1,1.03153028571429, M,0, M,0,*5B,35.9123572106388,14.5070536523009,35.9123559784,14.5069481887,3,2.00,,3/28/2013 3:56:21 PM
$GPGGA,145622.462,3554.7414,N,01430.4232,E,1,5,1,0, M,0, M,0,*70,$GPGGA,145622.462,3554.7412,N,01430.4162,E,1,5,1,0.8517636, M,0, M,0,*66,35.9123572106388,14.5070536523009,35.9123529152,14.5069371767,3,3.00,,3/28/2013 3:56:22 PM
$GPGGA,145623.476,3554.7414,N,01430.4232,E,1,5,1,0, M,0, M,0,*74,$GPGGA,145623.476,3554.7411,N,01430.4162,E,1,5,1,0.851262857142857, M,0, M,0,*64,35.9123572106388,14.5070536523009,35.9123518987,14.5069374141,3,3.00,,3/28/2013 3:56:23 PM
$GPGGA,145624.490,3554.7414,N,01430.4232,E,1,5,1,0, M,0, M,0,*7B,$GPGGA,145624.490,3554.7411,N,01430.4162,E,1,5,1,0.971441142857143, M,0, M,0,*63,35.9123572106388,14.5070536523009,35.9123513135,14.5069368749,3,3.00,,3/28/2013 3:56:24 PM
$GPGGA,145625.505,3554.7414,N,01430.4232,E,1,5,1,0, M,0, M,0,*77,$GPGGA,145625.505,3554.7406,N,01430.4156,E,1,5,1,1.1251692, M,0, M,0,*60,35.9123572106388,14.5070536523009,35.9123440589,14.5069273733,3,4.00,,3/28/2013 3:56:25 PM
$GPGGA,145626.519,3554.7414,N,01430.4232,E,1,5,1,0, M,0, M,0,*79,$GPGGA,145626.519,3554.7410,N,01430.4149,E,1,5,1,1.261872, M,0, M,0,*55,35.9123572106388,14.5070536523009,35.9123497207,14.5069148024,3,5.00,,3/28/2013 3:56:26 PM
$GPGGA,145627.533,3554.7414,N,01430.4232,E,1,5,1,0, M,0, M,0,*70,$GPGGA,145627.533,3554.7401,N,01430.4151,E,1,5,1,1.542288, M,0, M,0,*5C,35.9123572106388,14.5070536523009,35.9123348945,14.5069181244,3,5.00,,3/28/2013 3:56:27 PM
$GPGGA,145628.547,3554.7414,N,01430.4232,E,1,5,1,0, M,0, M,0,*7C,$GPGGA,145628.547,3554.7408,N,01430.4149,E,1,5,1,1.55230285714286, M,0, M,0,*51,35.9123572106388,14.5070536523009,35.9123462509,14.5069152781,3,5.00,,3/28/2013 3:56:28 PM
$GPGGA,145629.561,3554.7414,N,01430.4232,E,1,5,1,0, M,0, M,0,*79,$GPGGA,145629.561,3554.7406,N,01430.4149,E,1,5,1,1.56231771428571, M,0, M,0,*55,35.9123572106388,14.5070536523009,35.9123430308,14.5069156682,3,5.00,,3/28/2013 3:56:29 PM
$GPGGA,145630.575,3554.7414,N,01430.4232,E,1,5,1,0, M,0, M,0,*74,$GPGGA,145630.575,3554.7412,N,01430.4182,E,1,5,1,1.63242171428571, M,0, M,0,*5E,35.9123572106388,14.5070536523009,35.912352909,14.5069701905,4,0.00,,3/28/2013 3:56:30 PM
$GPGGA,145631.588,3554.7414,N,01430.4232,E,1,5,1,0, M,0, M,0,*77,$GPGGA,145631.588,3554.7421,N,01430.4134,E,1,5,1,1.57734, M,0, M,0,*69,35.9123572106388,14.5070536523009,35.9123675409,14.506890335,4,0.00,,3/28/2013 3:56:31 PM
$GPGGA,145632.602,3554.7414,N,01430.4232,E,1,5,1,0, M,0, M,0,*75,$GPGGA,145632.602,3554.7422,N,01430.4134,E,1,5,1,1.656207, M,0, M,0,*5A,35.9123572106388,14.5070536523009,35.9123695769,14.5068903073,4,1.00,,3/28/2013 3:56:32 PM
$GPGGA,145633.616,3554.7414,N,01430.4232,E,1,5,1,0, M,0, M,0,*71,$GPGGA,145633.616,3554.7427,N,01430.4129,E,1,5,1,1.551051, M,0, M,0,*52,35.9123572106388,14.5070536523009,35.9123783359,14.5068823136,4,1.00,,3/28/2013 3:56:33 PM
$GPGGA,145634.630,3554.7414,N,01430.4232,E,1,5,1,0, M,0, M,0,*72,$GPGGA,145634.630,3554.7429,N,01430.4123,E,1,5,1,1.4853285, M,0, M,0,*65,35.9123572106388,14.5070536523009,35.9123822702,14.5068711758,4,2.00,,3/28/2013 3:56:34 PM
$GPGGA,145635.644,3554.7414,N,01430.4232,E,1,5,1,0, M,0, M,0,*70,$GPGGA,145635.644,3554.7435,N,01430.4123,E,1,5,1,1.524762, M,0, M,0,*5F,35.9123572106388,14.5070536523009,35.912391033,14.5068723505,4,2.00,,3/28/2013 3:56:35 PM
$GPGGA,145636.658,3554.7414,N,01430.4232,E,1,5,1,0, M,0, M,0,*7E,$GPGGA,145636.658,3554.7420,N,01430.4113,E,1,5,1,1.682496, M,0, M,0,*51,35.9123572106388,14.5070536523009,35.9123665233,14.5068556347,4,3.00,,3/28/2013 3:56:36 PM
$GPGGA,145637.672,3554.7414,N,01430.4232,E,1,5,1,0, M,0, M,0,*77,$GPGGA,145637.672,3554.7430,N,01430.4115,E,1,5,1,1.5116175, M,0, M,0,*68,35.9123572106388,14.5070536523009,35.9123834667,14.5068575067,4,3.00,,3/28/2013 3:56:37 PM
$GPGGA,145638.686,3554.7414,N,01430.4232,E,1,5,1,0, M,0, M,0,*73,$GPGGA,145638.686,3554.7433,N,01430.4110,E,1,5,1,1.472184, M,0, M,0,*56,35.9123572106388,14.5070536523009,35.9123879932,14.5068496762,4,4.00,,3/28/2013 3:56:38 PM
$GPGGA,145639.700,3554.7414,N,01430.4232,E,1,5,1,0, M,0, M,0,*7D,$GPGGA,145639.700,3554.7429,N,01430.4107,E,1,5,1,1.472184, M,0, M,0,*55,35.9123572106388,14.5070536523009,35.9123822615,14.5068450503,4,4.00,,3/28/2013 3:56:39 PM
$GPGGA,145640.714,3554.7414,N,01430.4232,E,1,5,1,0, M,0, M,0,*76,$GPGGA,145640.714,3554.7426,N,01430.4100,E,1,5,1,1.5379065, M,0, M,0,*61,35.9123572106388,14.5070536523009,35.9123759571,14.506833987,4,5.00,,3/28/2013 3:56:40 PM
$GPGGA,145641.728,3554.7414,N,01430.4232,E,1,5,1,0, M,0, M,0,*78,$GPGGA,145641.728,3554.7431,N,01430.4105,E,1,5,1,1.603629, M,0, M,0,*5F,35.9123572106388,14.5070536523009,35.9123845062,14.5068412017,4,5.00,,3/28/2013 3:56:41 PM
$GPGGA,145642.743,3554.7414,N,01430.4232,E,1,5,1,0, M,0, M,0,*76,$GPGGA,145642.743,3554.7430,N,01430.4135,E,1,5,1,1.3538835, M,0, M,0,*68,35.9123572106388,14.5070536523009,35.9123840924,14.5068911659,5,0.00,,3/28/2013 3:56:42 PM
$GPGGA,145643.757,3554.7414,N,01430.4232,E,1,5,1,0, M,0, M,0,*72,$GPGGA,145643.757,3554.7437,N,01430.4085,E,1,5,1,1.472184, M,0, M,0,*5E,35.9123572106388,14.5070536523009,35.9123947257,14.5068076614,5,0.00,,3/28/2013 3:56:43 PM
$GPGGA,145644.771,3554.7414,N,01430.4232,E,1,5,1,0, M,0, M,0,*71,$GPGGA,145644.771,3554.7431,N,01430.4084,E,1,5,1,1.472184, M,0, M,0,*5A,35.9123572106388,14.5070536523009,35.9123855952,14.5068060276,5,0.00,,3/28/2013 3:56:44 PM
$GPGGA,145645.785,3554.7414,N,01430.4232,E,1,5,1,0, M,0, M,0,*7B,$GPGGA,145645.785,3554.7427,N,01430.4083,E,1,5,1,1.472184, M,0, M,0,*50,35.9123572106388,14.5070536523009,35.9123787615,14.5068056801,5,0.00,,3/28/2013 3:56:45 PM
$GPGGA,145646.799,3554.7414,N,01430.4232,E,1,5,1,0, M,0, M,0,*75,$GPGGA,145646.799,3554.7432,N,01430.4077,E,1,5,1,1.37511692307692, M,0, M,0,*58,35.9123572106388,14.5070536523009,35.912386579,14.5067951296,5,1.00,,3/28/2013 3:56:46 PM
$GPGGA,145647.813,3554.7414,N,01430.4232,E,1,5,1,0, M,0, M,0,*79,$GPGGA,145647.813,3554.7433,N,01430.4070,E,1,5,1,1.42365046153846, M,0, M,0,*5E,35.9123572106388,14.5070536523009,35.9123889429,14.5067825653,5,2.00,,3/28/2013 3:56:47 PM
$GPGGA,145648.827,3554.7414,N,01430.4232,E,1,5,1,0, M,0, M,0,*71,$GPGGA,145648.827,3554.7425,N,01430.4069,E,1,5,1,1.472184, M,0, M,0,*5C,35.9123572106388,14.5070536523009,35.912374268,14.5067812927,5,2.00,,3/28/2013 3:56:48 PM
$GPGGA,145649.841,3554.7414,N,01430.4232,E,1,5,1,0, M,0, M,0,*70,$GPGGA,145649.841,3554.7428,N,01430.4069,E,1,5,1,1.472184, M,0, M,0,*50,35.9123572106388,14.5070536523009,35.9123796362,14.5067812336,5,2.00,,3/28/2013 3:56:49 PM
$GPGGA,145650.855,3554.7414,N,01430.4232,E,1,5,1,0, M,0, M,0,*7D,$GPGGA,145650.855,3554.7437,N,01430.4071,E,1,5,1,1.472184, M,0, M,0,*5A,35.9123572106388,14.5070536523009,35.9123957612,14.5067855354,5,2.00,,3/28/2013 3:56:50 PM
$GPGGA,145651.868,3554.7414,N,01430.4232,E,1,5,1,0, M,0, M,0,*72,$GPGGA,145651.868,3554.7438,N,01430.4067,E,1,5,1,1.58542892307692, M,0, M,0,*55,35.9123572106388,14.5070536523009,35.9123959062,14.5067788937,5,3.00,,3/28/2013 3:56:51 PM
$GPGGA,145652.882,3554.7414,N,01430.4232,E,1,5,1,0, M,0, M,0,*75,$GPGGA,145652.882,3554.7446,N,01430.4069,E,1,5,1,1.56925107692308, M,0, M,0,*5C,35.9123572106388,14.5070536523009,35.9124099998,14.5067809357,5,3.00,,3/28/2013 3:56:52 PM
$GPGGA,145653.896,3554.7414,N,01430.4232,E,1,5,1,0, M,0, M,0,*71,$GPGGA,145653.896,3554.7433,N,01430.4064,E,1,5,1,1.42365046153846, M,0, M,0,*53,35.9123572106388,14.5070536523009,35.9123885646,14.5067731715,5,3.00,,3/28/2013 3:56:53 PM
$GPGGA,145654.910,3554.7414,N,01430.4232,E,1,5,1,0, M,0, M,0,*79,$GPGGA,145654.910,3554.7420,N,01430.4063,E,1,5,1,1.472184, M,0, M,0,*5B,35.9123572106388,14.5070536523009,35.9123668478,14.5067708991,5,3.00,,3/28/2013 3:56:54 PM
$GPGGA,145655.924,3554.7414,N,01430.4232,E,1,5,1,0, M,0, M,0,*7F,$GPGGA,145655.924,3554.7418,N,01430.4062,E,1,5,1,1.472184, M,0, M,0,*57,35.9123572106388,14.5070536523009,35.9123626759,14.5067705629,5,3.00,,3/28/2013 3:56:55 PM
$GPGGA,145656.938,3554.7414,N,01430.4232,E,1,5,1,0, M,0, M,0,*71,$GPGGA,145656.938,3554.7418,N,01430.4062,E,1,5,1,1.472184, M,0, M,0,*59,35.9123572106388,14.5070536523009,35.9123639906,14.5067705681,5,3.00,,3/28/2013 3:56:56 PM
$GPGGA,145657.952,3554.7414,N,01430.4232,E,1,5,1,0, M,0, M,0,*7C,$GPGGA,145657.952,3554.7414,N,01430.4062,E,1,5,1,1.42365046153846, M,0, M,0,*5D,35.9123572106388,14.5070536523009,35.9123562512,14.5067693254,5,3.00,,3/28/2013 3:56:57 PM
$GPGGA,145658.966,3554.7414,N,01430.4232,E,1,5,1,0, M,0, M,0,*74,$GPGGA,145658.966,3554.7412,N,01430.4062,E,1,5,1,1.34276123076923, M,0, M,0,*57,35.9123572106388,14.5070536523009,35.9123533547,14.5067701961,5,3.00,,3/28/2013 3:56:58 PM
$GPGGA,145659.981,3554.7414,N,01430.4232,E,1,5,1,0, M,0, M,0,*7C,$GPGGA,145659.981,3554.7420,N,01430.4063,E,1,5,1,1.35893907692308, M,0, M,0,*5E,35.9123572106388,14.5070536523009,35.9123673947,14.5067713596,5,3.00,,3/28/2013 3:56:59 PM
$GPGGA,145700.995,3554.7414,N,01430.4232,E,1,5,1,0, M,0, M,0,*74,$GPGGA,145700.995,3554.7423,N,01430.4062,E,1,5,1,1.45600615384615, M,0, M,0,*50,35.9123572106388,14.5070536523009,35.9123722004,14.5067698172,5,3.00,,3/28/2013 3:57:00 PM
$GPGGA,145702.009,3554.7414,N,01430.4232,E,1,5,1,0, M,0, M,0,*7A,$GPGGA,145702.009,3554.7421,N,01430.4062,E,1,5,1,1.34276123076923, M,0, M,0,*59,35.9123572106388,14.5070536523009,35.9123689499,14.5067693993,5,3.00,,3/28/2013 3:57:02 PM
$GPGGA,145703.023,3554.7414,N,01430.4232,E,1,5,1,0, M,0, M,0,*73,$GPGGA,145703.023,3554.7415,N,01430.4062,E,1,5,1,1.40747261538461, M,0, M,0,*52,35.9123572106388,14.5070536523009,35.9123578249,14.5067693508,5,3.00,,3/28/2013 3:57:03 PM
$GPGGA,145704.037,3554.7414,N,01430.4232,E,1,5,1,0, M,0, M,0,*71,$GPGGA,145704.037,3554.7413,N,01430.4062,E,1,5,1,1.42365046153846, M,0, M,0,*57,35.9123572106388,14.5070536523009,35.9123547144,14.5067702814,5,3.00,,3/28/2013 3:57:04 PM
$GPGGA,145705.051,3554.7414,N,01430.4232,E,1,5,1,0, M,0, M,0,*70,$GPGGA,145705.051,3554.7415,N,01430.4063,E,1,5,1,1.40747261538461, M,0, M,0,*50,35.9123572106388,14.5070536523009,35.9123588385,14.5067711014,5,3.00,,3/28/2013 3:57:05 PM
$GPGGA,145706.065,3554.7414,N,01430.4232,E,1,5,1,0, M,0, M,0,*74,$GPGGA,145706.065,3554.7411,N,01430.4063,E,1,5,1,1.39129476923077, M,0, M,0,*55,35.9123572106388,14.5070536523009,35.912351587,14.5067709252,5,3.00,,3/28/2013 3:57:06 PM
$GPGGA,145707.079,3554.7414,N,01430.4232,E,1,5,1,0, M,0, M,0,*78,$GPGGA,145707.079,3554.7414,N,01430.4063,E,1,5,1,1.42365046153846, M,0, M,0,*58,35.9123572106388,14.5070536523009,35.9123567827,14.5067716179,5,3.00,,3/28/2013 3:57:07 PM
$GPGGA,145708.093,3554.7414,N,01430.4232,E,1,5,1,0, M,0, M,0,*73,$GPGGA,145708.093,3554.7418,N,01430.4063,E,1,5,1,1.32658338461538, M,0, M,0,*59,35.9123572106388,14.5070536523009,35.9123632817,14.506770877,5,3.00,,3/28/2013 3:57:08 PM
$GPGGA,145709.107,3554.7414,N,01430.4232,E,1,5,1,0, M,0, M,0,*7E,$GPGGA,145709.107,3554.7419,N,01430.4062,E,1,5,1,1.472184, M,0, M,0,*57,35.9123572106388,14.5070536523009,35.9123652555,14.5067700836,5,3.00,,3/28/2013 3:57:09 PM
$GPGGA,145710.121,3554.7414,N,01430.4232,E,1,5,1,0, M,0, M,0,*72,$GPGGA,145710.121,3554.7414,N,01430.4062,E,1,5,1,1.472184, M,0, M,0,*56,35.9123572106388,14.5070536523009,35.9123558917,14.5067704761,5,3.00,,3/28/2013 3:57:10 PM
$GPGGA,145711.134,3554.7414,N,01430.4232,E,1,5,1,0, M,0, M,0,*77,$GPGGA,145711.134,3554.7406,N,01430.4064,E,1,5,1,1.45600615384615, M,0, M,0,*52,35.9123572106388,14.5070536523009,35.9123433816,14.5067725911,5,3.00,,3/28/2013 3:57:11 PM
$GPGGA,145712.148,3554.7414,N,01430.4232,E,1,5,1,0, M,0, M,0,*7F,$GPGGA,145712.148,3554.7409,N,01430.4064,E,1,5,1,1.35893907692308, M,0, M,0,*51,35.9123572106388,14.5070536523009,35.9123480506,14.5067726515,5,3.00,,3/28/2013 3:57:12 PM
$GPGGA,145713.162,3554.7414,N,01430.4232,E,1,5,1,0, M,0, M,0,*76,$GPGGA,145713.162,3554.7409,N,01430.4064,E,1,5,1,1.32658338461538, M,0, M,0,*5B,35.9123572106388,14.5070536523009,35.9123477673,14.5067730843,5,3.00,,3/28/2013 3:57:13 PM
$GPGGA,145714.176,3554.7414,N,01430.4232,E,1,5,1,0, M,0, M,0,*74,$GPGGA,145714.176,3554.7414,N,01430.4063,E,1,5,1,1.261872, M,0, M,0,*55,35.9123572106388,14.5070536523009,35.9123567686,14.5067723058,5,3.00,,3/28/2013 3:57:14 PM
$GPGGA,145715.191,3554.7414,N,01430.4232,E,1,5,1,0, M,0, M,0,*7C,$GPGGA,145715.191,3554.7416,N,01430.4063,E,1,5,1,1.261872, M,0, M,0,*5F,35.9123572106388,14.5070536523009,35.912359178,14.5067717078,5,3.00,,3/28/2013 3:57:15 PM
$GPGGA,145716.205,3554.7414,N,01430.4232,E,1,5,1,0, M,0, M,0,*71,$GPGGA,145716.205,3554.7413,N,01430.4063,E,1,5,1,1.261872, M,0, M,0,*57,35.9123572106388,14.5070536523009,35.9123542455,14.5067722425,5,3.00,,3/28/2013 3:57:16 PM
$GPGGA,145717.219,3554.7414,N,01430.4232,E,1,5,1,0, M,0, M,0,*7D,$GPGGA,145717.219,3554.7409,N,01430.4063,E,1,5,1,1.24569415384615, M,0, M,0,*59,35.9123572106388,14.5070536523009,35.9123485035,14.506772479,5,3.00,,3/28/2013 3:57:17 PM
$GPGGA,145718.234,3554.7414,N,01430.4232,E,1,5,1,0, M,0, M,0,*7D,$GPGGA,145718.234,3554.7411,N,01430.4063,E,1,5,1,1.261872, M,0, M,0,*59,35.9123572106388,14.5070536523009,35.9123512094,14.5067719033,5,3.00,,3/28/2013 3:57:18 PM
$GPGGA,145719.247,3554.7414,N,01430.4232,E,1,5,1,0, M,0, M,0,*78,$GPGGA,145719.247,3554.7410,N,01430.4063,E,1,5,1,1.261872, M,0, M,0,*5D,35.9123572106388,14.5070536523009,35.9123503635,14.5067718958,5,3.00,,3/28/2013 3:57:19 PM
$GPGGA,145720.261,3554.7414,N,01430.4232,E,1,5,1,0, M,0, M,0,*76,$GPGGA,145720.261,3554.7410,N,01430.4063,E,1,5,1,1.261872, M,0, M,0,*53,35.9123572106388,14.5070536523009,35.9123497476,14.5067722298,5,3.00,,3/28/2013 3:57:20 PM
$GPGGA,145721.276,3554.7414,N,01430.4232,E,1,5,1,0, M,0, M,0,*71,$GPGGA,145721.276,3554.7412,N,01430.4064,E,1,5,1,1.24569415384615, M,0, M,0,*58,35.9123572106388,14.5070536523009,35.9123528927,14.5067726117,5,3.00,,3/28/2013 3:57:21 PM
$GPGGA,145722.289,3554.7414,N,01430.4232,E,1,5,1,0, M,0, M,0,*72,$GPGGA,145722.289,3554.7414,N,01430.4063,E,1,5,1,1.24569415384615, M,0, M,0,*5A,35.9123572106388,14.5070536523009,35.9123564453,14.5067720428,5,3.00,,3/28/2013 3:57:22 PM
$GPGGA,145723.303,3554.7414,N,01430.4232,E,1,5,1,0, M,0, M,0,*70,$GPGGA,145723.303,3554.7414,N,01430.4063,E,1,5,1,1.261872, M,0, M,0,*51,35.9123572106388,14.5070536523009,35.9123559412,14.5067714798,5,3.00,,3/28/2013 3:57:23 PM
$GPGGA,145724.317,3554.7414,N,01430.4232,E,1,5,1,0, M,0, M,0,*72,$GPGGA,145724.317,3554.7413,N,01430.4063,E,1,5,1,1.261872, M,0, M,0,*54,35.9123572106388,14.5070536523009,35.9123542502,14.5067718055,5,3.00,,3/28/2013 3:57:24 PM
$GPGGA,145725.332,3554.7414,N,01430.4232,E,1,5,1,0, M,0, M,0,*74,$GPGGA,145725.332,3554.7411,N,01430.4064,E,1,5,1,1.27804984615384, M,0, M,0,*5E,35.9123572106388,14.5070536523009,35.9123518021,14.5067738625,5,3.00,,3/28/2013 3:57:25 PM
$GPGGA,145726.345,3554.7414,N,01430.4232,E,1,5,1,0, M,0, M,0,*77,$GPGGA,145726.345,3554.7410,N,01430.4065,E,1,5,1,1.35893907692308, M,0, M,0,*50,35.9123572106388,14.5070536523009,35.9123507491,14.5067757259,5,3.00,,3/28/2013 3:57:26 PM
$GPGGA,145727.359,3554.7414,N,01430.4232,E,1,5,1,0, M,0, M,0,*7B,$GPGGA,145727.359,3554.7412,N,01430.4065,E,1,5,1,1.472184, M,0, M,0,*5E,35.9123572106388,14.5070536523009,35.912352765,14.506775727,5,3.00,,3/28/2013 3:57:27 PM
$GPGGA,145728.373,3554.7414,N,01430.4232,E,1,5,1,0, M,0, M,0,*7C,$GPGGA,145728.373,3554.7414,N,01430.4065,E,1,5,1,1.42365046153846, M,0, M,0,*5A,35.9123572106388,14.5070536523009,35.9123562071,14.5067749975,5,3.00,,3/28/2013 3:57:28 PM
$GPGGA,145729.387,3554.7414,N,01430.4232,E,1,5,1,0, M,0, M,0,*76,$GPGGA,145729.387,3554.7416,N,01430.4064,E,1,5,1,1.27804984615384, M,0, M,0,*5B,35.9123572106388,14.5070536523009,35.9123593501,14.5067734741,5,3.00,,3/28/2013 3:57:29 PM
$GPGGA,145730.401,3554.7414,N,01430.4232,E,1,5,1,0, M,0, M,0,*77,$GPGGA,145730.401,3554.7415,N,01430.4064,E,1,5,1,1.261872, M,0, M,0,*50,35.9123572106388,14.5070536523009,35.9123583269,14.5067734122,5,3.00,,3/28/2013 3:57:30 PM
$GPGGA,145731.415,3554.7414,N,01430.4232,E,1,5,1,0, M,0, M,0,*73,$GPGGA,145731.415,3554.7413,N,01430.4064,E,1,5,1,1.261872, M,0, M,0,*52,35.9123572106388,14.5070536523009,35.9123556541,14.5067735867,5,3.00,,3/28/2013 3:57:31 PM
$GPGGA,145732.429,3554.7414,N,01430.4232,E,1,5,1,0, M,0, M,0,*7F,$GPGGA,145732.429,3554.7414,N,01430.4065,E,1,5,1,1.261872, M,0, M,0,*58,35.9123572106388,14.5070536523009,35.9123559631,14.5067746384,5,3.00,,3/28/2013 3:57:32 PM
$GPGGA,145733.443,3554.7414,N,01430.4232,E,1,5,1,0, M,0, M,0,*72,$GPGGA,145733.443,3554.7412,N,01430.4066,E,1,5,1,1.261872, M,0, M,0,*50,35.9123572106388,14.5070536523009,35.9123525631,14.5067759496,5,3.00,,3/28/2013 3:57:33 PM
$GPGGA,145734.457,3554.7414,N,01430.4232,E,1,5,1,0, M,0, M,0,*70,$GPGGA,145734.457,3554.7412,N,01430.4065,E,1,5,1,1.261872, M,0, M,0,*51,35.9123572106388,14.5070536523009,35.912353275,14.5067753757,5,3.00,,3/28/2013 3:57:34 PM
$GPGGA,145735.471,3554.7414,N,01430.4232,E,1,5,1,0, M,0, M,0,*75,$GPGGA,145735.471,3554.7412,N,01430.4066,E,1,5,1,1.14862707692308, M,0, M,0,*50,35.9123572106388,14.5070536523009,35.9123535361,14.5067761223,5,3.00,,3/28/2013 3:57:35 PM
$GPGGA,145736.486,3554.7414,N,01430.4232,E,1,5,1,0, M,0, M,0,*7E,$GPGGA,145736.486,3554.7416,N,01430.4065,E,1,5,1,1.16480492307692, M,0, M,0,*5E,35.9123572106388,14.5070536523009,35.9123593551,14.5067745257,5,3.00,,3/28/2013 3:57:36 PM
$GPGGA,145737.499,3554.7414,N,01430.4232,E,1,5,1,0, M,0, M,0,*71,$GPGGA,145737.499,3554.7415,N,01430.4065,E,1,5,1,1.261872, M,0, M,0,*57,35.9123572106388,14.5070536523009,35.9123584125,14.5067746235,5,3.00,,3/28/2013 3:57:37 PM
$GPGGA,145738.513,3554.7414,N,01430.4232,E,1,5,1,0, M,0, M,0,*7D,$GPGGA,145738.513,3554.7415,N,01430.4065,E,1,5,1,1.24569415384615, M,0, M,0,*52,35.9123572106388,14.5070536523009,35.9123581968,14.5067742607,5,3.00,,3/28/2013 3:57:38 PM
$GPGGA,145739.527,3554.7414,N,01430.4232,E,1,5,1,0, M,0, M,0,*7B,$GPGGA,145739.527,3554.7415,N,01430.4064,E,1,5,1,1.261872, M,0, M,0,*5C,35.9123572106388,14.5070536523009,35.9123586193,14.5067736158,5,3.00,,3/28/2013 3:57:39 PM
$GPGGA,145740.542,3554.7414,N,01430.4232,E,1,5,1,0, M,0, M,0,*76,$GPGGA,145740.542,3554.7412,N,01430.4065,E,1,5,1,1.261872, M,0, M,0,*57,35.9123572106388,14.5070536523009,35.9123537474,14.5067754071,5,3.00,,3/28/2013 3:57:40 PM
$GPGGA,145741.555,3554.7414,N,01430.4232,E,1,5,1,0, M,0, M,0,*71,$GPGGA,145741.555,3554.7411,N,01430.4065,E,1,5,1,1.261872, M,0, M,0,*53,35.9123572106388,14.5070536523009,35.9123517446,14.5067757462,5,3.00,,3/28/2013 3:57:41 PM
$GPGGA,145742.569,3554.7414,N,01430.4232,E,1,5,1,0, M,0, M,0,*7D,$GPGGA,145742.569,3554.7411,N,01430.4066,E,1,5,1,1.261872, M,0, M,0,*5C,35.9123572106388,14.5070536523009,35.9123512943,14.5067760149,5,3.00,,3/28/2013 3:57:42 PM
$GPGGA,145743.583,3554.7414,N,01430.4232,E,1,5,1,0, M,0, M,0,*78,$GPGGA,145743.583,3554.7415,N,01430.4065,E,1,5,1,1.261872, M,0, M,0,*5E,35.9123572106388,14.5070536523009,35.9123578646,14.5067746561,5,3.00,,3/28/2013 3:57:43 PM
$GPGGA,145744.597,3554.7414,N,01430.4232,E,1,5,1,0, M,0, M,0,*7A,$GPGGA,145744.597,3554.7414,N,01430.4064,E,1,5,1,1.261872, M,0, M,0,*5C,35.9123572106388,14.5070536523009,35.9123568957,14.5067741258,5,3.00,,3/28/2013 3:57:44 PM
$GPGGA,145745.611,3554.7414,N,01430.4232,E,1,5,1,0, M,0, M,0,*76,$GPGGA,145745.611,3554.7416,N,01430.4064,E,1,5,1,1.261872, M,0, M,0,*52,35.9123572106388,14.5070536523009,35.9123605972,14.5067734849,5,3.00,,3/28/2013 3:57:45 PM
$GPGGA,145746.625,3554.7414,N,01430.4232,E,1,5,1,0, M,0, M,0,*72,$GPGGA,145746.625,3554.7414,N,01430.4065,E,1,5,1,1.261872, M,0, M,0,*55,35.9123572106388,14.5070536523009,35.912356785,14.506774907,5,3.00,,3/28/2013 3:57:46 PM
$GPGGA,145747.640,3554.7414,N,01430.4232,E,1,5,1,0, M,0, M,0,*70,$GPGGA,145747.640,3554.7414,N,01430.4065,E,1,5,1,1.261872, M,0, M,0,*57,35.9123572106388,14.5070536523009,35.9123563607,14.5067755262,5,3.00,,3/28/2013 3:57:47 PM
$GPGGA,145748.653,3554.7414,N,01430.4232,E,1,5,1,0, M,0, M,0,*7D,$GPGGA,145748.653,3554.7413,N,01430.4066,E,1,5,1,1.261872, M,0, M,0,*5E,35.9123572106388,14.5070536523009,35.9123550798,14.5067764139,5,3.00,,3/28/2013 3:57:48 PM
$GPGGA,145749.667,3554.7414,N,01430.4232,E,1,5,1,0, M,0, M,0,*7B,$GPGGA,145749.667,3554.7414,N,01430.4066,E,1,5,1,1.32658338461538, M,0, M,0,*58,35.9123572106388,14.5070536523009,35.9123562803,14.5067759314,5,3.00,,3/28/2013 3:57:49 PM
$GPGGA,145750.680,3554.7414,N,01430.4232,E,1,5,1,0, M,0, M,0,*7A,$GPGGA,145750.680,3554.7416,N,01430.4066,E,1,5,1,1.35893907692308, M,0, M,0,*58,35.9123572106388,14.5070536523009,35.9123606947,14.5067767056,5,3.00,,3/28/2013 3:57:50 PM
$GPGGA,145751.695,3554.7414,N,01430.4232,E,1,5,1,0, M,0, M,0,*7F,$GPGGA,145751.695,3554.7419,N,01430.4065,E,1,5,1,1.29422769230769, M,0, M,0,*53,35.9123572106388,14.5070536523009,35.9123655345,14.5067755745,5,3.00,,3/28/2013 3:57:51 PM
$GPGGA,145752.709,3554.7414,N,01430.4232,E,1,5,1,0, M,0, M,0,*78,$GPGGA,145752.709,3554.7417,N,01430.4065,E,1,5,1,1.35893907692308, M,0, M,0,*58,35.9123572106388,14.5070536523009,35.912361921,14.5067745414,5,3.00,,3/28/2013 3:57:52 PM
$GPGGA,145753.723,3554.7414,N,01430.4232,E,1,5,1,0, M,0, M,0,*71,$GPGGA,145753.723,3554.7417,N,01430.4064,E,1,5,1,1.24569415384615, M,0, M,0,*5D,35.9123572106388,14.5070536523009,35.9123611492,14.5067740025,5,3.00,,3/28/2013 3:57:53 PM
$GPGGA,145754.737,3554.7414,N,01430.4232,E,1,5,1,0, M,0, M,0,*73,$GPGGA,145754.737,3554.7412,N,01430.4064,E,1,5,1,1.261872, M,0, M,0,*53,35.9123572106388,14.5070536523009,35.9123540669,14.5067740662,5,3.00,,3/28/2013 3:57:54 PM
$GPGGA,145755.751,3554.7414,N,01430.4232,E,1,5,1,0, M,0, M,0,*72,$GPGGA,145755.751,3554.7413,N,01430.4064,E,1,5,1,1.24569415384615, M,0, M,0,*5A,35.9123572106388,14.5070536523009,35.91235429,14.5067733991,5,3.00,,3/28/2013 3:57:55 PM
$GPGGA,145756.766,3554.7414,N,01430.4232,E,1,5,1,0, M,0, M,0,*75,$GPGGA,145756.766,3554.7415,N,01430.4064,E,1,5,1,1.261872, M,0, M,0,*52,35.9123572106388,14.5070536523009,35.9123578019,14.5067725648,5,3.00,,3/28/2013 3:57:56 PM
$GPGGA,145757.780,3554.7414,N,01430.4232,E,1,5,1,0, M,0, M,0,*7C,$GPGGA,145757.780,3554.7412,N,01430.4063,E,1,5,1,1.261872, M,0, M,0,*5B,35.9123572106388,14.5070536523009,35.9123528817,14.5067723773,5,3.00,,3/28/2013 3:57:57 PM
$GPGGA,145758.793,3554.7414,N,01430.4232,E,1,5,1,0, M,0, M,0,*71,$GPGGA,145758.793,3554.7416,N,01430.4063,E,1,5,1,1.261872, M,0, M,0,*52,35.9123572106388,14.5070536523009,35.9123605309,14.5067718088,5,3.00,,3/28/2013 3:57:58 PM
$GPGGA,145759.807,3554.7414,N,01430.4232,E,1,5,1,0, M,0, M,0,*72,$GPGGA,145759.807,3554.7415,N,01430.4064,E,1,5,1,1.27804984615384, M,0, M,0,*5C,35.9123572106388,14.5070536523009,35.912357609,14.5067725288,5,3.00,,3/28/2013 3:57:59 PM
$GPGGA,145800.821,3554.7414,N,01430.4232,E,1,5,1,0, M,0, M,0,*75,$GPGGA,145800.821,3554.7414,N,01430.4063,E,1,5,1,1.32658338461538, M,0, M,0,*53,35.9123572106388,14.5070536523009,35.9123568467,14.5067723708,5,3.00,,3/28/2013 3:58:00 PM
$GPGGA,145801.835,3554.7414,N,01430.4232,E,1,5,1,0, M,0, M,0,*71,$GPGGA,145801.835,3554.7412,N,01430.4065,E,1,5,1,1.261872, M,0, M,0,*50,35.9123572106388,14.5070536523009,35.9123534891,14.5067746108,5,3.00,,3/28/2013 3:58:01 PM
$GPGGA,145802.849,3554.7414,N,01430.4232,E,1,5,1,0, M,0, M,0,*79,$GPGGA,145802.849,3554.7416,N,01430.4065,E,1,5,1,1.43982830769231, M,0, M,0,*53,35.9123572106388,14.5070536523009,35.912360076,14.5067748469,5,3.00,,3/28/2013 3:58:02 PM
$GPGGA,145803.863,3554.7414,N,01430.4232,E,1,5,1,0, M,0, M,0,*70,$GPGGA,145803.863,3554.7418,N,01430.4063,E,1,5,1,1.40747261538461, M,0, M,0,*5D,35.9123572106388,14.5070536523009,35.912363768,14.506772109,5,3.00,,3/28/2013 3:58:03 PM
$GPGGA,145804.877,3554.7414,N,01430.4232,E,1,5,1,0, M,0, M,0,*72,$GPGGA,145804.877,3554.7421,N,01430.4064,E,1,5,1,1.22951630769231, M,0, M,0,*5A,35.9123572106388,14.5070536523009,35.9123684086,14.506772653,5,3.00,,3/28/2013 3:58:04 PM
$GPGGA,145805.891,3554.7414,N,01430.4232,E,1,5,1,0, M,0, M,0,*7B,$GPGGA,145805.891,3554.7422,N,01430.4063,E,1,5,1,1.24569415384615, M,0, M,0,*56,35.9123572106388,14.5070536523009,35.9123701836,14.506772163,5,3.00,,3/28/2013 3:58:05 PM
$GPGGA,145806.905,3554.7414,N,01430.4232,E,1,5,1,0, M,0, M,0,*74,$GPGGA,145806.905,3554.7427,N,01430.4064,E,1,5,1,1.261872, M,0, M,0,*52,35.9123572106388,14.5070536523009,35.9123790506,14.506772741,5,3.00,,3/28/2013 3:58:06 PM
$GPGGA,145807.920,3554.7414,N,01430.4232,E,1,5,1,0, M,0, M,0,*72,$GPGGA,145807.920,3554.7426,N,01430.4064,E,1,5,1,1.261872, M,0, M,0,*55,35.9123572106388,14.5070536523009,35.9123770596,14.5067727824,5,3.00,,3/28/2013 3:58:07 PM
$GPGGA,145808.934,3554.7414,N,01430.4232,E,1,5,1,0, M,0, M,0,*78,$GPGGA,145808.934,3554.7417,N,01430.4063,E,1,5,1,1.22951630769231, M,0, M,0,*52,35.9123572106388,14.5070536523009,35.912361343,14.5067717675,5,3.00,,3/28/2013 3:58:08 PM
$GPGGA,145809.948,3554.7414,N,01430.4232,E,1,5,1,0, M,0, M,0,*72,$GPGGA,145809.948,3554.7417,N,01430.4063,E,1,5,1,1.19716061538462, M,0, M,0,*59,35.9123572106388,14.5070536523009,35.9123612294,14.5067719939,5,3.00,,3/28/2013 3:58:09 PM
$GPGGA,145810.962,3554.7414,N,01430.4232,E,1,5,1,0, M,0, M,0,*72,$GPGGA,145810.962,3554.7419,N,01430.4063,E,1,5,1,1.24569415384615, M,0, M,0,*57,35.9123572106388,14.5070536523009,35.912365268,14.5067719099,5,3.00,,3/28/2013 3:58:10 PM
$GPGGA,145811.975,3554.7414,N,01430.4232,E,1,5,1,0, M,0, M,0,*75,$GPGGA,145811.975,3554.7423,N,01430.4063,E,1,5,1,1.261872, M,0, M,0,*50,35.9123572106388,14.5070536523009,35.9123724027,14.5067711414,5,3.00,,3/28/2013 3:58:11 PM
$GPGGA,145812.989,3554.7414,N,01430.4232,E,1,5,1,0, M,0, M,0,*75,$GPGGA,145812.989,3554.7426,N,01430.4063,E,1,5,1,1.19716061538462, M,0, M,0,*5C,35.9123572106388,14.5070536523009,35.9123758374,14.5067718993,5,3.00,,3/28/2013 3:58:12 PM
$GPGGA,145814.003,3554.7414,N,01430.4232,E,1,5,1,0, M,0, M,0,*78,$GPGGA,145814.003,3554.7424,N,01430.4063,E,1,5,1,1.261872, M,0, M,0,*5A,35.9123572106388,14.5070536523009,35.9123733682,14.5067720424,5,3.00,,3/28/2013 3:58:14 PM
$GPGGA,145815.017,3554.7414,N,01430.4232,E,1,5,1,0, M,0, M,0,*7C,$GPGGA,145815.017,3554.7425,N,01430.4064,E,1,5,1,1.261872, M,0, M,0,*58,35.9123572106388,14.5070536523009,35.9123747831,14.5067729547,5,3.00,,3/28/2013 3:58:15 PM
$GPGGA,145816.032,3554.7414,N,01430.4232,E,1,5,1,0, M,0, M,0,*78,$GPGGA,145816.032,3554.7428,N,01430.4064,E,1,5,1,1.261872, M,0, M,0,*51,35.9123572106388,14.5070536523009,35.9123800836,14.5067730443,5,3.00,,3/28/2013 3:58:16 PM
$GPGGA,145817.045,3554.7414,N,01430.4232,E,1,5,1,0, M,0, M,0,*79,$GPGGA,145817.045,3554.7424,N,01430.4064,E,1,5,1,1.22951630769231, M,0, M,0,*54,35.9123572106388,14.5070536523009,35.9123737274,14.5067727164,5,3.00,,3/28/2013 3:58:17 PM
$GPGGA,145818.059,3554.7414,N,01430.4232,E,1,5,1,0, M,0, M,0,*7B,$GPGGA,145818.059,3554.7428,N,01430.4064,E,1,5,1,1.13244923076923, M,0, M,0,*5B,35.9123572106388,14.5070536523009,35.9123792338,14.5067727095,5,3.00,,3/28/2013 3:58:18 PM
$GPGGA,145819.073,3554.7414,N,01430.4232,E,1,5,1,0, M,0, M,0,*72,$GPGGA,145819.073,3554.7428,N,01430.4064,E,1,5,1,1.22951630769231, M,0, M,0,*53,35.9123572106388,14.5070536523009,35.9123793597,14.5067730993,5,3.00,,3/28/2013 3:58:19 PM
$GPGGA,145820.087,3554.7414,N,01430.4232,E,1,5,1,0, M,0, M,0,*73,$GPGGA,145820.087,3554.7427,N,01430.4064,E,1,5,1,1.21333846153846, M,0, M,0,*5A,35.9123572106388,14.5070536523009,35.9123778165,14.5067741491,5,3.00,,3/28/2013 3:58:20 PM
$GPGGA,145821.101,3554.7414,N,01430.4232,E,1,5,1,0, M,0, M,0,*7D,$GPGGA,145821.101,3554.7428,N,01430.4065,E,1,5,1,1.19716061538462, M,0, M,0,*5C,35.9123572106388,14.5070536523009,35.9123799023,14.5067742493,5,3.00,,3/28/2013 3:58:21 PM
$GPGGA,145822.115,3554.7414,N,01430.4232,E,1,5,1,0, M,0, M,0,*7B,$GPGGA,145822.115,3554.7427,N,01430.4064,E,1,5,1,1.261872, M,0, M,0,*5D,35.9123572106388,14.5070536523009,35.9123785683,14.5067727897,5,3.00,,3/28/2013 3:58:22 PM
$GPGGA,145823.129,3554.7414,N,01430.4232,E,1,5,1,0, M,0, M,0,*75,$GPGGA,145823.129,3554.7426,N,01430.4064,E,1,5,1,1.261872, M,0, M,0,*52,35.9123572106388,14.5070536523009,35.9123767613,14.5067735225,5,3.00,,3/28/2013 3:58:23 PM
$GPGGA,145824.143,3554.7414,N,01430.4232,E,1,5,1,0, M,0, M,0,*7E,$GPGGA,145824.143,3554.7427,N,01430.4063,E,1,5,1,1.261872, M,0, M,0,*5F,35.9123572106388,14.5070536523009,35.9123775758,14.5067723143,5,3.00,,3/28/2013 3:58:24 PM
$GPGGA,145825.157,3554.7414,N,01430.4232,E,1,5,1,0, M,0, M,0,*7A,$GPGGA,145825.157,3554.7428,N,01430.4063,E,1,5,1,1.27804984615384, M,0, M,0,*5D,35.9123572106388,14.5070536523009,35.9123791991,14.5067717404,5,3.00,,3/28/2013 3:58:25 PM
$GPGGA,145826.172,3554.7414,N,01430.4232,E,1,5,1,0, M,0, M,0,*7E,$GPGGA,145826.172,3554.7428,N,01430.4064,E,1,5,1,1.261872, M,0, M,0,*57,35.9123572106388,14.5070536523009,35.9123804652,14.5067730946,5,3.00,,3/28/2013 3:58:26 PM
$GPGGA,145827.186,3554.7414,N,01430.4232,E,1,5,1,0, M,0, M,0,*74,$GPGGA,145827.186,3554.7428,N,01430.4064,E,1,5,1,1.261872, M,0, M,0,*5D,35.9123572106388,14.5070536523009,35.9123794593,14.5067727837,5,3.00,,3/28/2013 3:58:27 PM
$GPGGA,145828.200,3554.7414,N,01430.4232,E,1,5,1,0, M,0, M,0,*76,$GPGGA,145828.200,3554.7428,N,01430.4064,E,1,5,1,1.261872, M,0, M,0,*5F,35.9123572106388,14.5070536523009,35.9123796268,14.5067735889,5,3.00,,3/28/2013 3:58:28 PM
$GPGGA,145829.215,3554.7414,N,01430.4232,E,1,5,1,0, M,0, M,0,*73,$GPGGA,145829.215,3554.7424,N,01430.4064,E,1,5,1,1.261872, M,0, M,0,*56,35.9123572106388,14.5070536523009,35.9123727701,14.506772816,5,3.00,,3/28/2013 3:58:29 PM
$GPGGA,145830.228,3554.7414,N,01430.4232,E,1,5,1,0, M,0, M,0,*75,$GPGGA,145830.228,3554.7420,N,01430.4064,E,1,5,1,1.14862707692308, M,0, M,0,*53,35.9123572106388,14.5070536523009,35.9123661995,14.5067729258,5,3.00,,3/28/2013 3:58:30 PM
$GPGGA,145831.242,3554.7414,N,01430.4232,E,1,5,1,0, M,0, M,0,*78,$GPGGA,145831.242,3554.7422,N,01430.4063,E,1,5,1,1.21333846153846, M,0, M,0,*53,35.9123572106388,14.5070536523009,35.9123693839,14.5067716219,5,3.00,,3/28/2013 3:58:31 PM
$GPGGA,145832.255,3554.7414,N,01430.4232,E,1,5,1,0, M,0, M,0,*7D,$GPGGA,145832.255,3554.7421,N,01430.4063,E,1,5,1,1.24569415384615, M,0, M,0,*53,35.9123572106388,14.5070536523009,35.9123677388,14.5067716425,5,3.00,,3/28/2013 3:58:32 PM
$GPGGA,145833.270,3554.7414,N,01430.4232,E,1,5,1,0, M,0, M,0,*7B,$GPGGA,145833.270,3554.7418,N,01430.4063,E,1,5,1,1.13244923076923, M,0, M,0,*5F,35.9123572106388,14.5070536523009,35.912363871,14.506771781,5,3.00,,3/28/2013 3:58:33 PM
$GPGGA,145834.284,3554.7414,N,01430.4232,E,1,5,1,0, M,0, M,0,*77,$GPGGA,145834.284,3554.7417,N,01430.4064,E,1,5,1,1.21333846153846, M,0, M,0,*5D,35.9123572106388,14.5070536523009,35.9123613213,14.5067726291,5,3.00,,3/28/2013 3:58:34 PM
$GPGGA,145835.297,3554.7414,N,01430.4232,E,1,5,1,0, M,0, M,0,*74,$GPGGA,145835.297,3554.7414,N,01430.4064,E,1,5,1,1.24569415384615, M,0, M,0,*5B,35.9123572106388,14.5070536523009,35.9123570456,14.5067739751,5,3.00,,3/28/2013 3:58:35 PM
$GPGGA,145836.311,3554.7414,N,01430.4232,E,1,5,1,0, M,0, M,0,*78,$GPGGA,145836.311,3554.7414,N,01430.4066,E,1,5,1,1.14862707692308, M,0, M,0,*5B,35.9123572106388,14.5070536523009,35.9123570339,14.5067760876,5,3.00,,3/28/2013 3:58:36 PM
$GPGGA,145837.325,3554.7414,N,01430.4232,E,1,5,1,0, M,0, M,0,*7E,$GPGGA,145837.325,3554.7416,N,01430.4066,E,1,5,1,1.16480492307692, M,0, M,0,*5D,35.9123572106388,14.5070536523009,35.9123594961,14.5067774739,5,3.00,,3/28/2013 3:58:37 PM
$GPGGA,145838.339,3554.7414,N,01430.4232,E,1,5,1,0, M,0, M,0,*7C,$GPGGA,145838.339,3554.7418,N,01430.4065,E,1,5,1,1.24569415384615, M,0, M,0,*5E,35.9123572106388,14.5070536523009,35.9123634644,14.5067744309,5,3.00,,3/28/2013 3:58:38 PM
$GPGGA,145839.353,3554.7414,N,01430.4232,E,1,5,1,0, M,0, M,0,*71,$GPGGA,145839.353,3554.7421,N,01430.4064,E,1,5,1,1.24569415384615, M,0, M,0,*58,35.9123572106388,14.5070536523009,35.9123680384,14.50677293,5,3.00,,3/28/2013 3:58:39 PM
$GPGGA,145840.367,3554.7414,N,01430.4232,E,1,5,1,0, M,0, M,0,*78,$GPGGA,145840.367,3554.7417,N,01430.4064,E,1,5,1,1.24569415384615, M,0, M,0,*54,35.9123572106388,14.5070536523009,35.9123613384,14.5067732974,5,3.00,,3/28/2013 3:58:40 PM
$GPGGA,145841.390,3554.7414,N,01430.4232,E,1,5,1,0, M,0, M,0,*71,$GPGGA,145841.390,3554.7415,N,01430.4058,E,1,5,1,1.261872, M,0, M,0,*59,35.9123572106388,14.5070536523009,35.9123579679,14.5067626344,5,4.00,,3/28/2013 3:58:41 PM
$GPGGA,145842.400,3554.7414,N,01430.4232,E,1,5,1,0, M,0, M,0,*7C,$GPGGA,145842.400,3554.7412,N,01430.4059,E,1,5,1,1.261872, M,0, M,0,*52,35.9123572106388,14.5070536523009,35.9123541577,14.5067653185,5,4.00,,3/28/2013 3:58:42 PM
$GPGGA,145843.410,3554.7414,N,01430.4232,E,1,5,1,0, M,0, M,0,*7C,$GPGGA,145843.410,3554.7412,N,01430.4061,E,1,5,1,1.261872, M,0, M,0,*59,35.9123572106388,14.5070536523009,35.9123537764,14.5067690747,5,4.00,,3/28/2013 3:58:43 PM
$GPGGA,145844.423,3554.7414,N,01430.4232,E,1,5,1,0, M,0, M,0,*7B,$GPGGA,145844.423,3554.7416,N,01430.4062,E,1,5,1,1.261872, M,0, M,0,*59,35.9123572106388,14.5070536523009,35.9123603804,14.5067695423,5,4.00,,3/28/2013 3:58:44 PM
$GPGGA,145845.443,3554.7414,N,01430.4232,E,1,5,1,0, M,0, M,0,*7C,$GPGGA,145845.443,3554.7414,N,01430.4062,E,1,5,1,1.24569415384615, M,0, M,0,*55,35.9123572106388,14.5070536523009,35.9123572292,14.5067705684,5,4.00,,3/28/2013 3:58:45 PM
$GPGGA,145846.451,3554.7414,N,01430.4232,E,1,5,1,0, M,0, M,0,*7C,$GPGGA,145846.451,3554.7413,N,01430.4061,E,1,5,1,1.261872, M,0, M,0,*58,35.9123572106388,14.5070536523009,35.9123549893,14.5067679802,5,4.00,,3/28/2013 3:58:46 PM
$GPGGA,145847.465,3554.7414,N,01430.4232,E,1,5,1,0, M,0, M,0,*7A,$GPGGA,145847.465,3554.7413,N,01430.4060,E,1,5,1,1.261872, M,0, M,0,*5F,35.9123572106388,14.5070536523009,35.912354511,14.5067658481,5,4.00,,3/28/2013 3:58:47 PM
$GPGGA,145848.485,3554.7414,N,01430.4232,E,1,5,1,0, M,0, M,0,*7B,$GPGGA,145848.485,3554.7412,N,01430.4059,E,1,5,1,1.18098276923077, M,0, M,0,*5E,35.9123572106388,14.5070536523009,35.9123525127,14.5067656786,5,4.00,,3/28/2013 3:58:48 PM
$GPGGA,145849.495,3554.7414,N,01430.4232,E,1,5,1,0, M,0, M,0,*7B,$GPGGA,145849.495,3554.7411,N,01430.4060,E,1,5,1,1.21333846153846, M,0, M,0,*53,35.9123572106388,14.5070536523009,35.9123517859,14.5067660975,5,4.00,,3/28/2013 3:58:49 PM
$GPGGA,145850.507,3554.7414,N,01430.4232,E,1,5,1,0, M,0, M,0,*79,$GPGGA,145850.507,3554.7409,N,01430.4060,E,1,5,1,1.05156, M,0, M,0,*68,35.9123572106388,14.5070536523009,35.9123487006,14.506766581,5,4.00,,3/28/2013 3:58:50 PM
$GPGGA,145851.521,3554.7414,N,01430.4232,E,1,5,1,0, M,0, M,0,*7C,$GPGGA,145851.521,3554.7409,N,01430.4060,E,1,5,1,1.05156, M,0, M,0,*6D,35.9123572106388,14.5070536523009,35.912349132,14.5067658893,5,4.00,,3/28/2013 3:58:51 PM
$GPGGA,145852.536,3554.7414,N,01430.4232,E,1,5,1,0, M,0, M,0,*79,$GPGGA,145852.536,3554.7405,N,01430.4061,E,1,5,1,1.05156, M,0, M,0,*65,35.9123572106388,14.5070536523009,35.9123409103,14.506767559,5,4.00,,3/28/2013 3:58:52 PM
$GPGGA,145853.550,3554.7414,N,01430.4232,E,1,5,1,0, M,0, M,0,*78,$GPGGA,145853.550,3554.7406,N,01430.4061,E,1,5,1,0.970670769230769, M,0, M,0,*6F,35.9123572106388,14.5070536523009,35.9123438276,14.5067685646,5,4.00,,3/28/2013 3:58:53 PM
$GPGGA,145854.564,3554.7414,N,01430.4232,E,1,5,1,0, M,0, M,0,*78,$GPGGA,145854.564,3554.7409,N,01430.4060,E,1,5,1,1.03538215384615, M,0, M,0,*58,35.9123572106388,14.5070536523009,35.9123491327,14.5067662703,5,4.00,,3/28/2013 3:58:54 PM
$GPGGA,145855.578,3554.7414,N,01430.4232,E,1,5,1,0, M,0, M,0,*74,$GPGGA,145855.578,3554.7410,N,01430.4060,E,1,5,1,1.03538215384615, M,0, M,0,*5C,35.9123572106388,14.5070536523009,35.9123497581,14.5067665207,5,4.00,,3/28/2013 3:58:55 PM
$GPGGA,145856.592,3554.7414,N,01430.4232,E,1,5,1,0, M,0, M,0,*73,$GPGGA,145856.592,3554.7411,N,01430.4059,E,1,5,1,0.986848615384615, M,0, M,0,*6B,35.9123572106388,14.5070536523009,35.912352272,14.5067649012,5,4.00,,3/28/2013 3:58:56 PM
$GPGGA,145857.605,3554.7414,N,01430.4232,E,1,5,1,0, M,0, M,0,*7F,$GPGGA,145857.605,3554.7411,N,01430.4058,E,1,5,1,1.05156, M,0, M,0,*6C,35.9123572106388,14.5070536523009,35.9123520141,14.5067638505,5,4.00,,3/28/2013 3:58:57 PM
$GPGGA,145858.619,3554.7414,N,01430.4232,E,1,5,1,0, M,0, M,0,*7D,$GPGGA,145858.619,3554.7409,N,01430.4059,E,1,5,1,1.05156, M,0, M,0,*66,35.9123572106388,14.5070536523009,35.9123480352,14.506764349,5,4.00,,3/28/2013 3:58:58 PM
$GPGGA,145859.633,3554.7414,N,01430.4232,E,1,5,1,0, M,0, M,0,*74,$GPGGA,145859.633,3554.7405,N,01430.4059,E,1,5,1,1.06773784615385, M,0, M,0,*56,35.9123572106388,14.5070536523009,35.9123421249,14.50676488,5,4.00,,3/28/2013 3:58:59 PM
$GPGGA,145900.647,3554.7414,N,01430.4232,E,1,5,1,0, M,0, M,0,*7A,$GPGGA,145900.647,3554.7402,N,01430.4061,E,1,5,1,1.13244923076923, M,0, M,0,*57,35.9123572106388,14.5070536523009,35.9123374221,14.5067683707,5,4.00,,3/28/2013 3:59:00 PM
$GPGGA,145901.661,3554.7414,N,01430.4232,E,1,5,1,0, M,0, M,0,*7F,$GPGGA,145901.661,3554.7406,N,01430.4059,E,1,5,1,1.14862707692308, M,0, M,0,*53,35.9123572106388,14.5070536523009,35.9123440152,14.5067657578,5,4.00,,3/28/2013 3:59:01 PM
$GPGGA,145902.675,3554.7414,N,01430.4232,E,1,5,1,0, M,0, M,0,*79,$GPGGA,145902.675,3554.7409,N,01430.4059,E,1,5,1,1.14862707692308, M,0, M,0,*5A,35.9123572106388,14.5070536523009,35.9123489222,14.506765468,5,4.00,,3/28/2013 3:59:02 PM
$GPGGA,145903.689,3554.7414,N,01430.4232,E,1,5,1,0, M,0, M,0,*7B,$GPGGA,145903.689,3554.7414,N,01430.4058,E,1,5,1,1.06773784615385, M,0, M,0,*58,35.9123572106388,14.5070536523009,35.9123568041,14.5067634797,5,4.00,,3/28/2013 3:59:03 PM
$GPGGA,145904.703,3554.7414,N,01430.4232,E,1,5,1,0, M,0, M,0,*7F,$GPGGA,145904.703,3554.7414,N,01430.4058,E,1,5,1,1.05156, M,0, M,0,*69,35.9123572106388,14.5070536523009,35.9123563315,14.5067627153,5,4.00,,3/28/2013 3:59:04 PM
$GPGGA,145905.717,3554.7414,N,01430.4232,E,1,5,1,0, M,0, M,0,*7B,$GPGGA,145905.717,3554.7414,N,01430.4058,E,1,5,1,1.01920430769231, M,0, M,0,*5F,35.9123572106388,14.5070536523009,35.9123571638,14.5067625908,5,4.00,,3/28/2013 3:59:05 PM
$GPGGA,145906.731,3554.7414,N,01430.4232,E,1,5,1,0, M,0, M,0,*7C,$GPGGA,145906.731,3554.7414,N,01430.4058,E,1,5,1,1.06773784615385, M,0, M,0,*5F,35.9123572106388,14.5070536523009,35.9123572994,14.5067631375,5,4.00,,3/28/2013 3:59:06 PM
$GPGGA,145907.745,3554.7414,N,01430.4232,E,1,5,1,0, M,0, M,0,*7E,$GPGGA,145907.745,3554.7406,N,01430.4059,E,1,5,1,1.21333846153846, M,0, M,0,*5A,35.9123572106388,14.5070536523009,35.9123435641,14.5067653522,5,4.00,,3/28/2013 3:59:07 PM
$GPGGA,145908.759,3554.7414,N,01430.4232,E,1,5,1,0, M,0, M,0,*7C,$GPGGA,145908.759,3554.7411,N,01430.4060,E,1,5,1,1.244346, M,0, M,0,*50,35.9123572106388,14.5070536523009,35.9123523413,14.5067660394,5,4.00,,3/28/2013 3:59:08 PM
$GPGGA,145909.774,3554.7414,N,01430.4232,E,1,5,1,0, M,0, M,0,*72,$GPGGA,145909.774,3554.7409,N,01430.4059,E,1,5,1,1.21333846153846, M,0, M,0,*59,35.9123572106388,14.5070536523009,35.9123486338,14.5067657406,5,4.00,,3/28/2013 3:59:09 PM
$GPGGA,145910.788,3554.7414,N,01430.4232,E,1,5,1,0, M,0, M,0,*79,$GPGGA,145910.788,3554.7411,N,01430.4059,E,1,5,1,1.14862707692308, M,0, M,0,*53,35.9123572106388,14.5070536523009,35.9123517057,14.506764298,5,4.00,,3/28/2013 3:59:10 PM
$GPGGA,145911.802,3554.7414,N,01430.4232,E,1,5,1,0, M,0, M,0,*75,$GPGGA,145911.802,3554.7417,N,01430.4058,E,1,5,1,1.05156, M,0, M,0,*60,35.9123572106388,14.5070536523009,35.9123620042,14.5067635707,5,4.00,,3/28/2013 3:59:11 PM
$GPGGA,145912.816,3554.7414,N,01430.4232,E,1,5,1,0, M,0, M,0,*73,$GPGGA,145912.816,3554.7414,N,01430.4059,E,1,5,1,1.06773784615385, M,0, M,0,*51,35.9123572106388,14.5070536523009,35.9123572558,14.5067654181,5,4.00,,3/28/2013 3:59:12 PM
$GPGGA,145913.830,3554.7414,N,01430.4232,E,1,5,1,0, M,0, M,0,*76,$GPGGA,145913.830,3554.7414,N,01430.4060,E,1,5,1,1.05156, M,0, M,0,*6B,35.9123572106388,14.5070536523009,35.912356434,14.506766517,5,4.00,,3/28/2013 3:59:13 PM
$GPGGA,145914.844,3554.7414,N,01430.4232,E,1,5,1,0, M,0, M,0,*72,$GPGGA,145914.844,3554.7414,N,01430.4060,E,1,5,1,1.05156, M,0, M,0,*6F,35.9123572106388,14.5070536523009,35.9123572951,14.5067664809,5,4.00,,3/28/2013 3:59:14 PM
$GPGGA,145915.858,3554.7414,N,01430.4232,E,1,5,1,0, M,0, M,0,*7E,$GPGGA,145915.858,3554.7414,N,01430.4061,E,1,5,1,1.05156, M,0, M,0,*62,35.9123572106388,14.5070536523009,35.9123563475,14.5067682357,5,4.00,,3/28/2013 3:59:15 PM
$GPGGA,145916.872,3554.7414,N,01430.4232,E,1,5,1,0, M,0, M,0,*75,$GPGGA,145916.872,3554.7412,N,01430.4060,E,1,5,1,1.05156, M,0, M,0,*6E,35.9123572106388,14.5070536523009,35.912353036,14.506766542,5,4.00,,3/28/2013 3:59:16 PM
$GPGGA,145917.885,3554.7414,N,01430.4232,E,1,5,1,0, M,0, M,0,*7C,$GPGGA,145917.885,3554.7412,N,01430.4060,E,1,5,1,0.954492923076923, M,0, M,0,*67,35.9123572106388,14.5070536523009,35.9123527501,14.5067661813,5,4.00,,3/28/2013 3:59:17 PM
$GPGGA,145918.899,3554.7414,N,01430.4232,E,1,5,1,0, M,0, M,0,*7E,$GPGGA,145918.899,3554.7415,N,01430.4060,E,1,5,1,1.03538215384615, M,0, M,0,*53,35.9123572106388,14.5070536523009,35.9123576147,14.5067658496,5,4.00,,3/28/2013 3:59:18 PM
$GPGGA,145919.913,3554.7414,N,01430.4232,E,1,5,1,0, M,0, M,0,*7C,$GPGGA,145919.913,3554.7413,N,01430.4060,E,1,5,1,1.06773784615385, M,0, M,0,*53,35.9123572106388,14.5070536523009,35.9123549826,14.5067658844,5,4.00,,3/28/2013 3:59:19 PM
$GPGGA,145920.927,3554.7414,N,01430.4232,E,1,5,1,0, M,0, M,0,*71,$GPGGA,145920.927,3554.7413,N,01430.4059,E,1,5,1,1.00302646153846, M,0, M,0,*5E,35.9123572106388,14.5070536523009,35.9123549307,14.5067653544,5,4.00,,3/28/2013 3:59:20 PM
$GPGGA,145921.941,3554.7414,N,01430.4232,E,1,5,1,0, M,0, M,0,*70,$GPGGA,145921.941,3554.7415,N,01430.4058,E,1,5,1,1.08391569230769, M,0, M,0,*50,35.9123572106388,14.5070536523009,35.912358451,14.506764001,5,4.00,,3/28/2013 3:59:21 PM
$GPGGA,145922.955,3554.7414,N,01430.4232,E,1,5,1,0, M,0, M,0,*76,$GPGGA,145922.955,3554.7413,N,01430.4059,E,1,5,1,1.19716061538462, M,0, M,0,*50,35.9123572106388,14.5070536523009,35.9123547766,14.5067646922,5,4.00,,3/28/2013 3:59:22 PM
$GPGGA,145923.969,3554.7414,N,01430.4232,E,1,5,1,0, M,0, M,0,*78,$GPGGA,145923.969,3554.7415,N,01430.4059,E,1,5,1,1.05156, M,0, M,0,*6E,35.9123572106388,14.5070536523009,35.9123590443,14.5067644202,5,4.00,,3/28/2013 3:59:23 PM
$GPGGA,145924.983,3554.7414,N,01430.4232,E,1,5,1,0, M,0, M,0,*7B,$GPGGA,145924.983,3554.7414,N,01430.4058,E,1,5,1,1.08391569230769, M,0, M,0,*5A,35.9123572106388,14.5070536523009,35.9123562826,14.5067640653,5,4.00,,3/28/2013 3:59:24 PM
$GPGGA,145925.997,3554.7414,N,01430.4232,E,1,5,1,0, M,0, M,0,*7F,$GPGGA,145925.997,3554.7412,N,01430.4059,E,1,5,1,1.13244923076923, M,0, M,0,*58,35.9123572106388,14.5070536523009,35.912352978,14.5067644467,5,4.00,,3/28/2013 3:59:25 PM
$GPGGA,145927.012,3554.7414,N,01430.4232,E,1,5,1,0, M,0, M,0,*79,$GPGGA,145927.012,3554.7415,N,01430.4058,E,1,5,1,1.05156, M,0, M,0,*6E,35.9123572106388,14.5070536523009,35.9123587325,14.5067626665,5,4.00,,3/28/2013 3:59:27 PM
