GPGGA Base Position,,,,,,,,,,,,,,,GPGGA End Position,,,,,,,,,,,,,,,Base Latitude,Base Longitude,End Latitude,End Longitude,Node Count, Extra Tether Length,Node Address,X,Y,Z,Unscaled Pressure,Depth,,Time
$GPGGA,094522.127,3601.4491,N,01415.4698,E,1,5,1,0, M,0, M,0,*74,$GPGGA,094522.127,3601.4491,N,01415.4698,E,1,5,1,0, M,0, M,0,*74,36.0241516666667,14.25783,36.0241516667,14.25783,1,0.00,,3/7/2013 10:45:22 AM
$GPGGA,094523.140,3601.4491,N,01415.4698,E,1,5,1,0, M,0, M,0,*74,$GPGGA,094523.140,3601.4491,N,01415.4698,E,1,5,1,0, M,0, M,0,*74,36.0241516666667,14.25783,36.0241516667,14.25783,1,0.00,,3/7/2013 10:45:23 AM
$GPGGA,094524.157,3601.4491,N,01415.4698,E,1,5,1,0, M,0, M,0,*75,$GPGGA,094524.157,3601.4491,N,01415.4698,E,1,5,1,0, M,0, M,0,*75,36.0241516666667,14.25783,36.0241516667,14.25783,1,0.00,,3/7/2013 10:45:24 AM
$GPGGA,094525.168,3601.4491,N,01415.4698,E,1,5,1,0, M,0, M,0,*78,$GPGGA,094525.168,3601.4491,N,01415.4698,E,1,5,1,0, M,0, M,0,*78,36.0241516666667,14.25783,36.0241516667,14.25783,1,0.00,,3/7/2013 10:45:25 AM
$GPGGA,094526.189,3601.4505,N,01415.4713,E,1,5,1,0, M,0, M,0,*7A,$GPGGA,094526.189,3601.4505,N,01415.4713,E,1,5,1,0, M,0, M,0,*7A,36.0241749905822,14.2578542215619,36.0241749906,14.2578542216,1,0.00,,3/7/2013 10:45:26 AM
$GPGGA,094527.203,3601.4497,N,01415.4706,E,1,5,1,0, M,0, M,0,*74,$GPGGA,094527.203,3601.4497,N,01415.4706,E,1,5,1,0, M,0, M,0,*74,36.024161365414,14.2578425877246,36.0241613654,14.2578425877,1,0.00,,3/7/2013 10:45:27 AM
$GPGGA,094528.217,3601.4495,N,01415.4704,E,1,5,1,0, M,0, M,0,*7E,$GPGGA,094528.217,3601.4495,N,01415.4704,E,1,5,1,0, M,0, M,0,*7E,36.0241580376196,14.2578394561201,36.0241580376,14.2578394561,1,0.00,,3/7/2013 10:45:28 AM
$GPGGA,094529.231,3601.4493,N,01415.4702,E,1,5,1,0, M,0, M,0,*7B,$GPGGA,094529.231,3601.4493,N,01415.4702,E,1,5,1,0, M,0, M,0,*7B,36.0241541676317,14.2578359999422,36.0241541676,14.2578359999,1,0.00,,3/7/2013 10:45:29 AM
$GPGGA,094530.245,3601.4492,N,01415.4701,E,1,5,1,0, M,0, M,0,*72,$GPGGA,094530.245,3601.4492,N,01415.4701,E,1,5,1,0, M,0, M,0,*72,36.0241527760404,14.2578342709394,36.024152776,14.2578342709,1,0.00,,3/7/2013 10:45:30 AM
$GPGGA,094531.259,3601.4491,N,01415.4700,E,1,5,1,0, M,0, M,0,*7C,$GPGGA,094531.259,3601.4491,N,01415.4700,E,1,5,1,0, M,0, M,0,*7C,36.024152385826,14.2578325785094,36.0241523858,14.2578325785,1,0.00,,3/7/2013 10:45:31 AM
$GPGGA,094532.273,3601.4492,N,01415.4699,E,1,5,1,0, M,0, M,0,*75,$GPGGA,094532.273,3601.4492,N,01415.4699,E,1,5,1,0, M,0, M,0,*75,36.0241526640141,14.2578317392114,36.024152664,14.2578317392,1,0.00,,3/7/2013 10:45:32 AM
$GPGGA,094533.287,3601.4492,N,01415.4699,E,1,5,1,0, M,0, M,0,*7F,$GPGGA,094533.287,3601.4492,N,01415.4699,E,1,5,1,0, M,0, M,0,*7F,36.0241527519092,14.2578314570114,36.0241527519,14.257831457,1,0.00,,3/7/2013 10:45:33 AM
$GPGGA,094534.301,3601.4491,N,01415.4699,E,1,5,1,0, M,0, M,0,*74,$GPGGA,094534.301,3601.4491,N,01415.4699,E,1,5,1,0, M,0, M,0,*74,36.0241521988466,14.257831387379,36.0241521988,14.2578313874,1,0.00,,3/7/2013 10:45:34 AM
$GPGGA,094535.315,3601.4491,N,01415.4699,E,1,5,1,0, M,0, M,0,*70,$GPGGA,094535.315,3601.4491,N,01415.4699,E,1,5,1,0, M,0, M,0,*70,36.0241517225096,14.2578310649528,36.0241517225,14.257831065,1,0.00,,3/7/2013 10:45:35 AM
$GPGGA,094536.329,3601.4491,N,01415.4699,E,1,5,1,0, M,0, M,0,*7C,$GPGGA,094536.329,3601.4491,N,01415.4699,E,1,5,1,0, M,0, M,0,*7C,36.0241517100618,14.2578311963852,36.0241517101,14.2578311964,1,0.00,,3/7/2013 10:45:36 AM
$GPGGA,094537.343,3601.4491,N,01415.4699,E,1,5,1,0, M,0, M,0,*71,$GPGGA,094537.343,3601.4491,N,01415.4699,E,1,5,1,0, M,0, M,0,*71,36.0241513979903,14.25783162934,36.024151398,14.2578316293,1,0.00,,3/7/2013 10:45:37 AM
$GPGGA,094538.357,3601.4491,N,01415.4699,E,1,5,1,0, M,0, M,0,*7B,$GPGGA,094538.357,3601.4491,N,01415.4699,E,1,5,1,0, M,0, M,0,*7B,36.0241514170551,14.2578318115136,36.0241514171,14.2578318115,1,0.00,,3/7/2013 10:45:38 AM
$GPGGA,094539.371,3601.4491,N,01415.4699,E,1,5,1,0, M,0, M,0,*7E,$GPGGA,094539.371,3601.4491,N,01415.4699,E,1,5,1,0, M,0, M,0,*7E,36.0241517412251,14.2578318820808,36.0241517412,14.2578318821,1,0.00,,3/7/2013 10:45:39 AM
$GPGGA,094540.385,3601.4491,N,01415.4699,E,1,5,1,0, M,0, M,0,*7B,$GPGGA,094540.385,3601.4491,N,01415.4699,E,1,5,1,0, M,0, M,0,*7B,36.0241520205851,14.2578318317999,36.0241520206,14.2578318318,1,0.00,,3/7/2013 10:45:40 AM
$GPGGA,094541.401,3601.4491,N,01415.4699,E,1,5,1,0, M,0, M,0,*71,$GPGGA,094541.401,3601.4491,N,01415.4699,E,1,5,1,0, M,0, M,0,*71,36.0241522366414,14.2578318082976,36.0241522366,14.2578318083,1,0.00,,3/7/2013 10:45:41 AM
$GPGGA,094542.415,3601.4491,N,01415.4699,E,1,5,1,0, M,0, M,0,*77,$GPGGA,094542.415,3601.4491,N,01415.4699,E,1,5,1,0, M,0, M,0,*77,36.0241521343726,14.2578314800801,36.0241521344,14.2578314801,1,0.00,,3/7/2013 10:45:42 AM
$GPGGA,094543.429,3601.4491,N,01415.4699,E,1,5,1,0, M,0, M,0,*79,$GPGGA,094543.429,3601.4491,N,01415.4699,E,1,5,1,0, M,0, M,0,*79,36.0241518044803,14.2578312044136,36.0241518045,14.2578312044,1,0.00,,3/7/2013 10:45:43 AM
$GPGGA,094544.443,3601.4491,N,01415.4699,E,1,5,1,0, M,0, M,0,*72,$GPGGA,094544.443,3601.4491,N,01415.4699,E,1,5,1,0, M,0, M,0,*72,36.0241512214529,14.2578309688793,36.0241512215,14.2578309689,1,0.00,,3/7/2013 10:45:44 AM
$GPGGA,094545.457,3601.4490,N,01415.4698,E,1,5,1,0, M,0, M,0,*76,$GPGGA,094545.457,3601.4490,N,01415.4698,E,1,5,1,0, M,0, M,0,*76,36.0241506460564,14.2578307679503,36.0241506461,14.257830768,1,0.00,,3/7/2013 10:45:45 AM
$GPGGA,094546.471,3601.4490,N,01415.4698,E,1,5,1,0, M,0, M,0,*71,$GPGGA,094546.471,3601.4490,N,01415.4698,E,1,5,1,0, M,0, M,0,*71,36.0241501789652,14.2578306119834,36.024150179,14.257830612,1,0.00,,3/7/2013 10:45:46 AM
$GPGGA,094547.485,3601.4490,N,01415.4698,E,1,5,1,0, M,0, M,0,*7B,$GPGGA,094547.485,3601.4490,N,01415.4698,E,1,5,1,0, M,0, M,0,*7B,36.0241498406004,14.2578305073839,36.0241498406,14.2578305074,1,0.00,,3/7/2013 10:45:47 AM
$GPGGA,094548.499,3601.4490,N,01415.4698,E,1,5,1,0, M,0, M,0,*79,$GPGGA,094548.499,3601.4490,N,01415.4698,E,1,5,1,0, M,0, M,0,*79,36.0241498713009,14.2578304165706,36.0241498713,14.2578304166,1,0.00,,3/7/2013 10:45:48 AM
$GPGGA,094549.513,3601.4490,N,01415.4698,E,1,5,1,0, M,0, M,0,*7B,$GPGGA,094549.513,3601.4490,N,01415.4698,E,1,5,1,0, M,0, M,0,*7B,36.024150219868,14.2578300340296,36.0241502199,14.257830034,1,0.00,,3/7/2013 10:45:49 AM
$GPGGA,094550.527,3601.4490,N,01415.4698,E,1,5,1,0, M,0, M,0,*74,$GPGGA,094550.527,3601.4490,N,01415.4698,E,1,5,1,0, M,0, M,0,*74,36.0241505109279,14.2578296510998,36.0241505109,14.2578296511,1,0.00,,3/7/2013 10:45:50 AM
$GPGGA,094551.541,3601.4491,N,01415.4697,E,1,5,1,0, M,0, M,0,*7B,$GPGGA,094551.541,3601.4491,N,01415.4697,E,1,5,1,0, M,0, M,0,*7B,36.0241511165905,14.2578288915912,36.0241511166,14.2578288916,1,0.00,,3/7/2013 10:45:51 AM
$GPGGA,094552.555,3601.4491,N,01415.4697,E,1,5,1,0, M,0, M,0,*7D,$GPGGA,094552.555,3601.4491,N,01415.4697,E,1,5,1,0, M,0, M,0,*7D,36.0241516188543,14.2578287202576,36.0241516189,14.2578287203,1,0.00,,3/7/2013 10:45:52 AM
$GPGGA,094553.569,3601.4491,N,01415.4697,E,1,5,1,0, M,0, M,0,*73,$GPGGA,094553.569,3601.4491,N,01415.4697,E,1,5,1,0, M,0, M,0,*73,36.0241520176919,14.2578290184787,36.0241520177,14.2578290185,1,0.00,,3/7/2013 10:45:53 AM
$GPGGA,094554.583,3601.4491,N,01415.4698,E,1,5,1,0, M,0, M,0,*7F,$GPGGA,094554.583,3601.4491,N,01415.4698,E,1,5,1,0, M,0, M,0,*7F,36.0241523096308,14.25782957704,36.0241523096,14.257829577,1,0.00,,3/7/2013 10:45:54 AM
$GPGGA,094555.597,3601.4492,N,01415.4698,E,1,5,1,0, M,0, M,0,*78,$GPGGA,094555.597,3601.4492,N,01415.4698,E,1,5,1,0, M,0, M,0,*78,36.0241528823076,14.257830057763,36.0241528823,14.2578300578,1,0.00,,3/7/2013 10:45:55 AM
$GPGGA,094556.611,3601.4492,N,01415.4698,E,1,5,1,0, M,0, M,0,*76,$GPGGA,094556.611,3601.4492,N,01415.4698,E,1,5,1,0, M,0, M,0,*76,36.0241534046487,14.2578304537655,36.0241534046,14.2578304538,1,0.00,,3/7/2013 10:45:56 AM
$GPGGA,094557.625,3601.4493,N,01415.4698,E,1,5,1,0, M,0, M,0,*71,$GPGGA,094557.625,3601.4493,N,01415.4698,E,1,5,1,0, M,0, M,0,*71,36.0241542265825,14.2578307481221,36.0241542266,14.2578307481,1,0.00,,3/7/2013 10:45:57 AM
$GPGGA,094558.639,3601.4493,N,01415.4698,E,1,5,1,0, M,0, M,0,*73,$GPGGA,094558.639,3601.4493,N,01415.4698,E,1,5,1,0, M,0, M,0,*73,36.0241550619374,14.2578305589411,36.0241550619,14.2578305589,1,0.00,,3/7/2013 10:45:58 AM
$GPGGA,094559.653,3601.4493,N,01415.4698,E,1,5,1,0, M,0, M,0,*7E,$GPGGA,094559.653,3601.4493,N,01415.4698,E,1,5,1,0, M,0, M,0,*7E,36.0241553952787,14.2578304622433,36.0241553953,14.2578304622,1,0.00,,3/7/2013 10:45:59 AM
$GPGGA,094600.667,3601.4493,N,01415.4698,E,1,5,1,0, M,0, M,0,*76,$GPGGA,094600.667,3601.4493,N,01415.4698,E,1,5,1,0, M,0, M,0,*76,36.0241556556381,14.2578303810696,36.0241556556,14.2578303811,1,0.00,,3/7/2013 10:46:00 AM
$GPGGA,094601.681,3601.4494,N,01415.4698,E,1,5,1,0, M,0, M,0,*78,$GPGGA,094601.681,3601.4494,N,01415.4698,E,1,5,1,0, M,0, M,0,*78,36.0241560582453,14.2578303177807,36.0241560582,14.2578303178,1,0.00,,3/7/2013 10:46:01 AM
$GPGGA,094602.695,3601.4494,N,01415.4698,E,1,5,1,0, M,0, M,0,*7E,$GPGGA,094602.695,3601.4494,N,01415.4698,E,1,5,1,0, M,0, M,0,*7E,36.0241563534714,14.2578302734677,36.0241563535,14.2578302735,1,0.00,,3/7/2013 10:46:02 AM
$GPGGA,094603.709,3601.4494,N,01415.4698,E,1,5,1,0, M,0, M,0,*7B,$GPGGA,094603.709,3601.4494,N,01415.4698,E,1,5,1,0, M,0, M,0,*7B,36.0241564072582,14.2578302327026,36.0241564073,14.2578302327,1,0.00,,3/7/2013 10:46:03 AM
$GPGGA,094604.723,3601.4494,N,01415.4698,E,1,5,1,0, M,0, M,0,*74,$GPGGA,094604.723,3601.4494,N,01415.4698,E,1,5,1,0, M,0, M,0,*74,36.0241564541421,14.2578301980087,36.0241564541,14.257830198,1,0.00,,3/7/2013 10:46:04 AM
$GPGGA,094605.737,3601.4494,N,01415.4698,E,1,5,1,0, M,0, M,0,*70,$GPGGA,094605.737,3601.4494,N,01415.4698,E,1,5,1,0, M,0, M,0,*70,36.0241564844348,14.2578301724697,36.0241564844,14.2578301725,1,0.00,,3/7/2013 10:46:05 AM
$GPGGA,094606.751,3601.4494,N,01415.4698,E,1,5,1,0, M,0, M,0,*73,$GPGGA,094606.751,3601.4494,N,01415.4698,E,1,5,1,0, M,0, M,0,*73,36.0241565095702,14.2578301499417,36.0241565096,14.2578301499,1,0.00,,3/7/2013 10:46:06 AM
$GPGGA,094607.765,3601.4494,N,01415.4698,E,1,5,1,0, M,0, M,0,*75,$GPGGA,094607.765,3601.4494,N,01415.4698,E,1,5,1,0, M,0, M,0,*75,36.024156654391,14.2578301332095,36.0241566544,14.2578301332,1,0.00,,3/7/2013 10:46:07 AM
$GPGGA,094608.779,3601.4494,N,01415.4698,E,1,5,1,0, M,0, M,0,*77,$GPGGA,094608.779,3601.4494,N,01415.4698,E,1,5,1,0, M,0, M,0,*77,36.0241570448342,14.2578302368294,36.0241570448,14.2578302368,1,0.00,,3/7/2013 10:46:08 AM
$GPGGA,094609.793,3601.4495,N,01415.4698,E,1,5,1,0, M,0, M,0,*73,$GPGGA,094609.793,3601.4495,N,01415.4698,E,1,5,1,0, M,0, M,0,*73,36.0241576451401,14.2578304763205,36.0241576451,14.2578304763,1,0.00,,3/7/2013 10:46:09 AM
$GPGGA,094610.807,3601.4495,N,01415.4698,E,1,5,1,0, M,0, M,0,*79,$GPGGA,094610.807,3601.4495,N,01415.4698,E,1,5,1,0, M,0, M,0,*79,36.0241581949289,14.2578306919696,36.0241581949,14.257830692,1,0.00,,3/7/2013 10:46:10 AM
$GPGGA,094611.821,3601.4495,N,01415.4699,E,1,5,1,0, M,0, M,0,*7D,$GPGGA,094611.821,3601.4495,N,01415.4699,E,1,5,1,0, M,0, M,0,*7D,36.0241585851292,14.2578308654736,36.0241585851,14.2578308655,1,0.00,,3/7/2013 10:46:11 AM
$GPGGA,094612.835,3601.4495,N,01415.4699,E,1,5,1,0, M,0, M,0,*7B,$GPGGA,094612.835,3601.4495,N,01415.4699,E,1,5,1,0, M,0, M,0,*7B,36.0241588804914,14.2578308746392,36.0241588805,14.2578308746,1,0.00,,3/7/2013 10:46:12 AM
$GPGGA,094613.849,3601.4495,N,01415.4698,E,1,5,1,0, M,0, M,0,*70,$GPGGA,094613.849,3601.4495,N,01415.4698,E,1,5,1,0, M,0, M,0,*70,36.0241591006536,14.2578307402262,36.0241591007,14.2578307402,1,0.00,,3/7/2013 10:46:13 AM
$GPGGA,094614.863,3601.4496,N,01415.4698,E,1,5,1,0, M,0, M,0,*7C,$GPGGA,094614.863,3601.4496,N,01415.4698,E,1,5,1,0, M,0, M,0,*7C,36.0241592687849,14.2578306161162,36.0241592688,14.2578306161,1,0.00,,3/7/2013 10:46:14 AM
$GPGGA,094615.877,3601.4496,N,01415.4698,E,1,5,1,0, M,0, M,0,*78,$GPGGA,094615.877,3601.4496,N,01415.4698,E,1,5,1,0, M,0, M,0,*78,36.0241593988093,14.2578305106861,36.0241593988,14.2578305107,1,0.00,,3/7/2013 10:46:15 AM
$GPGGA,094616.891,3601.4496,N,01415.4698,E,1,5,1,0, M,0, M,0,*73,$GPGGA,094616.891,3601.4496,N,01415.4698,E,1,5,1,0, M,0, M,0,*73,36.0241596503675,14.2578304195098,36.0241596504,14.2578304195,1,0.00,,3/7/2013 10:46:16 AM
$GPGGA,094617.905,3601.4496,N,01415.4698,E,1,5,1,0, M,0, M,0,*7E,$GPGGA,094617.905,3601.4496,N,01415.4698,E,1,5,1,0, M,0, M,0,*7E,36.0241600625922,14.2578303468341,36.0241600626,14.2578303468,1,0.00,,3/7/2013 10:46:17 AM
$GPGGA,094618.919,3601.4496,N,01415.4698,E,1,5,1,0, M,0, M,0,*7C,$GPGGA,094618.919,3601.4496,N,01415.4698,E,1,5,1,0, M,0, M,0,*7C,36.0241603768077,14.2578301460684,36.0241603768,14.2578301461,1,0.00,,3/7/2013 10:46:18 AM
$GPGGA,094619.933,3601.4496,N,01415.4698,E,1,5,1,0, M,0, M,0,*75,$GPGGA,094619.933,3601.4496,N,01415.4698,E,1,5,1,0, M,0, M,0,*75,36.0241607289194,14.2578296066586,36.0241607289,14.2578296067,1,0.00,,3/7/2013 10:46:19 AM
$GPGGA,094620.947,3601.4496,N,01415.4698,E,1,5,1,0, M,0, M,0,*7C,$GPGGA,094620.947,3601.4496,N,01415.4698,E,1,5,1,0, M,0, M,0,*7C,36.0241606106311,14.2578293402659,36.0241606106,14.2578293403,1,0.00,,3/7/2013 10:46:20 AM
$GPGGA,094621.961,3601.4496,N,01415.4697,E,1,5,1,0, M,0, M,0,*76,$GPGGA,094621.961,3601.4496,N,01415.4697,E,1,5,1,0, M,0, M,0,*76,36.0241605178595,14.2578291389328,36.0241605179,14.2578291389,1,0.00,,3/7/2013 10:46:21 AM
$GPGGA,094622.975,3601.4496,N,01415.4697,E,1,5,1,0, M,0, M,0,*70,$GPGGA,094622.975,3601.4496,N,01415.4697,E,1,5,1,0, M,0, M,0,*70,36.0241603502009,14.2578287186567,36.0241603502,14.2578287187,1,0.00,,3/7/2013 10:46:22 AM
$GPGGA,094623.989,3601.4496,N,01415.4696,E,1,5,1,0, M,0, M,0,*73,$GPGGA,094623.989,3601.4496,N,01415.4696,E,1,5,1,0, M,0, M,0,*73,36.0241598439603,14.257826927497,36.024159844,14.2578269275,1,0.00,,3/7/2013 10:46:23 AM
$GPGGA,094625.003,3601.4496,N,01415.4696,E,1,5,1,0, M,0, M,0,*7E,$GPGGA,094625.003,3601.4496,N,01415.4696,E,1,5,1,0, M,0, M,0,*7E,36.024159569573,14.2578259074362,36.0241595696,14.2578259074,1,0.00,,3/7/2013 10:46:25 AM
$GPGGA,094626.017,3601.4496,N,01415.4695,E,1,5,1,0, M,0, M,0,*7B,$GPGGA,094626.017,3601.4496,N,01415.4695,E,1,5,1,0, M,0, M,0,*7B,36.024159349637,14.2578251887098,36.0241593496,14.2578251887,1,0.00,,3/7/2013 10:46:26 AM
$GPGGA,094627.031,3601.4496,N,01415.4694,E,1,5,1,0, M,0, M,0,*7F,$GPGGA,094627.031,3601.4496,N,01415.4694,E,1,5,1,0, M,0, M,0,*7F,36.0241591716352,14.2578241636969,36.0241591716,14.2578241637,1,0.00,,3/7/2013 10:46:27 AM
$GPGGA,094628.045,3601.4496,N,01415.4694,E,1,5,1,0, M,0, M,0,*73,$GPGGA,094628.045,3601.4496,N,01415.4694,E,1,5,1,0, M,0, M,0,*73,36.0241592681995,14.2578237886067,36.0241592682,14.2578237886,1,0.00,,3/7/2013 10:46:28 AM
$GPGGA,094629.059,3601.4496,N,01415.4694,E,1,5,1,0, M,0, M,0,*7F,$GPGGA,094629.059,3601.4496,N,01415.4694,E,1,5,1,0, M,0, M,0,*7F,36.0241594827947,14.2578225279621,36.0241594828,14.257822528,1,0.00,,3/7/2013 10:46:29 AM
$GPGGA,094630.073,3601.4496,N,01415.4693,E,1,5,1,0, M,0, M,0,*78,$GPGGA,094630.073,3601.4496,N,01415.4693,E,1,5,1,0, M,0, M,0,*78,36.0241593194929,14.2578218070501,36.0241593195,14.2578218071,1,0.00,,3/7/2013 10:46:30 AM
$GPGGA,094631.087,3601.4495,N,01415.4693,E,1,5,1,0, M,0, M,0,*71,$GPGGA,094631.087,3601.4495,N,01415.4693,E,1,5,1,0, M,0, M,0,*71,36.0241591553486,14.2578213285573,36.0241591553,14.2578213286,1,0.00,,3/7/2013 10:46:31 AM
$GPGGA,094632.101,3601.4495,N,01415.4692,E,1,5,1,0, M,0, M,0,*7C,$GPGGA,094632.101,3601.4495,N,01415.4692,E,1,5,1,0, M,0, M,0,*7C,36.0241590310717,14.2578205578583,36.0241590311,14.2578205579,1,0.00,,3/7/2013 10:46:32 AM
$GPGGA,094633.115,3601.4495,N,01415.4692,E,1,5,1,0, M,0, M,0,*78,$GPGGA,094633.115,3601.4495,N,01415.4692,E,1,5,1,0, M,0, M,0,*78,36.0241589771298,14.2578202400484,36.0241589771,14.25782024,1,0.00,,3/7/2013 10:46:33 AM
$GPGGA,094634.129,3601.4495,N,01415.4692,E,1,5,1,0, M,0, M,0,*70,$GPGGA,094634.129,3601.4495,N,01415.4692,E,1,5,1,0, M,0, M,0,*70,36.0241591136152,14.2578195380751,36.0241591136,14.2578195381,1,0.00,,3/7/2013 10:46:34 AM
$GPGGA,094635.143,3601.4496,N,01415.4692,E,1,5,1,0, M,0, M,0,*7E,$GPGGA,094635.143,3601.4496,N,01415.4692,E,1,5,1,0, M,0, M,0,*7E,36.024159268533,14.2578192330311,36.0241592685,14.257819233,1,0.00,,3/7/2013 10:46:35 AM
$GPGGA,094636.157,3601.4496,N,01415.4691,E,1,5,1,0, M,0, M,0,*7B,$GPGGA,094636.157,3601.4496,N,01415.4691,E,1,5,1,0, M,0, M,0,*7B,36.0241596731536,14.2578189844196,36.0241596732,14.2578189844,1,0.00,,3/7/2013 10:46:36 AM
$GPGGA,094637.171,3601.4496,N,01415.4691,E,1,5,1,0, M,0, M,0,*7E,$GPGGA,094637.171,3601.4496,N,01415.4691,E,1,5,1,0, M,0, M,0,*7E,36.0241600672715,14.2578188244094,36.0241600673,14.2578188244,1,0.00,,3/7/2013 10:46:37 AM
$GPGGA,094638.185,3601.4496,N,01415.4691,E,1,5,1,0, M,0, M,0,*7A,$GPGGA,094638.185,3601.4496,N,01415.4691,E,1,5,1,0, M,0, M,0,*7A,36.0241602430732,14.2578187669737,36.0241602431,14.257818767,1,0.00,,3/7/2013 10:46:38 AM
$GPGGA,094639.199,3601.4496,N,01415.4691,E,1,5,1,0, M,0, M,0,*76,$GPGGA,094639.199,3601.4496,N,01415.4691,E,1,5,1,0, M,0, M,0,*76,36.0241606632063,14.2578186440161,36.0241606632,14.257818644,1,0.00,,3/7/2013 10:46:39 AM
$GPGGA,094640.213,3601.4497,N,01415.4691,E,1,5,1,0, M,0, M,0,*78,$GPGGA,094640.213,3601.4497,N,01415.4691,E,1,5,1,0, M,0, M,0,*78,36.0241608489296,14.2578185921089,36.0241608489,14.2578185921,1,0.00,,3/7/2013 10:46:40 AM
$GPGGA,094641.227,3601.4497,N,01415.4691,E,1,5,1,0, M,0, M,0,*7E,$GPGGA,094641.227,3601.4497,N,01415.4691,E,1,5,1,0, M,0, M,0,*7E,36.0241609795352,14.2578185544684,36.0241609795,14.2578185545,1,0.00,,3/7/2013 10:46:41 AM
$GPGGA,094642.241,3601.4497,N,01415.4691,E,1,5,1,0, M,0, M,0,*7D,$GPGGA,094642.241,3601.4497,N,01415.4691,E,1,5,1,0, M,0, M,0,*7D,36.0241610990443,14.2578185196705,36.024161099,14.2578185197,1,0.00,,3/7/2013 10:46:42 AM
$GPGGA,094643.255,3601.4497,N,01415.4691,E,1,5,1,0, M,0, M,0,*79,$GPGGA,094643.255,3601.4497,N,01415.4691,E,1,5,1,0, M,0, M,0,*79,36.0241611515395,14.2578183712615,36.0241611515,14.2578183713,1,0.00,,3/7/2013 10:46:43 AM
$GPGGA,094644.269,3601.4497,N,01415.4691,E,1,5,1,0, M,0, M,0,*71,$GPGGA,094644.269,3601.4497,N,01415.4691,E,1,5,1,0, M,0, M,0,*71,36.0241612817412,14.257818235268,36.0241612817,14.2578182353,1,0.00,,3/7/2013 10:46:44 AM
$GPGGA,094645.283,3601.4497,N,01415.4691,E,1,5,1,0, M,0, M,0,*74,$GPGGA,094645.283,3601.4497,N,01415.4691,E,1,5,1,0, M,0, M,0,*74,36.0241613434891,14.2578182502896,36.0241613435,14.2578182503,1,0.00,,3/7/2013 10:46:45 AM
$GPGGA,094646.297,3601.4497,N,01415.4691,E,1,5,1,0, M,0, M,0,*72,$GPGGA,094646.297,3601.4497,N,01415.4691,E,1,5,1,0, M,0, M,0,*72,36.024161392604,14.2578182622452,36.0241613926,14.2578182622,1,0.00,,3/7/2013 10:46:46 AM
$GPGGA,094647.311,3601.4497,N,01415.4691,E,1,5,1,0, M,0, M,0,*7C,$GPGGA,094647.311,3601.4497,N,01415.4691,E,1,5,1,0, M,0, M,0,*7C,36.0241614320301,14.2578182718669,36.024161432,14.2578182719,1,0.00,,3/7/2013 10:46:47 AM
$GPGGA,094648.325,3601.4497,N,01415.4691,E,1,5,1,0, M,0, M,0,*74,$GPGGA,094648.325,3601.4497,N,01415.4691,E,1,5,1,0, M,0, M,0,*74,36.024161448786,14.2578182759711,36.0241614488,14.257818276,1,0.00,,3/7/2013 10:46:48 AM
$GPGGA,094649.339,3601.4497,N,01415.4691,E,1,5,1,0, M,0, M,0,*78,$GPGGA,094649.339,3601.4497,N,01415.4691,E,1,5,1,0, M,0, M,0,*78,36.0241614905966,14.2578182862473,36.0241614906,14.2578182862,1,0.00,,3/7/2013 10:46:49 AM
$GPGGA,094650.353,3601.4497,N,01415.4691,E,1,5,1,0, M,0, M,0,*7C,$GPGGA,094650.353,3601.4497,N,01415.4691,E,1,5,1,0, M,0, M,0,*7C,36.0241612867654,14.2578178745494,36.0241612868,14.2578178745,1,0.00,,3/7/2013 10:46:50 AM
$GPGGA,094651.367,3601.4497,N,01415.4690,E,1,5,1,0, M,0, M,0,*7B,$GPGGA,094651.367,3601.4497,N,01415.4690,E,1,5,1,0, M,0, M,0,*7B,36.0241611102194,14.2578173893715,36.0241611102,14.2578173894,1,0.00,,3/7/2013 10:46:51 AM
$GPGGA,094652.381,3601.4497,N,01415.4690,E,1,5,1,0, M,0, M,0,*70,$GPGGA,094652.381,3601.4497,N,01415.4690,E,1,5,1,0, M,0, M,0,*70,36.024161206624,14.2578172132907,36.0241612066,14.2578172133,1,0.00,,3/7/2013 10:46:52 AM
$GPGGA,094653.395,3601.4497,N,01415.4690,E,1,5,1,0, M,0, M,0,*74,$GPGGA,094653.395,3601.4497,N,01415.4690,E,1,5,1,0, M,0, M,0,*74,36.0241613805547,14.2578173376012,36.0241613806,14.2578173376,1,0.00,,3/7/2013 10:46:53 AM
$GPGGA,094654.409,3601.4497,N,01415.4691,E,1,5,1,0, M,0, M,0,*70,$GPGGA,094654.409,3601.4497,N,01415.4691,E,1,5,1,0, M,0, M,0,*70,36.0241618593674,14.257817954139,36.0241618594,14.2578179541,1,0.00,,3/7/2013 10:46:54 AM
$GPGGA,094655.423,3601.4497,N,01415.4691,E,1,5,1,0, M,0, M,0,*79,$GPGGA,094655.423,3601.4497,N,01415.4691,E,1,5,1,0, M,0, M,0,*79,36.0241621288755,14.2578184045891,36.0241621289,14.2578184046,1,0.00,,3/7/2013 10:46:55 AM
$GPGGA,094656.437,3601.4497,N,01415.4691,E,1,5,1,0, M,0, M,0,*7F,$GPGGA,094656.437,3601.4497,N,01415.4691,E,1,5,1,0, M,0, M,0,*7F,36.0241623566253,14.2578183889394,36.0241623566,14.2578183889,1,0.00,,3/7/2013 10:46:56 AM
$GPGGA,094657.451,3601.4498,N,01415.4691,E,1,5,1,0, M,0, M,0,*71,$GPGGA,094657.451,3601.4498,N,01415.4691,E,1,5,1,0, M,0, M,0,*71,36.0241625397744,14.2578187057715,36.0241625398,14.2578187058,1,0.00,,3/7/2013 10:46:57 AM
$GPGGA,094658.465,3601.4498,N,01415.4691,E,1,5,1,0, M,0, M,0,*79,$GPGGA,094658.465,3601.4498,N,01415.4691,E,1,5,1,0, M,0, M,0,*79,36.0241626957847,14.2578189830884,36.0241626958,14.2578189831,1,0.00,,3/7/2013 10:46:58 AM
$GPGGA,094659.479,3601.4497,N,01415.4692,E,1,5,1,0, M,0, M,0,*79,$GPGGA,094659.479,3601.4497,N,01415.4692,E,1,5,1,0, M,0, M,0,*79,36.0241624843876,14.2578191872226,36.0241624844,14.2578191872,1,0.00,,3/7/2013 10:46:59 AM
$GPGGA,094700.493,3601.4498,N,01415.4692,E,1,5,1,0, M,0, M,0,*7F,$GPGGA,094700.493,3601.4498,N,01415.4692,E,1,5,1,0, M,0, M,0,*7F,36.0241626441061,14.2578193469161,36.0241626441,14.2578193469,1,0.00,,3/7/2013 10:47:00 AM
$GPGGA,094701.507,3601.4498,N,01415.4692,E,1,5,1,0, M,0, M,0,*72,$GPGGA,094701.507,3601.4498,N,01415.4692,E,1,5,1,0, M,0, M,0,*72,36.0241627679569,14.2578198032275,36.024162768,14.2578198032,1,0.00,,3/7/2013 10:47:01 AM
$GPGGA,094702.521,3601.4498,N,01415.4692,E,1,5,1,0, M,0, M,0,*75,$GPGGA,094702.521,3601.4498,N,01415.4692,E,1,5,1,0, M,0, M,0,*75,36.0241628618529,14.2578202141711,36.0241628619,14.2578202142,1,0.00,,3/7/2013 10:47:02 AM
$GPGGA,094703.535,3601.4498,N,01415.4692,E,1,5,1,0, M,0, M,0,*71,$GPGGA,094703.535,3601.4498,N,01415.4692,E,1,5,1,0, M,0, M,0,*71,36.0241632479201,14.2578205301269,36.0241632479,14.2578205301,1,0.00,,3/7/2013 10:47:03 AM
$GPGGA,094704.549,3601.4498,N,01415.4693,E,1,5,1,0, M,0, M,0,*7C,$GPGGA,094704.549,3601.4498,N,01415.4693,E,1,5,1,0, M,0, M,0,*7C,36.0241636108027,14.2578211585403,36.0241636108,14.2578211585,1,0.00,,3/7/2013 10:47:04 AM
$GPGGA,094705.563,3601.4498,N,01415.4693,E,1,5,1,0, M,0, M,0,*75,$GPGGA,094705.563,3601.4498,N,01415.4693,E,1,5,1,0, M,0, M,0,*75,36.024163904779,14.2578216881459,36.0241639048,14.2578216881,1,0.00,,3/7/2013 10:47:05 AM
$GPGGA,094706.577,3601.4498,N,01415.4693,E,1,5,1,0, M,0, M,0,*73,$GPGGA,094706.577,3601.4498,N,01415.4693,E,1,5,1,0, M,0, M,0,*73,36.0241641319866,14.2578220829025,36.024164132,14.2578220829,1,0.00,,3/7/2013 10:47:06 AM
$GPGGA,094707.592,3601.4499,N,01415.4693,E,1,5,1,0, M,0, M,0,*78,$GPGGA,094707.592,3601.4499,N,01415.4693,E,1,5,1,0, M,0, M,0,*78,36.0241643043833,14.2578223684784,36.0241643044,14.2578223685,1,0.00,,3/7/2013 10:47:07 AM
$GPGGA,094708.606,3601.4499,N,01415.4694,E,1,5,1,0, M,0, M,0,*7E,$GPGGA,094708.606,3601.4499,N,01415.4694,E,1,5,1,0, M,0, M,0,*7E,36.0241647804195,14.257822959874,36.0241647804,14.2578229599,1,0.00,,3/7/2013 10:47:08 AM
$GPGGA,094709.620,3601.4499,N,01415.4694,E,1,5,1,0, M,0, M,0,*7B,$GPGGA,094709.620,3601.4499,N,01415.4694,E,1,5,1,0, M,0, M,0,*7B,36.0241648248836,14.2578234504001,36.0241648249,14.2578234504,1,0.00,,3/7/2013 10:47:09 AM
$GPGGA,094710.634,3601.4499,N,01415.4694,E,1,5,1,0, M,0, M,0,*76,$GPGGA,094710.634,3601.4499,N,01415.4694,E,1,5,1,0, M,0, M,0,*76,36.0241651873304,14.2578238138657,36.0241651873,14.2578238139,1,0.00,,3/7/2013 10:47:10 AM
$GPGGA,094711.648,3601.4499,N,01415.4695,E,1,5,1,0, M,0, M,0,*7D,$GPGGA,094711.648,3601.4499,N,01415.4695,E,1,5,1,0, M,0, M,0,*7D,36.0241654410083,14.2578241817224,36.024165441,14.2578241817,1,0.00,,3/7/2013 10:47:11 AM
$GPGGA,094712.662,3601.4499,N,01415.4695,E,1,5,1,0, M,0, M,0,*76,$GPGGA,094712.662,3601.4499,N,01415.4695,E,1,5,1,0, M,0, M,0,*76,36.0241653583637,14.2578243503545,36.0241653584,14.2578243504,1,0.00,,3/7/2013 10:47:12 AM
$GPGGA,094713.676,3601.4499,N,01415.4695,E,1,5,1,0, M,0, M,0,*72,$GPGGA,094713.676,3601.4499,N,01415.4695,E,1,5,1,0, M,0, M,0,*72,36.0241652988379,14.257824477574,36.0241652988,14.2578244776,1,0.00,,3/7/2013 10:47:13 AM
$GPGGA,094714.690,3601.4499,N,01415.4695,E,1,5,1,0, M,0, M,0,*7D,$GPGGA,094714.690,3601.4499,N,01415.4695,E,1,5,1,0, M,0, M,0,*7D,36.0241652541255,14.2578245744685,36.0241652541,14.2578245745,1,0.00,,3/7/2013 10:47:14 AM
$GPGGA,094715.704,3601.4499,N,01415.4695,E,1,5,1,0, M,0, M,0,*70,$GPGGA,094715.704,3601.4499,N,01415.4695,E,1,5,1,0, M,0, M,0,*70,36.0241652197003,14.2578246489748,36.0241652197,14.257824649,1,0.00,,3/7/2013 10:47:15 AM
$GPGGA,094716.718,3601.4499,N,01415.4695,E,1,5,1,0, M,0, M,0,*7E,$GPGGA,094716.718,3601.4499,N,01415.4695,E,1,5,1,0, M,0, M,0,*7E,36.0241651924211,14.2578247065895,36.0241651924,14.2578247066,1,0.00,,3/7/2013 10:47:16 AM
$GPGGA,094717.732,3601.4499,N,01415.4695,E,1,5,1,0, M,0, M,0,*77,$GPGGA,094717.732,3601.4499,N,01415.4695,E,1,5,1,0, M,0, M,0,*77,36.024165170594,14.2578247514871,36.0241651706,14.2578247515,1,0.00,,3/7/2013 10:47:17 AM
$GPGGA,094718.746,3601.4499,N,01415.4695,E,1,5,1,0, M,0, M,0,*7B,$GPGGA,094718.746,3601.4499,N,01415.4695,E,1,5,1,0, M,0, M,0,*7B,36.0241651526085,14.2578247873952,36.0241651526,14.2578247874,1,0.00,,3/7/2013 10:47:18 AM
$GPGGA,094719.760,3601.4499,N,01415.4695,E,1,5,1,0, M,0, M,0,*7E,$GPGGA,094719.760,3601.4499,N,01415.4695,E,1,5,1,0, M,0, M,0,*7E,36.0241651380712,14.2578248164436,36.0241651381,14.2578248164,1,0.00,,3/7/2013 10:47:19 AM
$GPGGA,094720.774,3601.4499,N,01415.4695,E,1,5,1,0, M,0, M,0,*71,$GPGGA,094720.774,3601.4499,N,01415.4695,E,1,5,1,0, M,0, M,0,*71,36.024165199744,14.2578248345666,36.0241651997,14.2578248346,1,0.00,,3/7/2013 10:47:20 AM
$GPGGA,094721.788,3601.4499,N,01415.4695,E,1,5,1,0, M,0, M,0,*73,$GPGGA,094721.788,3601.4499,N,01415.4695,E,1,5,1,0, M,0, M,0,*73,36.0241652516434,14.2578248507144,36.0241652516,14.2578248507,1,0.00,,3/7/2013 10:47:21 AM
$GPGGA,094722.802,3601.4499,N,01415.4695,E,1,5,1,0, M,0, M,0,*7D,$GPGGA,094722.802,3601.4499,N,01415.4695,E,1,5,1,0, M,0, M,0,*7D,36.0241653131823,14.2578248671345,36.0241653132,14.2578248671,1,0.00,,3/7/2013 10:47:22 AM
$GPGGA,094723.816,3601.4499,N,01415.4695,E,1,5,1,0, M,0, M,0,*79,$GPGGA,094723.816,3601.4499,N,01415.4695,E,1,5,1,0, M,0, M,0,*79,36.0241654978909,14.2578248876514,36.0241654979,14.2578248877,1,0.00,,3/7/2013 10:47:23 AM
$GPGGA,094724.830,3601.4499,N,01415.4695,E,1,5,1,0, M,0, M,0,*7A,$GPGGA,094724.830,3601.4499,N,01415.4695,E,1,5,1,0, M,0, M,0,*7A,36.0241656735642,14.2578249091816,36.0241656736,14.2578249092,1,0.00,,3/7/2013 10:47:24 AM
$GPGGA,094725.844,3601.4499,N,01415.4695,E,1,5,1,0, M,0, M,0,*78,$GPGGA,094725.844,3601.4499,N,01415.4695,E,1,5,1,0, M,0, M,0,*78,36.0241658332363,14.257824929577,36.0241658332,14.2578249296,1,0.00,,3/7/2013 10:47:25 AM
$GPGGA,094726.858,3601.4500,N,01415.4695,E,1,5,1,0, M,0, M,0,*77,$GPGGA,094726.858,3601.4500,N,01415.4695,E,1,5,1,0, M,0, M,0,*77,36.0241659710607,14.2578249472202,36.0241659711,14.2578249472,1,0.00,,3/7/2013 10:47:26 AM
$GPGGA,094727.872,3601.4500,N,01415.4695,E,1,5,1,0, M,0, M,0,*7E,$GPGGA,094727.872,3601.4500,N,01415.4695,E,1,5,1,0, M,0, M,0,*7E,36.0241660856701,14.2578249614273,36.0241660857,14.2578249614,1,0.00,,3/7/2013 10:47:27 AM
$GPGGA,094728.886,3601.4500,N,01415.4695,E,1,5,1,0, M,0, M,0,*7A,$GPGGA,094728.886,3601.4500,N,01415.4695,E,1,5,1,0, M,0, M,0,*7A,36.0241661802268,14.2578249728607,36.0241661802,14.2578249729,1,0.00,,3/7/2013 10:47:28 AM
$GPGGA,094729.900,3601.4500,N,01415.4695,E,1,5,1,0, M,0, M,0,*74,$GPGGA,094729.900,3601.4500,N,01415.4695,E,1,5,1,0, M,0, M,0,*74,36.0241663980615,14.2578250674941,36.0241663981,14.2578250675,1,0.00,,3/7/2013 10:47:29 AM
$GPGGA,094730.914,3601.4500,N,01415.4695,E,1,5,1,0, M,0, M,0,*79,$GPGGA,094730.914,3601.4500,N,01415.4695,E,1,5,1,0, M,0, M,0,*79,36.0241666007329,14.2578252752487,36.0241666007,14.2578252752,1,0.00,,3/7/2013 10:47:30 AM
$GPGGA,094731.928,3601.4500,N,01415.4695,E,1,5,1,0, M,0, M,0,*77,$GPGGA,094731.928,3601.4500,N,01415.4695,E,1,5,1,0, M,0, M,0,*77,36.0241666171599,14.257825495752,36.0241666172,14.2578254958,1,0.00,,3/7/2013 10:47:31 AM
$GPGGA,094732.942,3601.4500,N,01415.4695,E,1,5,1,0, M,0, M,0,*78,$GPGGA,094732.942,3601.4500,N,01415.4695,E,1,5,1,0, M,0, M,0,*78,36.0241666242053,14.2578257052721,36.0241666242,14.2578257053,1,0.00,,3/7/2013 10:47:32 AM
$GPGGA,094733.956,3601.4500,N,01415.4696,E,1,5,1,0, M,0, M,0,*7F,$GPGGA,094733.956,3601.4500,N,01415.4696,E,1,5,1,0, M,0, M,0,*7F,36.0241666288409,14.2578259583452,36.0241666288,14.2578259583,1,0.00,,3/7/2013 10:47:33 AM
$GPGGA,094734.970,3601.4500,N,01415.4695,E,1,5,1,0, M,0, M,0,*7F,$GPGGA,094734.970,3601.4500,N,01415.4695,E,1,5,1,0, M,0, M,0,*7F,36.0241666379655,14.2578257835687,36.024166638,14.2578257836,1,0.00,,3/7/2013 10:47:34 AM
$GPGGA,094735.984,3601.4500,N,01415.4695,E,1,5,1,0, M,0, M,0,*75,$GPGGA,094735.984,3601.4500,N,01415.4695,E,1,5,1,0, M,0, M,0,*75,36.0241666460934,14.2578256416475,36.0241666461,14.2578256416,1,0.00,,3/7/2013 10:47:35 AM
$GPGGA,094736.998,3601.4500,N,01415.4695,E,1,5,1,0, M,0, M,0,*7B,$GPGGA,094736.998,3601.4500,N,01415.4695,E,1,5,1,0, M,0, M,0,*7B,36.0241666527979,14.2578255289471,36.0241666528,14.2578255289,1,0.00,,3/7/2013 10:47:36 AM
$GPGGA,094738.012,3601.4500,N,01415.4695,E,1,5,1,0, M,0, M,0,*7E,$GPGGA,094738.012,3601.4500,N,01415.4695,E,1,5,1,0, M,0, M,0,*7E,36.024166655591,14.2578254818761,36.0241666556,14.2578254819,1,0.00,,3/7/2013 10:47:38 AM
$GPGGA,094739.026,3601.4500,N,01415.4695,E,1,5,1,0, M,0, M,0,*78,$GPGGA,094739.026,3601.4500,N,01415.4695,E,1,5,1,0, M,0, M,0,*78,36.024166843698,14.2578256274796,36.0241668437,14.2578256275,1,0.00,,3/7/2013 10:47:39 AM
$GPGGA,094740.040,3601.4500,N,01415.4695,E,1,5,1,0, M,0, M,0,*76,$GPGGA,094740.040,3601.4500,N,01415.4695,E,1,5,1,0, M,0, M,0,*76,36.0241670424844,14.2578257650912,36.0241670425,14.2578257651,1,0.00,,3/7/2013 10:47:40 AM
$GPGGA,094741.054,3601.4500,N,01415.4696,E,1,5,1,0, M,0, M,0,*71,$GPGGA,094741.054,3601.4500,N,01415.4696,E,1,5,1,0, M,0, M,0,*71,36.0241672366333,14.25782589188,36.0241672366,14.2578258919,1,0.00,,3/7/2013 10:47:41 AM
$GPGGA,094742.068,3601.4500,N,01415.4696,E,1,5,1,0, M,0, M,0,*7D,$GPGGA,094742.068,3601.4500,N,01415.4696,E,1,5,1,0, M,0, M,0,*7D,36.0241674139489,14.2578260038811,36.0241674139,14.2578260039,1,0.00,,3/7/2013 10:47:42 AM
$GPGGA,094743.082,3601.4500,N,01415.4696,E,1,5,1,0, M,0, M,0,*78,$GPGGA,094743.082,3601.4500,N,01415.4696,E,1,5,1,0, M,0, M,0,*78,36.0241674887715,14.2578260456594,36.0241674888,14.2578260457,1,0.00,,3/7/2013 10:47:43 AM
$GPGGA,094744.096,3601.4501,N,01415.4696,E,1,5,1,0, M,0, M,0,*7B,$GPGGA,094744.096,3601.4501,N,01415.4696,E,1,5,1,0, M,0, M,0,*7B,36.0241676809487,14.257826428085,36.0241676809,14.2578264281,1,0.00,,3/7/2013 10:47:44 AM
$GPGGA,094745.110,3601.4501,N,01415.4696,E,1,5,1,0, M,0, M,0,*75,$GPGGA,094745.110,3601.4501,N,01415.4696,E,1,5,1,0, M,0, M,0,*75,36.024168101949,14.2578267821121,36.0241681019,14.2578267821,1,0.00,,3/7/2013 10:47:45 AM
$GPGGA,094746.124,3601.4501,N,01415.4696,E,1,5,1,0, M,0, M,0,*71,$GPGGA,094746.124,3601.4501,N,01415.4696,E,1,5,1,0, M,0, M,0,*71,36.0241684889123,14.2578270872649,36.0241684889,14.2578270873,1,0.00,,3/7/2013 10:47:46 AM
$GPGGA,094747.138,3601.4501,N,01415.4696,E,1,5,1,0, M,0, M,0,*7D,$GPGGA,094747.138,3601.4501,N,01415.4696,E,1,5,1,0, M,0, M,0,*7D,36.0241688304447,14.2578269993818,36.0241688304,14.2578269994,1,0.00,,3/7/2013 10:47:47 AM
$GPGGA,094748.152,3601.4501,N,01415.4696,E,1,5,1,0, M,0, M,0,*7E,$GPGGA,094748.152,3601.4501,N,01415.4696,E,1,5,1,0, M,0, M,0,*7E,36.0241687637881,14.2578267858192,36.0241687638,14.2578267858,1,0.00,,3/7/2013 10:47:48 AM
$GPGGA,094749.166,3601.4501,N,01415.4696,E,1,5,1,0, M,0, M,0,*78,$GPGGA,094749.166,3601.4501,N,01415.4696,E,1,5,1,0, M,0, M,0,*78,36.02416863951,14.2578262957332,36.0241686395,14.2578262957,1,0.00,,3/7/2013 10:47:49 AM
$GPGGA,094750.180,3601.4501,N,01415.4696,E,1,5,1,0, M,0, M,0,*78,$GPGGA,094750.180,3601.4501,N,01415.4696,E,1,5,1,0, M,0, M,0,*78,36.0241685951375,14.2578260530704,36.0241685951,14.2578260531,1,0.00,,3/7/2013 10:47:50 AM
$GPGGA,094751.194,3601.4501,N,01415.4696,E,1,5,1,0, M,0, M,0,*7C,$GPGGA,094751.194,3601.4501,N,01415.4696,E,1,5,1,0, M,0, M,0,*7C,36.0241685619083,14.2578258406624,36.0241685619,14.2578258407,1,0.00,,3/7/2013 10:47:51 AM
$GPGGA,094752.208,3601.4501,N,01415.4696,E,1,5,1,0, M,0, M,0,*79,$GPGGA,094752.208,3601.4501,N,01415.4696,E,1,5,1,0, M,0, M,0,*79,36.024168765792,14.2578263492704,36.0241687658,14.2578263493,1,0.00,,3/7/2013 10:47:52 AM
$GPGGA,094753.222,3601.4501,N,01415.4696,E,1,5,1,0, M,0, M,0,*70,$GPGGA,094753.222,3601.4501,N,01415.4696,E,1,5,1,0, M,0, M,0,*70,36.0241688691068,14.2578267872419,36.0241688691,14.2578267872,1,0.00,,3/7/2013 10:47:53 AM
$GPGGA,094754.236,3601.4501,N,01415.4697,E,1,5,1,0, M,0, M,0,*73,$GPGGA,094754.236,3601.4501,N,01415.4697,E,1,5,1,0, M,0, M,0,*73,36.0241691604116,14.2578275014438,36.0241691604,14.2578275014,1,0.00,,3/7/2013 10:47:54 AM
$GPGGA,094755.250,3601.4502,N,01415.4697,E,1,5,1,0, M,0, M,0,*71,$GPGGA,094755.250,3601.4502,N,01415.4697,E,1,5,1,0, M,0, M,0,*71,36.0241693070096,14.2578280976762,36.024169307,14.2578280977,1,0.00,,3/7/2013 10:47:55 AM
$GPGGA,094756.264,3601.4502,N,01415.4697,E,1,5,1,0, M,0, M,0,*75,$GPGGA,094756.264,3601.4502,N,01415.4697,E,1,5,1,0, M,0, M,0,*75,36.0241694249098,14.2578285648805,36.0241694249,14.2578285649,1,0.00,,3/7/2013 10:47:56 AM
$GPGGA,094757.278,3601.4502,N,01415.4697,E,1,5,1,0, M,0, M,0,*79,$GPGGA,094757.278,3601.4502,N,01415.4697,E,1,5,1,0, M,0, M,0,*79,36.0241695163536,14.2578288912197,36.0241695164,14.2578288912,1,0.00,,3/7/2013 10:47:57 AM
$GPGGA,094758.292,3601.4502,N,01415.4697,E,1,5,1,0, M,0, M,0,*72,$GPGGA,094758.292,3601.4502,N,01415.4697,E,1,5,1,0, M,0, M,0,*72,36.0241695545618,14.2578290180013,36.0241695546,14.257829018,1,0.00,,3/7/2013 10:47:58 AM









































