GPGGA Base Position,,,,,,,,,,,,,,,GPGGA End Position,,,,,,,,,,,,,,,Base Latitude,Base Longitude,End Latitude,End Longitude,Node Count, Extra Tether Length,Node Address,X,Y,Z,Unscaled Pressure,Depth,Node Address,X,Y,Z,Unscaled Pressure,Depth,Node Address,X,Y,Z,Unscaled Pressure,Depth,Node Address,X,Y,Z,Unscaled Pressure,Depth,Node Address,X,Y,Z,Unscaled Pressure,Depth,Node Address,X,Y,Z,Unscaled Pressure,Depth,Time
$GPGGA,131119.589,3554.9681,N,01430.2551,E,1,5,1,0, M,0, M,0,*7C,$GPGGA,131119.589,3554.9681,N,01430.2551,E,1,5,1,0, M,0, M,0,*7C,35.9161352205708,14.5042512564643,35.9161352206,14.5042512565,1,0.00,,3/13/2013 2:11:19 PM
$GPGGA,131120.609,3554.9681,N,01430.2549,E,1,5,1,0, M,0, M,0,*74,$GPGGA,131120.609,3554.9681,N,01430.2549,E,1,5,1,0, M,0, M,0,*74,35.9161349499136,14.504248535414,35.9161349499,14.5042485354,1,0.00,,3/13/2013 2:11:20 PM
$GPGGA,131121.619,3554.9681,N,01430.2549,E,1,5,1,0, M,0, M,0,*74,$GPGGA,131121.619,3554.9686,N,01430.2549,E,1,5,1,0, M,0, M,0,*73,35.9161349499136,14.504248535414,35.916143671,14.5042490228,2,0.00,,3/13/2013 2:11:21 PM
$GPGGA,131122.639,3554.9681,N,01430.2549,E,1,5,1,0, M,0, M,0,*75,$GPGGA,131122.639,3554.9686,N,01430.2549,E,1,5,1,0, M,0, M,0,*72,35.9161349499136,14.504248535414,35.9161436612,14.504249021,2,0.00,,3/13/2013 2:11:22 PM
$GPGGA,131123.649,3554.9681,N,01430.2549,E,1,5,1,0, M,0, M,0,*73,$GPGGA,131123.649,3554.9686,N,01430.2549,E,1,5,1,0, M,0, M,0,*74,35.9161349499136,14.504248535414,35.916143653,14.5042490281,2,0.00,,3/13/2013 2:11:23 PM
$GPGGA,131124.659,3554.9681,N,01430.2549,E,1,5,1,0, M,0, M,0,*75,$GPGGA,131124.659,3554.9686,N,01430.2549,E,1,5,1,0, M,0, M,0,*72,35.9161349499136,14.504248535414,35.9161436558,14.5042490258,2,0.00,,3/13/2013 2:11:24 PM
$GPGGA,131125.678,3554.9681,N,01430.2549,E,1,5,1,0, M,0, M,0,*77,$GPGGA,131125.678,3554.9686,N,01430.2549,E,1,5,1,0, M,0, M,0,*70,35.9161349499136,14.504248535414,35.9161436588,14.5042490338,2,0.00,,3/13/2013 2:11:25 PM
$GPGGA,131126.688,3554.9681,N,01430.2549,E,1,5,1,0, M,0, M,0,*7B,$GPGGA,131126.688,3554.9686,N,01430.2549,E,1,5,1,0, M,0, M,0,*7C,35.9161349499136,14.504248535414,35.9161436719,14.504249022,2,0.00,,3/13/2013 2:11:26 PM
$GPGGA,131127.702,3554.9681,N,01430.2549,E,1,5,1,0, M,0, M,0,*79,$GPGGA,131127.702,3554.9686,N,01430.2549,E,1,5,1,0, M,0, M,0,*7E,35.9161349499136,14.504248535414,35.9161436902,14.5042490468,2,0.00,,3/13/2013 2:11:27 PM
$GPGGA,131128.718,3554.9681,N,01430.2549,E,1,5,1,0, M,0, M,0,*7D,$GPGGA,131128.718,3554.9686,N,01430.2549,E,1,5,1,0, M,0, M,0,*7A,35.9161349499136,14.504248535414,35.9161437033,14.504249047,2,0.00,,3/13/2013 2:11:28 PM
$GPGGA,131129.738,3554.9681,N,01430.2549,E,1,5,1,0, M,0, M,0,*7E,$GPGGA,131129.738,3554.9686,N,01430.2549,E,1,5,1,0, M,0, M,0,*79,35.9161349499136,14.504248535414,35.9161437252,14.5042490525,2,0.00,,3/13/2013 2:11:29 PM
$GPGGA,131130.748,3554.9681,N,01430.2549,E,1,5,1,0, M,0, M,0,*71,$GPGGA,131130.748,3554.9686,N,01430.2549,E,1,5,1,0, M,0, M,0,*76,35.9161349499136,14.504248535414,35.9161437439,14.5042490525,2,0.00,,3/13/2013 2:11:30 PM
$GPGGA,131131.758,3554.9681,N,01430.2549,E,1,5,1,0, M,0, M,0,*71,$GPGGA,131131.758,3554.9686,N,01430.2549,E,1,5,1,0, M,0, M,0,*76,35.9161349499136,14.504248535414,35.9161437679,14.5042490553,2,0.00,,3/13/2013 2:11:31 PM
$GPGGA,131132.778,3554.9681,N,01430.2549,E,1,5,1,0, M,0, M,0,*70,$GPGGA,131132.778,3554.9686,N,01430.2549,E,1,5,1,0, M,0, M,0,*77,35.9161349499136,14.504248535414,35.9161437767,14.5042490377,2,0.00,,3/13/2013 2:11:32 PM
$GPGGA,131133.788,3554.9681,N,01430.2549,E,1,5,1,0, M,0, M,0,*7E,$GPGGA,131133.788,3554.9686,N,01430.2549,E,1,5,1,0, M,0, M,0,*79,35.9161349499136,14.504248535414,35.9161437862,14.5042490421,2,0.00,,3/13/2013 2:11:33 PM
$GPGGA,131134.808,3554.9681,N,01430.2549,E,1,5,1,0, M,0, M,0,*7E,$GPGGA,131134.808,3554.9686,N,01430.2549,E,1,5,1,0, M,0, M,0,*79,35.9161349499136,14.504248535414,35.916143787,14.5042490315,2,0.00,,3/13/2013 2:11:34 PM
$GPGGA,131135.818,3554.9681,N,01430.2549,E,1,5,1,0, M,0, M,0,*7E,$GPGGA,131135.818,3554.9686,N,01430.2549,E,1,5,1,0, M,0, M,0,*79,35.9161349499136,14.504248535414,35.9161437655,14.5042490264,2,0.00,,3/13/2013 2:11:35 PM
$GPGGA,131136.828,3554.9681,N,01430.2549,E,1,5,1,0, M,0, M,0,*7E,$GPGGA,131136.828,3554.9686,N,01430.2549,E,1,5,1,0, M,0, M,0,*79,35.9161349499136,14.504248535414,35.9161437544,14.5042490298,2,0.00,,3/13/2013 2:11:36 PM
$GPGGA,131137.848,3554.9681,N,01430.2549,E,1,5,1,0, M,0, M,0,*79,$GPGGA,131137.848,3554.9686,N,01430.2549,E,1,5,1,0, M,0, M,0,*7E,35.9161349499136,14.504248535414,35.9161437309,14.5042490176,2,0.00,,3/13/2013 2:11:37 PM
$GPGGA,131138.858,3554.9681,N,01430.2549,E,1,5,1,0, M,0, M,0,*77,$GPGGA,131138.858,3554.9686,N,01430.2549,E,1,5,1,0, M,0, M,0,*70,35.9161349499136,14.504248535414,35.9161437098,14.5042490246,2,0.00,,3/13/2013 2:11:38 PM
$GPGGA,131139.878,3554.9681,N,01430.2549,E,1,5,1,0, M,0, M,0,*74,$GPGGA,131139.878,3554.9686,N,01430.2549,E,1,5,1,0, M,0, M,0,*73,35.9161349499136,14.504248535414,35.9161436925,14.504249031,2,0.00,,3/13/2013 2:11:39 PM
$GPGGA,131140.888,3554.9681,N,01430.2549,E,1,5,1,0, M,0, M,0,*75,$GPGGA,131140.888,3554.9686,N,01430.2549,E,1,5,1,0, M,0, M,0,*72,35.9161349499136,14.504248535414,35.9161436794,14.5042490354,2,0.00,,3/13/2013 2:11:40 PM
$GPGGA,131141.898,3554.9681,N,01430.2549,E,1,5,1,0, M,0, M,0,*75,$GPGGA,131141.898,3554.9686,N,01430.2549,E,1,5,1,0, M,0, M,0,*72,35.9161349499136,14.504248535414,35.9161436716,14.5042490185,2,0.00,,3/13/2013 2:11:41 PM
$GPGGA,131142.918,3554.9681,N,01430.2549,E,1,5,1,0, M,0, M,0,*7F,$GPGGA,131142.918,3554.9686,N,01430.2549,E,1,5,1,0, M,0, M,0,*78,35.9161349499136,14.504248535414,35.9161436604,14.5042490266,2,0.00,,3/13/2013 2:11:42 PM
$GPGGA,131143.928,3554.9681,N,01430.2549,E,1,5,1,0, M,0, M,0,*7D,$GPGGA,131143.928,3554.9686,N,01430.2549,E,1,5,1,0, M,0, M,0,*7A,35.9161349499136,14.504248535414,35.9161436609,14.5042490375,2,0.00,,3/13/2013 2:11:43 PM
$GPGGA,131144.948,3554.9681,N,01430.2549,E,1,5,1,0, M,0, M,0,*7C,$GPGGA,131144.948,3554.9686,N,01430.2549,E,1,5,1,0, M,0, M,0,*7B,35.9161349499136,14.504248535414,35.9161436545,14.5042490438,2,0.00,,3/13/2013 2:11:44 PM
$GPGGA,131145.958,3554.9681,N,01430.2549,E,1,5,1,0, M,0, M,0,*7C,$GPGGA,131145.958,3554.9686,N,01430.2549,E,1,5,1,0, M,0, M,0,*7B,35.9161349499136,14.504248535414,35.916143668,14.5042490374,2,0.00,,3/13/2013 2:11:45 PM
$GPGGA,131146.968,3554.9681,N,01430.2549,E,1,5,1,0, M,0, M,0,*7C,$GPGGA,131146.968,3554.9686,N,01430.2549,E,1,5,1,0, M,0, M,0,*7B,35.9161349499136,14.504248535414,35.9161436812,14.5042490482,2,0.00,,3/13/2013 2:11:46 PM
$GPGGA,131147.988,3554.9681,N,01430.2549,E,1,5,1,0, M,0, M,0,*73,$GPGGA,131147.988,3554.9686,N,01430.2549,E,1,5,1,0, M,0, M,0,*74,35.9161349499136,14.504248535414,35.9161436737,14.5042490766,2,0.00,,3/13/2013 2:11:47 PM
$GPGGA,131148.998,3554.9681,N,01430.2549,E,1,5,1,0, M,0, M,0,*7D,$GPGGA,131148.998,3554.9683,N,01430.2549,E,1,5,1,0, M,0, M,0,*7F,35.9161349499136,14.504248535414,35.9161390625,14.5042479466,2,0.00,,3/13/2013 2:11:48 PM
$GPGGA,131150.018,3554.9681,N,01430.2549,E,1,5,1,0, M,0, M,0,*75,$GPGGA,131150.018,3554.9682,N,01430.2549,E,1,5,1,0, M,0, M,0,*76,35.9161349499136,14.504248535414,35.9161371316,14.504248165,2,0.00,,3/13/2013 2:11:50 PM
$GPGGA,131151.028,3554.9681,N,01430.2549,E,1,5,1,0, M,0, M,0,*77,$GPGGA,131151.028,3554.9683,N,01430.2551,E,1,5,1,0, M,0, M,0,*7C,35.9161349499136,14.504248535414,35.9161375604,14.5042512815,2,0.00,,3/13/2013 2:11:51 PM
$GPGGA,131152.038,3554.9681,N,01430.2549,E,1,5,1,0, M,0, M,0,*75,$GPGGA,131152.038,3554.9685,N,01430.2552,E,1,5,1,0, M,0, M,0,*7B,35.9161349499136,14.504248535414,35.9161423081,14.504253189,2,0.00,,3/13/2013 2:11:52 PM
$GPGGA,131153.058,3554.9681,N,01430.2549,E,1,5,1,0, M,0, M,0,*72,$GPGGA,131153.058,3554.9684,N,01430.2552,E,1,5,1,0, M,0, M,0,*7D,35.9161349499136,14.504248535414,35.9161404795,14.5042535874,2,0.00,,3/13/2013 2:11:53 PM
$GPGGA,131154.068,3554.9681,N,01430.2549,E,1,5,1,0, M,0, M,0,*76,$GPGGA,131154.068,3554.9683,N,01430.2552,E,1,5,1,0, M,0, M,0,*7E,35.9161349499136,14.504248535414,35.9161381245,14.5042540919,2,0.00,,3/13/2013 2:11:54 PM
$GPGGA,131155.088,3554.9681,N,01430.2549,E,1,5,1,0, M,0, M,0,*79,$GPGGA,131155.088,3554.9683,N,01430.2552,E,1,5,1,0, M,0, M,0,*71,35.9161349499136,14.504248535414,35.9161385843,14.5042537,2,0.00,,3/13/2013 2:11:55 PM
$GPGGA,131156.098,3554.9681,N,01430.2549,E,1,5,1,0, M,0, M,0,*7B,$GPGGA,131156.098,3554.9683,N,01430.2552,E,1,5,1,0, M,0, M,0,*73,35.9161349499136,14.504248535414,35.9161379512,14.504253675,2,0.00,,3/13/2013 2:11:56 PM
$GPGGA,131157.108,3554.9681,N,01430.2549,E,1,5,1,0, M,0, M,0,*72,$GPGGA,131157.108,3554.9681,N,01430.2552,E,1,5,1,0, M,0, M,0,*78,35.9161349499136,14.504248535414,35.9161354365,14.5042530255,2,0.00,,3/13/2013 2:11:57 PM
$GPGGA,131158.128,3554.9681,N,01430.2549,E,1,5,1,0, M,0, M,0,*7F,$GPGGA,131158.128,3554.9681,N,01430.2552,E,1,5,1,0, M,0, M,0,*75,35.9161349499136,14.504248535414,35.9161355442,14.5042530274,2,0.00,,3/13/2013 2:11:58 PM
$GPGGA,131159.138,3554.9681,N,01430.2549,E,1,5,1,0, M,0, M,0,*7F,$GPGGA,131159.138,3554.9681,N,01430.2552,E,1,5,1,0, M,0, M,0,*75,35.9161349499136,14.504248535414,35.9161347236,14.5042533176,2,0.00,,3/13/2013 2:11:59 PM
$GPGGA,131200.158,3554.9681,N,01430.2549,E,1,5,1,0, M,0, M,0,*76,$GPGGA,131200.158,3554.9679,N,01430.2552,E,1,5,1,0, M,0, M,0,*7B,35.9161349499136,14.504248535414,35.9161319929,14.5042536748,2,0.00,,3/13/2013 2:12:00 PM
$GPGGA,131201.168,3554.9681,N,01430.2549,E,1,5,1,0, M,0, M,0,*74,$GPGGA,131201.168,3554.9680,N,01430.2552,E,1,5,1,0, M,0, M,0,*7F,35.9161349499136,14.504248535414,35.9161326559,14.5042535648,2,0.00,,3/13/2013 2:12:01 PM
$GPGGA,131202.178,3554.9681,N,01430.2549,E,1,5,1,0, M,0, M,0,*76,$GPGGA,131202.178,3554.9679,N,01430.2552,E,1,5,1,0, M,0, M,0,*7B,35.9161349499136,14.504248535414,35.9161319838,14.504253175,2,0.00,,3/13/2013 2:12:02 PM
$GPGGA,131203.198,3554.9681,N,01430.2549,E,1,5,1,0, M,0, M,0,*79,$GPGGA,131203.198,3554.9680,N,01430.2552,E,1,5,1,0, M,0, M,0,*72,35.9161349499136,14.504248535414,35.9161327907,14.5042528218,2,0.00,,3/13/2013 2:12:03 PM
$GPGGA,131204.208,3554.9681,N,01430.2549,E,1,5,1,0, M,0, M,0,*74,$GPGGA,131204.208,3554.9679,N,01430.2552,E,1,5,1,0, M,0, M,0,*79,35.9161349499136,14.504248535414,35.9161319007,14.5042534711,2,0.00,,3/13/2013 2:12:04 PM
$GPGGA,131205.228,3554.9681,N,01430.2549,E,1,5,1,0, M,0, M,0,*77,$GPGGA,131205.228,3554.9679,N,01430.2552,E,1,5,1,0, M,0, M,0,*7A,35.9161349499136,14.504248535414,35.9161321097,14.5042534648,2,0.00,,3/13/2013 2:12:05 PM
$GPGGA,131206.238,3554.9681,N,01430.2549,E,1,5,1,0, M,0, M,0,*75,$GPGGA,131206.238,3554.9679,N,01430.2552,E,1,5,1,0, M,0, M,0,*78,35.9161349499136,14.504248535414,35.9161319586,14.5042528177,2,0.00,,3/13/2013 2:12:06 PM
$GPGGA,131207.248,3554.9681,N,01430.2549,E,1,5,1,0, M,0, M,0,*73,$GPGGA,131207.248,3554.9680,N,01430.2552,E,1,5,1,0, M,0, M,0,*78,35.9161349499136,14.504248535414,35.9161331593,14.5042528316,2,0.00,,3/13/2013 2:12:07 PM
$GPGGA,131208.268,3554.9681,N,01430.2549,E,1,5,1,0, M,0, M,0,*7E,$GPGGA,131208.268,3554.9680,N,01430.2552,E,1,5,1,0, M,0, M,0,*75,35.9161349499136,14.504248535414,35.9161335409,14.504253269,2,0.00,,3/13/2013 2:12:08 PM
$GPGGA,131209.278,3554.9681,N,01430.2549,E,1,5,1,0, M,0, M,0,*7E,$GPGGA,131209.278,3554.9680,N,01430.2552,E,1,5,1,0, M,0, M,0,*75,35.9161349499136,14.504248535414,35.9161328292,14.5042536566,2,0.00,,3/13/2013 2:12:09 PM
$GPGGA,131210.298,3554.9681,N,01430.2549,E,1,5,1,0, M,0, M,0,*78,$GPGGA,131210.298,3554.9680,N,01430.2552,E,1,5,1,0, M,0, M,0,*73,35.9161349499136,14.504248535414,35.9161325972,14.5042540565,2,0.00,,3/13/2013 2:12:10 PM
$GPGGA,131211.308,3554.9681,N,01430.2549,E,1,5,1,0, M,0, M,0,*71,$GPGGA,131211.308,3554.9680,N,01430.2552,E,1,5,1,0, M,0, M,0,*7A,35.9161349499136,14.504248535414,35.9161340201,14.5042535861,2,0.00,,3/13/2013 2:12:11 PM
$GPGGA,131212.318,3554.9681,N,01430.2549,E,1,5,1,0, M,0, M,0,*73,$GPGGA,131212.318,3554.9680,N,01430.2552,E,1,5,1,0, M,0, M,0,*78,35.9161349499136,14.504248535414,35.9161338958,14.5042536797,2,0.00,,3/13/2013 2:12:12 PM
$GPGGA,131213.338,3554.9681,N,01430.2549,E,1,5,1,0, M,0, M,0,*70,$GPGGA,131213.338,3554.9681,N,01430.2552,E,1,5,1,0, M,0, M,0,*7A,35.9161349499136,14.504248535414,35.9161349503,14.5042537999,2,0.00,,3/13/2013 2:12:13 PM
$GPGGA,131214.348,3554.9681,N,01430.2549,E,1,5,1,0, M,0, M,0,*70,$GPGGA,131214.348,3554.9682,N,01430.2552,E,1,5,1,0, M,0, M,0,*79,35.9161349499136,14.504248535414,35.9161365739,14.5042540288,2,0.00,,3/13/2013 2:12:14 PM
$GPGGA,131215.368,3554.9681,N,01430.2549,E,1,5,1,0, M,0, M,0,*73,$GPGGA,131215.368,3554.9682,N,01430.2552,E,1,5,1,0, M,0, M,0,*7A,35.9161349499136,14.504248535414,35.9161360822,14.5042539474,2,0.00,,3/13/2013 2:12:15 PM
$GPGGA,131216.378,3554.9681,N,01430.2549,E,1,5,1,0, M,0, M,0,*71,$GPGGA,131216.378,3554.9682,N,01430.2552,E,1,5,1,0, M,0, M,0,*78,35.9161349499136,14.504248535414,35.9161366353,14.5042535172,2,0.00,,3/13/2013 2:12:16 PM
$GPGGA,131217.388,3554.9681,N,01430.2549,E,1,5,1,0, M,0, M,0,*7F,$GPGGA,131217.388,3554.9682,N,01430.2551,E,1,5,1,0, M,0, M,0,*75,35.9161349499136,14.504248535414,35.9161358687,14.5042524996,2,0.00,,3/13/2013 2:12:17 PM
$GPGGA,131218.408,3554.9681,N,01430.2549,E,1,5,1,0, M,0, M,0,*7F,$GPGGA,131218.408,3554.9684,N,01430.2552,E,1,5,1,0, M,0, M,0,*70,35.9161349499136,14.504248535414,35.9161400925,14.5042534844,2,0.00,,3/13/2013 2:12:18 PM
$GPGGA,131219.418,3554.9681,N,01430.2549,E,1,5,1,0, M,0, M,0,*7F,$GPGGA,131219.418,3554.9685,N,01430.2557,E,1,5,1,0, M,0, M,0,*74,35.9161349499136,14.504248535414,35.9161418584,14.504260906,2,0.00,,3/13/2013 2:12:19 PM
$GPGGA,131220.438,3554.9681,N,01430.2549,E,1,5,1,0, M,0, M,0,*77,$GPGGA,131220.438,3554.9686,N,01430.2551,E,1,5,1,0, M,0, M,0,*79,35.9161349499136,14.504248535414,35.9161440452,14.5042520597,2,0.00,,3/13/2013 2:12:20 PM
$GPGGA,131221.448,3554.9681,N,01430.2549,E,1,5,1,0, M,0, M,0,*71,$GPGGA,131221.448,3554.9685,N,01430.2551,E,1,5,1,0, M,0, M,0,*7C,35.9161349499136,14.504248535414,35.9161411902,14.5042512091,2,0.00,,3/13/2013 2:12:21 PM
$GPGGA,131222.458,3554.9681,N,01430.2549,E,1,5,1,0, M,0, M,0,*73,$GPGGA,131222.458,3554.9684,N,01430.2552,E,1,5,1,0, M,0, M,0,*7C,35.9161349499136,14.504248535414,35.9161404438,14.5042527348,2,0.00,,3/13/2013 2:12:22 PM
$GPGGA,131223.478,3554.9681,N,01430.2549,E,1,5,1,0, M,0, M,0,*70,$GPGGA,131223.478,3554.9686,N,01430.2550,E,1,5,1,0, M,0, M,0,*7F,35.9161349499136,14.504248535414,35.9161439641,14.5042492229,2,0.00,,3/13/2013 2:12:23 PM
$GPGGA,131224.488,3554.9681,N,01430.2549,E,1,5,1,0, M,0, M,0,*78,$GPGGA,131224.488,3554.9688,N,01430.2547,E,1,5,1,0, M,0, M,0,*7F,35.9161349499136,14.504248535414,35.9161462793,14.5042442252,2,0.00,,3/13/2013 2:12:24 PM
$GPGGA,131225.508,3554.9681,N,01430.2549,E,1,5,1,0, M,0, M,0,*70,$GPGGA,131225.508,3554.9687,N,01430.2547,E,1,5,1,0, M,0, M,0,*78,35.9161349499136,14.504248535414,35.9161449518,14.5042452048,2,0.00,,3/13/2013 2:12:25 PM
$GPGGA,131226.518,3554.9681,N,01430.2549,E,1,5,1,0, M,0, M,0,*72,$GPGGA,131226.518,3554.9686,N,01430.2553,E,1,5,1,0, M,0, M,0,*7E,35.9161349499136,14.504248535414,35.9161435386,14.5042555582,2,0.00,,3/13/2013 2:12:26 PM
$GPGGA,131227.528,3554.9681,N,01430.2549,E,1,5,1,0, M,0, M,0,*70,$GPGGA,131227.528,3554.9687,N,01430.2552,E,1,5,1,0, M,0, M,0,*7C,35.9161349499136,14.504248535414,35.9161447024,14.5042527649,2,0.00,,3/13/2013 2:12:27 PM
$GPGGA,131228.548,3554.9681,N,01430.2549,E,1,5,1,0, M,0, M,0,*79,$GPGGA,131228.548,3554.9687,N,01430.2552,E,1,5,1,0, M,0, M,0,*75,35.9161349499136,14.504248535414,35.916145088,14.5042534582,2,0.00,,3/13/2013 2:12:28 PM
$GPGGA,131229.558,3554.9681,N,01430.2549,E,1,5,1,0, M,0, M,0,*79,$GPGGA,131229.558,3554.9686,N,01430.2555,E,1,5,1,0, M,0, M,0,*73,35.9161349499136,14.504248535414,35.9161428998,14.5042590484,2,0.00,,3/13/2013 2:12:29 PM
$GPGGA,131230.578,3554.9681,N,01430.2549,E,1,5,1,0, M,0, M,0,*73,$GPGGA,131230.578,3554.9685,N,01430.2556,E,1,5,1,0, M,0, M,0,*79,35.9161349499136,14.504248535414,35.9161413431,14.5042603937,2,0.00,,3/13/2013 2:12:30 PM
$GPGGA,131231.588,3554.9681,N,01430.2549,E,1,5,1,0, M,0, M,0,*7D,$GPGGA,131231.588,3554.9683,N,01430.2557,E,1,5,1,0, M,0, M,0,*70,35.9161349499136,14.504248535414,35.9161389121,14.5042609671,2,0.00,,3/13/2013 2:12:31 PM
$GPGGA,131232.598,3554.9681,N,01430.2549,E,1,5,1,0, M,0, M,0,*7F,$GPGGA,131232.598,3554.9683,N,01430.2556,E,1,5,1,0, M,0, M,0,*73,35.9161349499136,14.504248535414,35.9161376075,14.5042604576,2,0.00,,3/13/2013 2:12:32 PM
$GPGGA,131233.618,3554.9681,N,01430.2549,E,1,5,1,0, M,0, M,0,*75,$GPGGA,131233.618,3554.9683,N,01430.2556,E,1,5,1,0, M,0, M,0,*79,35.9161349499136,14.504248535414,35.9161378206,14.5042602761,2,0.00,,3/13/2013 2:12:33 PM
$GPGGA,131234.628,3554.9681,N,01430.2549,E,1,5,1,0, M,0, M,0,*71,$GPGGA,131234.628,3554.9683,N,01430.2556,E,1,5,1,0, M,0, M,0,*7D,35.9161349499136,14.504248535414,35.9161386845,14.5042604799,2,0.00,,3/13/2013 2:12:34 PM
$GPGGA,131235.648,3554.9681,N,01430.2549,E,1,5,1,0, M,0, M,0,*76,$GPGGA,131235.648,3554.9684,N,01430.2556,E,1,5,1,0, M,0, M,0,*7D,35.9161349499136,14.504248535414,35.916140495,14.504260681,2,0.00,,3/13/2013 2:12:35 PM
$GPGGA,131236.658,3554.9681,N,01430.2549,E,1,5,1,0, M,0, M,0,*74,$GPGGA,131236.658,3554.9685,N,01430.2556,E,1,5,1,0, M,0, M,0,*7E,35.9161349499136,14.504248535414,35.9161412842,14.5042601639,2,0.00,,3/13/2013 2:12:36 PM
$GPGGA,131237.668,3554.9681,N,01430.2549,E,1,5,1,0, M,0, M,0,*76,$GPGGA,131237.668,3554.9685,N,01430.2556,E,1,5,1,0, M,0, M,0,*7C,35.9161349499136,14.504248535414,35.9161416221,14.504259745,2,0.00,,3/13/2013 2:12:37 PM
$GPGGA,131238.688,3554.9681,N,01430.2549,E,1,5,1,0, M,0, M,0,*77,$GPGGA,131238.688,3554.9685,N,01430.2556,E,1,5,1,0, M,0, M,0,*7D,35.9161349499136,14.504248535414,35.9161415141,14.5042598626,2,0.00,,3/13/2013 2:12:38 PM
$GPGGA,131239.698,3554.9681,N,01430.2549,E,1,5,1,0, M,0, M,0,*77,$GPGGA,131239.698,3554.9685,N,01430.2556,E,1,5,1,0, M,0, M,0,*7D,35.9161349499136,14.504248535414,35.9161414495,14.5042599321,2,0.00,,3/13/2013 2:12:39 PM
$GPGGA,131240.718,3554.9681,N,01430.2549,E,1,5,1,0, M,0, M,0,*70,$GPGGA,131240.718,3554.9685,N,01430.2556,E,1,5,1,0, M,0, M,0,*7A,35.9161349499136,14.504248535414,35.9161412274,14.5042601378,2,0.00,,3/13/2013 2:12:40 PM
$GPGGA,131241.728,3554.9681,N,01430.2549,E,1,5,1,0, M,0, M,0,*72,$GPGGA,131241.728,3554.9686,N,01430.2554,E,1,5,1,0, M,0, M,0,*79,35.9161349499136,14.504248535414,35.9161439074,14.5042565293,2,0.00,,3/13/2013 2:12:41 PM
$GPGGA,131242.738,3554.9681,N,01430.2549,E,1,5,1,0, M,0, M,0,*70,$GPGGA,131242.738,3554.9687,N,01430.2552,E,1,5,1,0, M,0, M,0,*7C,35.9161349499136,14.504248535414,35.9161443214,14.5042539856,2,0.00,,3/13/2013 2:12:42 PM
$GPGGA,131243.758,3554.9681,N,01430.2549,E,1,5,1,0, M,0, M,0,*77,$GPGGA,131243.758,3554.9687,N,01430.2553,E,1,5,1,0, M,0, M,0,*7A,35.9161349499136,14.504248535414,35.9161444546,14.5042546816,2,0.00,,3/13/2013 2:12:43 PM
$GPGGA,131244.768,3554.9681,N,01430.2549,E,1,5,1,0, M,0, M,0,*73,$GPGGA,131244.768,3554.9686,N,01430.2553,E,1,5,1,0, M,0, M,0,*7F,35.9161349499136,14.504248535414,35.9161440446,14.5042553902,2,0.00,,3/13/2013 2:12:44 PM
$GPGGA,131245.788,3554.9681,N,01430.2549,E,1,5,1,0, M,0, M,0,*7C,$GPGGA,131245.788,3554.9686,N,01430.2554,E,1,5,1,0, M,0, M,0,*77,35.9161349499136,14.504248535414,35.9161436846,14.5042563694,2,0.00,,3/13/2013 2:12:45 PM
$GPGGA,131246.798,3554.9681,N,01430.2549,E,1,5,1,0, M,0, M,0,*7E,$GPGGA,131246.798,3554.9686,N,01430.2555,E,1,5,1,0, M,0, M,0,*74,35.9161349499136,14.504248535414,35.9161427161,14.504257918,2,0.00,,3/13/2013 2:12:46 PM
$GPGGA,131247.808,3554.9681,N,01430.2549,E,1,5,1,0, M,0, M,0,*79,$GPGGA,131247.808,3554.9687,N,01430.2553,E,1,5,1,0, M,0, M,0,*74,35.9161349499136,14.504248535414,35.9161448058,14.5042556657,2,0.00,,3/13/2013 2:12:47 PM
$GPGGA,131248.828,3554.9681,N,01430.2549,E,1,5,1,0, M,0, M,0,*74,$GPGGA,131248.828,3554.9686,N,01430.2553,E,1,5,1,0, M,0, M,0,*78,35.9161349499136,14.504248535414,35.9161436939,14.504255533,2,0.00,,3/13/2013 2:12:48 PM
$GPGGA,131249.838,3554.9681,N,01430.2549,E,1,5,1,0, M,0, M,0,*74,$GPGGA,131249.838,3554.9686,N,01430.2553,E,1,5,1,0, M,0, M,0,*78,35.9161349499136,14.504248535414,35.9161430764,14.5042543196,2,0.00,,3/13/2013 2:12:49 PM
$GPGGA,131250.858,3554.9681,N,01430.2549,E,1,5,1,0, M,0, M,0,*7A,$GPGGA,131250.858,3554.9686,N,01430.2553,E,1,5,1,0, M,0, M,0,*76,35.9161349499136,14.504248535414,35.9161429089,14.5042542147,2,0.00,,3/13/2013 2:12:50 PM
$GPGGA,131251.868,3554.9681,N,01430.2549,E,1,5,1,0, M,0, M,0,*78,$GPGGA,131251.868,3554.9686,N,01430.2553,E,1,5,1,0, M,0, M,0,*74,35.9161349499136,14.504248535414,35.9161429746,14.5042543361,2,0.00,,3/13/2013 2:12:51 PM
$GPGGA,131252.878,3554.9681,N,01430.2549,E,1,5,1,0, M,0, M,0,*7A,$GPGGA,131252.878,3554.9686,N,01430.2553,E,1,5,1,0, M,0, M,0,*76,35.9161349499136,14.504248535414,35.9161428973,14.5042547498,2,0.00,,3/13/2013 2:12:52 PM
$GPGGA,131253.898,3554.9681,N,01430.2549,E,1,5,1,0, M,0, M,0,*75,$GPGGA,131253.898,3554.9686,N,01430.2553,E,1,5,1,0, M,0, M,0,*79,35.9161349499136,14.504248535414,35.9161429981,14.5042544161,2,0.00,,3/13/2013 2:12:53 PM
$GPGGA,131254.908,3554.9681,N,01430.2549,E,1,5,1,0, M,0, M,0,*7A,$GPGGA,131254.908,3554.9686,N,01430.2552,E,1,5,1,0, M,0, M,0,*77,35.9161349499136,14.504248535414,35.9161430246,14.5042538886,2,0.00,,3/13/2013 2:12:54 PM
$GPGGA,131255.928,3554.9681,N,01430.2549,E,1,5,1,0, M,0, M,0,*79,$GPGGA,131255.928,3554.9688,N,01430.2552,E,1,5,1,0, M,0, M,0,*7A,35.9161349499136,14.504248535414,35.9161470187,14.5042536565,2,0.00,,3/13/2013 2:12:55 PM
$GPGGA,131256.933,3554.9681,N,01430.2549,E,1,5,1,0, M,0, M,0,*70,$GPGGA,131256.933,3554.9686,N,01430.2553,E,1,5,1,0, M,0, M,0,*7C,35.9161349499136,14.504248535414,35.9161436091,14.5042555878,2,0.00,,3/13/2013 2:12:56 PM
$GPGGA,131257.947,3554.9681,N,01430.2549,E,1,5,1,0, M,0, M,0,*72,$GPGGA,131257.947,3554.9685,N,01430.2553,E,1,5,1,0, M,0, M,0,*7D,35.9161349499136,14.504248535414,35.9161421858,14.5042545869,2,0.00,,3/13/2013 2:12:57 PM
$GPGGA,131258.967,3554.9681,N,01430.2549,E,1,5,1,0, M,0, M,0,*7F,$GPGGA,131258.967,3554.9686,N,01430.2553,E,1,5,1,0, M,0, M,0,*73,35.9161349499136,14.504248535414,35.9161425003,14.5042545957,2,0.00,,3/13/2013 2:12:58 PM
$GPGGA,131259.977,3554.9681,N,01430.2549,E,1,5,1,0, M,0, M,0,*7F,$GPGGA,131259.977,3554.9686,N,01430.2553,E,1,5,1,0, M,0, M,0,*73,35.9161349499136,14.504248535414,35.9161427688,14.5042548885,2,0.00,,3/13/2013 2:12:59 PM
$GPGGA,131300.989,3554.9681,N,01430.2549,E,1,5,1,0, M,0, M,0,*73,$GPGGA,131300.989,3554.9686,N,01430.2553,E,1,5,1,0, M,0, M,0,*7F,35.9161349499136,14.504248535414,35.9161428542,14.5042549718,2,0.00,,3/13/2013 2:13:00 PM
$GPGGA,131302.007,3554.9681,N,01430.2549,E,1,5,1,0, M,0, M,0,*7E,$GPGGA,131302.007,3554.9686,N,01430.2553,E,1,5,1,0, M,0, M,0,*72,35.9161349499136,14.504248535414,35.9161429243,14.5042549832,2,0.00,,3/13/2013 2:13:02 PM
$GPGGA,131303.017,3554.9681,N,01430.2549,E,1,5,1,0, M,0, M,0,*7E,$GPGGA,131303.017,3554.9686,N,01430.2553,E,1,5,1,0, M,0, M,0,*72,35.9161349499136,14.504248535414,35.9161429145,14.5042548039,2,0.00,,3/13/2013 2:13:03 PM
$GPGGA,131304.033,3554.9681,N,01430.2549,E,1,5,1,0, M,0, M,0,*7F,$GPGGA,131304.033,3554.9686,N,01430.2553,E,1,5,1,0, M,0, M,0,*73,35.9161349499136,14.504248535414,35.9161428588,14.504254878,2,0.00,,3/13/2013 2:13:04 PM
$GPGGA,131305.053,3554.9681,N,01430.2549,E,1,5,1,0, M,0, M,0,*78,$GPGGA,131305.053,3554.9686,N,01430.2553,E,1,5,1,0, M,0, M,0,*74,35.9161349499136,14.504248535414,35.9161431147,14.504254908,2,0.00,,3/13/2013 2:13:05 PM
$GPGGA,131306.063,3554.9681,N,01430.2549,E,1,5,1,0, M,0, M,0,*78,$GPGGA,131306.063,3554.9688,N,01430.2552,E,1,5,1,0, M,0, M,0,*7B,35.9161349499136,14.504248535414,35.9161469199,14.5042532699,2,0.00,,3/13/2013 2:13:06 PM
$GPGGA,131307.073,3554.9681,N,01430.2549,E,1,5,1,0, M,0, M,0,*78,$GPGGA,131307.073,3554.9688,N,01430.2551,E,1,5,1,0, M,0, M,0,*78,35.9161349499136,14.504248535414,35.9161470537,14.5042511988,2,0.00,,3/13/2013 2:13:07 PM
$GPGGA,131308.093,3554.9681,N,01430.2549,E,1,5,1,0, M,0, M,0,*79,$GPGGA,131308.093,3554.9687,N,01430.2554,E,1,5,1,0, M,0, M,0,*73,35.9161349499136,14.504248535414,35.9161445647,14.5042565237,2,0.00,,3/13/2013 2:13:08 PM
$GPGGA,131309.103,3554.9681,N,01430.2549,E,1,5,1,0, M,0, M,0,*70,$GPGGA,131309.103,3554.9687,N,01430.2554,E,1,5,1,0, M,0, M,0,*7A,35.9161349499136,14.504248535414,35.9161446499,14.5042563568,2,0.00,,3/13/2013 2:13:09 PM
$GPGGA,131310.123,3554.9681,N,01430.2549,E,1,5,1,0, M,0, M,0,*7A,$GPGGA,131310.123,3554.9688,N,01430.2549,E,1,5,1,0, M,0, M,0,*73,35.9161349499136,14.504248535414,35.9161473847,14.5042479341,2,0.00,,3/13/2013 2:13:10 PM
$GPGGA,131311.133,3554.9681,N,01430.2549,E,1,5,1,0, M,0, M,0,*7A,$GPGGA,131311.133,3554.9689,N,01430.2547,E,1,5,1,0, M,0, M,0,*7C,35.9161349499136,14.504248535414,35.9161477323,14.504244195,2,0.00,,3/13/2013 2:13:11 PM
$GPGGA,131312.143,3554.9681,N,01430.2549,E,1,5,1,0, M,0, M,0,*7E,$GPGGA,131312.143,3554.9687,N,01430.2549,E,1,5,1,0, M,0, M,0,*78,35.9161349499136,14.504248535414,35.9161457762,14.5042488106,2,0.00,,3/13/2013 2:13:12 PM
$GPGGA,131313.163,3554.9681,N,01430.2549,E,1,5,1,0, M,0, M,0,*7D,$GPGGA,131313.163,3554.9687,N,01430.2549,E,1,5,1,0, M,0, M,0,*7B,35.9161349499136,14.504248535414,35.9161456571,14.5042486737,2,0.00,,3/13/2013 2:13:13 PM
$GPGGA,131314.173,3554.9681,N,01430.2549,E,1,5,1,0, M,0, M,0,*7B,$GPGGA,131314.173,3554.9688,N,01430.2547,E,1,5,1,0, M,0, M,0,*7C,35.9161349499136,14.504248535414,35.9161465577,14.5042456331,2,0.00,,3/13/2013 2:13:14 PM
$GPGGA,131315.193,3554.9681,N,01430.2549,E,1,5,1,0, M,0, M,0,*74,$GPGGA,131315.193,3554.9688,N,01430.2548,E,1,5,1,0, M,0, M,0,*7C,35.9161349499136,14.504248535414,35.9161469619,14.5042471823,2,0.00,,3/13/2013 2:13:15 PM
$GPGGA,131316.203,3554.9681,N,01430.2549,E,1,5,1,0, M,0, M,0,*7D,$GPGGA,131316.203,3554.9687,N,01430.2551,E,1,5,1,0, M,0, M,0,*72,35.9161349499136,14.504248535414,35.9161455514,14.5042516261,2,0.00,,3/13/2013 2:13:16 PM
$GPGGA,131317.213,3554.9681,N,01430.2549,E,1,5,1,0, M,0, M,0,*7D,$GPGGA,131317.213,3554.9688,N,01430.2549,E,1,5,1,0, M,0, M,0,*74,35.9161349499136,14.504248535414,35.916146983,14.504248072,2,0.00,,3/13/2013 2:13:17 PM
$GPGGA,131318.233,3554.9681,N,01430.2549,E,1,5,1,0, M,0, M,0,*70,$GPGGA,131318.233,3554.9688,N,01430.2548,E,1,5,1,0, M,0, M,0,*78,35.9161349499136,14.504248535414,35.9161468626,14.5042460161,2,0.00,,3/13/2013 2:13:18 PM
$GPGGA,131319.243,3554.9681,N,01430.2549,E,1,5,1,0, M,0, M,0,*76,$GPGGA,131319.243,3554.9688,N,01430.2547,E,1,5,1,0, M,0, M,0,*71,35.9161349499136,14.504248535414,35.916146449,14.5042457336,2,0.00,,3/13/2013 2:13:19 PM
$GPGGA,131320.263,3554.9681,N,01430.2549,E,1,5,1,0, M,0, M,0,*7E,$GPGGA,131320.263,3554.9688,N,01430.2549,E,1,5,1,0, M,0, M,0,*77,35.9161349499136,14.504248535414,35.9161463746,14.5042485252,2,0.00,,3/13/2013 2:13:20 PM
$GPGGA,131321.273,3554.9681,N,01430.2549,E,1,5,1,0, M,0, M,0,*7E,$GPGGA,131321.273,3554.9687,N,01430.2550,E,1,5,1,0, M,0, M,0,*70,35.9161349499136,14.504248535414,35.9161453521,14.5042501679,2,0.00,,3/13/2013 2:13:21 PM
$GPGGA,131322.283,3554.9681,N,01430.2549,E,1,5,1,0, M,0, M,0,*72,$GPGGA,131322.283,3554.9687,N,01430.2550,E,1,5,1,0, M,0, M,0,*7C,35.9161349499136,14.504248535414,35.9161457125,14.5042494141,2,0.00,,3/13/2013 2:13:22 PM
$GPGGA,131323.303,3554.9681,N,01430.2549,E,1,5,1,0, M,0, M,0,*7A,$GPGGA,131323.303,3554.9686,N,01430.2547,E,1,5,1,0, M,0, M,0,*73,35.9161349499136,14.504248535414,35.9161436131,14.504245534,2,0.00,,3/13/2013 2:13:23 PM
$GPGGA,131324.313,3554.9681,N,01430.2549,E,1,5,1,0, M,0, M,0,*7C,$GPGGA,131324.313,3554.9685,N,01430.2547,E,1,5,1,0, M,0, M,0,*76,35.9161349499136,14.504248535414,35.9161423399,14.5042457942,2,0.00,,3/13/2013 2:13:24 PM
$GPGGA,131325.333,3554.9681,N,01430.2549,E,1,5,1,0, M,0, M,0,*7F,$GPGGA,131325.333,3554.9684,N,01430.2547,E,1,5,1,0, M,0, M,0,*74,35.9161349499136,14.504248535414,35.9161407707,14.5042453166,2,0.00,,3/13/2013 2:13:25 PM
$GPGGA,131326.343,3554.9681,N,01430.2549,E,1,5,1,0, M,0, M,0,*7B,$GPGGA,131326.343,3554.9684,N,01430.2547,E,1,5,1,0, M,0, M,0,*70,35.9161349499136,14.504248535414,35.9161398455,14.5042442433,2,0.00,,3/13/2013 2:13:26 PM
$GPGGA,131327.353,3554.9681,N,01430.2549,E,1,5,1,0, M,0, M,0,*7B,$GPGGA,131327.353,3554.9684,N,01430.2547,E,1,5,1,0, M,0, M,0,*70,35.9161349499136,14.504248535414,35.9161407358,14.5042444187,2,0.00,,3/13/2013 2:13:27 PM
$GPGGA,131328.373,3554.9681,N,01430.2549,E,1,5,1,0, M,0, M,0,*76,$GPGGA,131328.373,3554.9685,N,01430.2546,E,1,5,1,0, M,0, M,0,*7D,35.9161349499136,14.504248535414,35.9161409055,14.5042435349,2,0.00,,3/13/2013 2:13:28 PM
$GPGGA,131329.383,3554.9681,N,01430.2549,E,1,5,1,0, M,0, M,0,*78,$GPGGA,131329.383,3554.9685,N,01430.2546,E,1,5,1,0, M,0, M,0,*73,35.9161349499136,14.504248535414,35.9161420181,14.5042434398,2,0.00,,3/13/2013 2:13:29 PM
$GPGGA,131330.403,3554.9681,N,01430.2549,E,1,5,1,0, M,0, M,0,*7F,$GPGGA,131330.403,3554.9686,N,01430.2546,E,1,5,1,0, M,0, M,0,*77,35.9161349499136,14.504248535414,35.9161428574,14.50424376,2,0.00,,3/13/2013 2:13:30 PM
$GPGGA,131331.413,3554.9681,N,01430.2549,E,1,5,1,0, M,0, M,0,*7F,$GPGGA,131331.413,3554.9686,N,01430.2548,E,1,5,1,0, M,0, M,0,*79,35.9161349499136,14.504248535414,35.9161437413,14.5042462931,2,0.00,,3/13/2013 2:13:31 PM
$GPGGA,131332.423,3554.9681,N,01430.2549,E,1,5,1,0, M,0, M,0,*7F,$GPGGA,131332.423,3554.9687,N,01430.2547,E,1,5,1,0, M,0, M,0,*77,35.9161349499136,14.504248535414,35.9161445737,14.5042453402,2,0.00,,3/13/2013 2:13:32 PM
$GPGGA,131333.443,3554.9681,N,01430.2549,E,1,5,1,0, M,0, M,0,*78,$GPGGA,131333.443,3554.9687,N,01430.2546,E,1,5,1,0, M,0, M,0,*71,35.9161349499136,14.504248535414,35.9161453237,14.5042429701,2,0.00,,3/13/2013 2:13:33 PM
$GPGGA,131334.453,3554.9681,N,01430.2549,E,1,5,1,0, M,0, M,0,*7E,$GPGGA,131334.453,3554.9687,N,01430.2545,E,1,5,1,0, M,0, M,0,*74,35.9161349499136,14.504248535414,35.9161451591,14.5042416572,2,0.00,,3/13/2013 2:13:34 PM
$GPGGA,131335.473,3554.9681,N,01430.2549,E,1,5,1,0, M,0, M,0,*7D,$GPGGA,131335.473,3554.9687,N,01430.2544,E,1,5,1,0, M,0, M,0,*76,35.9161349499136,14.504248535414,35.9161448381,14.5042406046,2,0.00,,3/13/2013 2:13:35 PM
$GPGGA,131336.483,3554.9681,N,01430.2549,E,1,5,1,0, M,0, M,0,*71,$GPGGA,131336.483,3554.9687,N,01430.2545,E,1,5,1,0, M,0, M,0,*7B,35.9161349499136,14.504248535414,35.9161451389,14.5042410468,2,0.00,,3/13/2013 2:13:36 PM
$GPGGA,131337.493,3554.9681,N,01430.2549,E,1,5,1,0, M,0, M,0,*71,$GPGGA,131337.493,3554.9687,N,01430.2545,E,1,5,1,0, M,0, M,0,*7B,35.9161349499136,14.504248535414,35.9161455731,14.5042421409,2,0.00,,3/13/2013 2:13:37 PM
$GPGGA,131338.513,3554.9681,N,01430.2549,E,1,5,1,0, M,0, M,0,*77,$GPGGA,131338.513,3554.9687,N,01430.2546,E,1,5,1,0, M,0, M,0,*7E,35.9161349499136,14.504248535414,35.9161458311,14.5042435798,2,0.00,,3/13/2013 2:13:38 PM
$GPGGA,131339.523,3554.9681,N,01430.2549,E,1,5,1,0, M,0, M,0,*75,$GPGGA,131339.523,3554.9688,N,01430.2547,E,1,5,1,0, M,0, M,0,*72,35.9161349499136,14.504248535414,35.9161459773,14.5042447273,2,0.00,,3/13/2013 2:13:39 PM
$GPGGA,131340.543,3554.9681,N,01430.2549,E,1,5,1,0, M,0, M,0,*7D,$GPGGA,131340.543,3554.9688,N,01430.2547,E,1,5,1,0, M,0, M,0,*7A,35.9161349499136,14.504248535414,35.9161460352,14.5042457142,2,0.00,,3/13/2013 2:13:40 PM
$GPGGA,131341.553,3554.9681,N,01430.2549,E,1,5,1,0, M,0, M,0,*7D,$GPGGA,131341.553,3554.9688,N,01430.2548,E,1,5,1,0, M,0, M,0,*75,35.9161349499136,14.504248535414,35.9161460935,14.5042471374,2,0.00,,3/13/2013 2:13:41 PM
$GPGGA,131342.563,3554.9681,N,01430.2549,E,1,5,1,0, M,0, M,0,*7D,$GPGGA,131342.563,3554.9688,N,01430.2549,E,1,5,1,0, M,0, M,0,*74,35.9161349499136,14.504248535414,35.9161460478,14.5042481573,2,0.00,,3/13/2013 2:13:42 PM
$GPGGA,131343.583,3554.9681,N,01430.2549,E,1,5,1,0, M,0, M,0,*72,$GPGGA,131343.583,3554.9688,N,01430.2549,E,1,5,1,0, M,0, M,0,*7B,35.9161349499136,14.504248535414,35.9161459868,14.5042480979,2,0.00,,3/13/2013 2:13:43 PM
$GPGGA,131344.593,3554.9681,N,01430.2549,E,1,5,1,0, M,0, M,0,*74,$GPGGA,131344.593,3554.9688,N,01430.2549,E,1,5,1,0, M,0, M,0,*7D,35.9161349499136,14.504248535414,35.9161460001,14.5042480695,2,0.00,,3/13/2013 2:13:44 PM
$GPGGA,131345.613,3554.9681,N,01430.2549,E,1,5,1,0, M,0, M,0,*7E,$GPGGA,131345.613,3554.9688,N,01430.2549,E,1,5,1,0, M,0, M,0,*77,35.9161349499136,14.504248535414,35.9161459655,14.5042483415,2,0.00,,3/13/2013 2:13:45 PM
$GPGGA,131346.623,3554.9681,N,01430.2549,E,1,5,1,0, M,0, M,0,*7E,$GPGGA,131346.623,3554.9688,N,01430.2550,E,1,5,1,0, M,0, M,0,*7F,35.9161349499136,14.504248535414,35.9161458799,14.5042495174,2,0.00,,3/13/2013 2:13:46 PM
$GPGGA,131347.633,3554.9681,N,01430.2549,E,1,5,1,0, M,0, M,0,*7E,$GPGGA,131347.633,3554.9687,N,01430.2550,E,1,5,1,0, M,0, M,0,*70,35.9161349499136,14.504248535414,35.9161456839,14.5042505705,2,0.00,,3/13/2013 2:13:47 PM
$GPGGA,131348.653,3554.9681,N,01430.2549,E,1,5,1,0, M,0, M,0,*77,$GPGGA,131348.653,3554.9687,N,01430.2550,E,1,5,1,0, M,0, M,0,*79,35.9161349499136,14.504248535414,35.9161454976,14.5042508066,2,0.00,,3/13/2013 2:13:48 PM
$GPGGA,131349.663,3554.9681,N,01430.2549,E,1,5,1,0, M,0, M,0,*75,$GPGGA,131349.663,3554.9687,N,01430.2551,E,1,5,1,0, M,0, M,0,*7A,35.9161349499136,14.504248535414,35.9161451973,14.5042514325,2,0.00,,3/13/2013 2:13:49 PM
$GPGGA,131350.683,3554.9681,N,01430.2549,E,1,5,1,0, M,0, M,0,*73,$GPGGA,131350.683,3554.9687,N,01430.2551,E,1,5,1,0, M,0, M,0,*7C,35.9161349499136,14.504248535414,35.9161450667,14.5042509935,2,0.00,,3/13/2013 2:13:50 PM
$GPGGA,131351.693,3554.9681,N,01430.2549,E,1,5,1,0, M,0, M,0,*73,$GPGGA,131351.693,3554.9687,N,01430.2551,E,1,5,1,0, M,0, M,0,*7C,35.9161349499136,14.504248535414,35.9161450307,14.5042509346,2,0.00,,3/13/2013 2:13:51 PM
$GPGGA,131352.703,3554.9681,N,01430.2549,E,1,5,1,0, M,0, M,0,*78,$GPGGA,131352.703,3554.9687,N,01430.2551,E,1,5,1,0, M,0, M,0,*77,35.9161349499136,14.504248535414,35.9161449472,14.5042512,2,0.00,,3/13/2013 2:13:52 PM
$GPGGA,131353.723,3554.9681,N,01430.2549,E,1,5,1,0, M,0, M,0,*7B,$GPGGA,131353.723,3554.9687,N,01430.2550,E,1,5,1,0, M,0, M,0,*75,35.9161349499136,14.504248535414,35.9161449046,14.5042507784,2,0.00,,3/13/2013 2:13:53 PM
$GPGGA,131354.733,3554.9681,N,01430.2549,E,1,5,1,0, M,0, M,0,*7D,$GPGGA,131354.733,3554.9687,N,01430.2550,E,1,5,1,0, M,0, M,0,*73,35.9161349499136,14.504248535414,35.9161450132,14.5042507124,2,0.00,,3/13/2013 2:13:54 PM
$GPGGA,131355.753,3554.9681,N,01430.2549,E,1,5,1,0, M,0, M,0,*7A,$GPGGA,131355.753,3554.9687,N,01430.2550,E,1,5,1,0, M,0, M,0,*74,35.9161349499136,14.504248535414,35.9161449867,14.5042505126,2,0.00,,3/13/2013 2:13:55 PM
$GPGGA,131356.763,3554.9681,N,01430.2549,E,1,5,1,0, M,0, M,0,*7A,$GPGGA,131356.763,3554.9687,N,01430.2550,E,1,5,1,0, M,0, M,0,*74,35.9161349499136,14.504248535414,35.9161448751,14.5042505197,2,0.00,,3/13/2013 2:13:56 PM
$GPGGA,131357.773,3554.9681,N,01430.2549,E,1,5,1,0, M,0, M,0,*7A,$GPGGA,131357.773,3554.9687,N,01430.2550,E,1,5,1,0, M,0, M,0,*74,35.9161349499136,14.504248535414,35.9161446751,14.5042506578,2,0.00,,3/13/2013 2:13:57 PM
$GPGGA,131358.793,3554.9681,N,01430.2549,E,1,5,1,0, M,0, M,0,*7B,$GPGGA,131358.793,3554.9687,N,01430.2551,E,1,5,1,0, M,0, M,0,*74,35.9161349499136,14.504248535414,35.9161444303,14.5042511183,2,0.00,,3/13/2013 2:13:58 PM
$GPGGA,131359.803,3554.9681,N,01430.2549,E,1,5,1,0, M,0, M,0,*7C,$GPGGA,131359.803,3554.9687,N,01430.2551,E,1,5,1,0, M,0, M,0,*73,35.9161349499136,14.504248535414,35.9161442652,14.5042516413,2,0.00,,3/13/2013 2:13:59 PM
$GPGGA,131400.823,3554.9681,N,01430.2549,E,1,5,1,0, M,0, M,0,*75,$GPGGA,131400.823,3554.9687,N,01430.2551,E,1,5,1,0, M,0, M,0,*7A,35.9161349499136,14.504248535414,35.916144289,14.5042515295,2,0.00,,3/13/2013 2:14:00 PM
$GPGGA,131401.833,3554.9681,N,01430.2549,E,1,5,1,0, M,0, M,0,*75,$GPGGA,131401.833,3554.9687,N,01430.2551,E,1,5,1,0, M,0, M,0,*7A,35.9161349499136,14.504248535414,35.9161444178,14.5042514622,2,0.00,,3/13/2013 2:14:01 PM
$GPGGA,131402.843,3554.9681,N,01430.2549,E,1,5,1,0, M,0, M,0,*71,$GPGGA,131402.843,3554.9687,N,01430.2551,E,1,5,1,0, M,0, M,0,*7E,35.9161349499136,14.504248535414,35.9161444279,14.5042514355,2,0.00,,3/13/2013 2:14:02 PM
$GPGGA,131403.863,3554.9681,N,01430.2549,E,1,5,1,0, M,0, M,0,*72,$GPGGA,131403.863,3554.9687,N,01430.2551,E,1,5,1,0, M,0, M,0,*7D,35.9161349499136,14.504248535414,35.9161443232,14.5042523011,2,0.00,,3/13/2013 2:14:03 PM
$GPGGA,131404.873,3554.9681,N,01430.2549,E,1,5,1,0, M,0, M,0,*74,$GPGGA,131404.873,3554.9687,N,01430.2551,E,1,5,1,0, M,0, M,0,*7B,35.9161349499136,14.504248535414,35.9161445359,14.5042517961,2,0.00,,3/13/2013 2:14:04 PM
$GPGGA,131405.893,3554.9681,N,01430.2549,E,1,5,1,0, M,0, M,0,*7B,$GPGGA,131405.893,3554.9687,N,01430.2551,E,1,5,1,0, M,0, M,0,*74,35.9161349499136,14.504248535414,35.9161442764,14.5042514498,2,0.00,,3/13/2013 2:14:05 PM
$GPGGA,131406.903,3554.9681,N,01430.2549,E,1,5,1,0, M,0, M,0,*70,$GPGGA,131406.903,3554.9687,N,01430.2551,E,1,5,1,0, M,0, M,0,*7F,35.9161349499136,14.504248535414,35.9161442376,14.5042518327,2,0.00,,3/13/2013 2:14:06 PM
$GPGGA,131407.913,3554.9681,N,01430.2549,E,1,5,1,0, M,0, M,0,*70,$GPGGA,131407.913,3554.9687,N,01430.2551,E,1,5,1,0, M,0, M,0,*7F,35.9161349499136,14.504248535414,35.9161442937,14.504251078,2,0.00,,3/13/2013 2:14:07 PM
$GPGGA,131408.933,3554.9681,N,01430.2549,E,1,5,1,0, M,0, M,0,*7D,$GPGGA,131408.933,3554.9687,N,01430.2551,E,1,5,1,0, M,0, M,0,*72,35.9161349499136,14.504248535414,35.9161443403,14.5042511988,2,0.00,,3/13/2013 2:14:08 PM
$GPGGA,131409.943,3554.9681,N,01430.2549,E,1,5,1,0, M,0, M,0,*7B,$GPGGA,131409.943,3554.9687,N,01430.2551,E,1,5,1,0, M,0, M,0,*74,35.9161349499136,14.504248535414,35.9161444304,14.5042513441,2,0.00,,3/13/2013 2:14:09 PM
$GPGGA,131410.963,3554.9681,N,01430.2549,E,1,5,1,0, M,0, M,0,*71,$GPGGA,131410.963,3554.9687,N,01430.2551,E,1,5,1,0, M,0, M,0,*7E,35.9161349499136,14.504248535414,35.9161444756,14.5042516682,2,0.00,,3/13/2013 2:14:10 PM
$GPGGA,131411.973,3554.9681,N,01430.2549,E,1,5,1,0, M,0, M,0,*71,$GPGGA,131411.973,3554.9687,N,01430.2551,E,1,5,1,0, M,0, M,0,*7E,35.9161349499136,14.504248535414,35.9161443407,14.5042518341,2,0.00,,3/13/2013 2:14:11 PM
$GPGGA,131412.993,3554.9681,N,01430.2549,E,1,5,1,0, M,0, M,0,*7C,$GPGGA,131412.993,3554.9686,N,01430.2551,E,1,5,1,0, M,0, M,0,*72,35.9161349499136,14.504248535414,35.9161441415,14.5042514634,2,0.00,,3/13/2013 2:14:12 PM
$GPGGA,131414.003,3554.9681,N,01430.2549,E,1,5,1,0, M,0, M,0,*7A,$GPGGA,131414.003,3554.9686,N,01430.2551,E,1,5,1,0, M,0, M,0,*74,35.9161349499136,14.504248535414,35.916143776,14.5042510924,2,0.00,,3/13/2013 2:14:14 PM
$GPGGA,131415.013,3554.9681,N,01430.2549,E,1,5,1,0, M,0, M,0,*7A,$GPGGA,131415.013,3554.9686,N,01430.2551,E,1,5,1,0, M,0, M,0,*74,35.9161349499136,14.504248535414,35.9161437257,14.5042512093,2,0.00,,3/13/2013 2:14:15 PM
$GPGGA,131416.033,3554.9681,N,01430.2549,E,1,5,1,0, M,0, M,0,*7B,$GPGGA,131416.033,3554.9686,N,01430.2551,E,1,5,1,0, M,0, M,0,*75,35.9161349499136,14.504248535414,35.916143641,14.5042513526,2,0.00,,3/13/2013 2:14:16 PM
$GPGGA,131417.043,3554.9681,N,01430.2549,E,1,5,1,0, M,0, M,0,*7D,$GPGGA,131417.043,3554.9686,N,01430.2551,E,1,5,1,0, M,0, M,0,*73,35.9161349499136,14.504248535414,35.9161436264,14.504251466,2,0.00,,3/13/2013 2:14:17 PM
$GPGGA,131418.063,3554.9681,N,01430.2549,E,1,5,1,0, M,0, M,0,*70,$GPGGA,131418.063,3554.9686,N,01430.2551,E,1,5,1,0, M,0, M,0,*7E,35.9161349499136,14.504248535414,35.9161436096,14.5042518142,2,0.00,,3/13/2013 2:14:18 PM
$GPGGA,131419.073,3554.9681,N,01430.2549,E,1,5,1,0, M,0, M,0,*70,$GPGGA,131419.073,3554.9686,N,01430.2551,E,1,5,1,0, M,0, M,0,*7E,35.9161349499136,14.504248535414,35.9161437693,14.5042518684,2,0.00,,3/13/2013 2:14:19 PM
$GPGGA,131420.083,3554.9681,N,01430.2549,E,1,5,1,0, M,0, M,0,*75,$GPGGA,131420.083,3554.9686,N,01430.2551,E,1,5,1,0, M,0, M,0,*7B,35.9161349499136,14.504248535414,35.9161437301,14.5042515533,2,0.00,,3/13/2013 2:14:20 PM
$GPGGA,131421.103,3554.9681,N,01430.2549,E,1,5,1,0, M,0, M,0,*7D,$GPGGA,131421.103,3554.9686,N,01430.2551,E,1,5,1,0, M,0, M,0,*73,35.9161349499136,14.504248535414,35.9161440032,14.5042513192,2,0.00,,3/13/2013 2:14:21 PM
$GPGGA,131422.113,3554.9681,N,01430.2549,E,1,5,1,0, M,0, M,0,*7F,$GPGGA,131422.113,3554.9687,N,01430.2551,E,1,5,1,0, M,0, M,0,*70,35.9161349499136,14.504248535414,35.9161442115,14.5042510494,2,0.00,,3/13/2013 2:14:22 PM
$GPGGA,131423.133,3554.9681,N,01430.2549,E,1,5,1,0, M,0, M,0,*7C,$GPGGA,131423.133,3554.9687,N,01430.2551,E,1,5,1,0, M,0, M,0,*73,35.9161349499136,14.504248535414,35.9161443607,14.5042510818,2,0.00,,3/13/2013 2:14:23 PM
$GPGGA,131424.143,3554.9681,N,01430.2549,E,1,5,1,0, M,0, M,0,*7C,$GPGGA,131424.143,3554.9687,N,01430.2551,E,1,5,1,0, M,0, M,0,*73,35.9161349499136,14.504248535414,35.9161443403,14.5042512178,2,0.00,,3/13/2013 2:14:24 PM
$GPGGA,131425.153,3554.9681,N,01430.2549,E,1,5,1,0, M,0, M,0,*7C,$GPGGA,131425.153,3554.9687,N,01430.2551,E,1,5,1,0, M,0, M,0,*73,35.9161349499136,14.504248535414,35.9161445531,14.5042511017,2,0.00,,3/13/2013 2:14:25 PM
$GPGGA,131426.173,3554.9681,N,01430.2549,E,1,5,1,0, M,0, M,0,*7D,$GPGGA,131426.173,3554.9687,N,01430.2549,E,1,5,1,0, M,0, M,0,*7B,35.9161349499136,14.504248535414,35.916144782,14.504248822,2,0.00,,3/13/2013 2:14:26 PM
$GPGGA,131427.183,3554.9681,N,01430.2549,E,1,5,1,0, M,0, M,0,*73,$GPGGA,131427.183,3554.9687,N,01430.2548,E,1,5,1,0, M,0, M,0,*74,35.9161349499136,14.504248535414,35.9161447477,14.5042465334,2,0.00,,3/13/2013 2:14:27 PM
$GPGGA,131428.203,3554.9681,N,01430.2549,E,1,5,1,0, M,0, M,0,*77,$GPGGA,131428.203,3554.9687,N,01430.2547,E,1,5,1,0, M,0, M,0,*7F,35.9161349499136,14.504248535414,35.9161442186,14.5042449059,2,0.00,,3/13/2013 2:14:28 PM
$GPGGA,131429.213,3554.9681,N,01430.2549,E,1,5,1,0, M,0, M,0,*77,$GPGGA,131429.213,3554.9686,N,01430.2547,E,1,5,1,0, M,0, M,0,*7E,35.9161349499136,14.504248535414,35.916143616,14.5042446819,2,0.00,,3/13/2013 2:14:29 PM
$GPGGA,131430.223,3554.9681,N,01430.2549,E,1,5,1,0, M,0, M,0,*7C,$GPGGA,131430.223,3554.9686,N,01430.2547,E,1,5,1,0, M,0, M,0,*75,35.9161349499136,14.504248535414,35.9161432257,14.5042452007,2,0.00,,3/13/2013 2:14:30 PM
$GPGGA,131431.243,3554.9681,N,01430.2549,E,1,5,1,0, M,0, M,0,*7B,$GPGGA,131431.243,3554.9686,N,01430.2547,E,1,5,1,0, M,0, M,0,*72,35.9161349499136,14.504248535414,35.9161441287,14.5042448269,2,0.00,,3/13/2013 2:14:31 PM
$GPGGA,131432.253,3554.9681,N,01430.2549,E,1,5,1,0, M,0, M,0,*79,$GPGGA,131432.253,3554.9687,N,01430.2546,E,1,5,1,0, M,0, M,0,*70,35.9161349499136,14.504248535414,35.9161449379,14.5042437374,2,0.00,,3/13/2013 2:14:32 PM
$GPGGA,131433.273,3554.9681,N,01430.2549,E,1,5,1,0, M,0, M,0,*7A,$GPGGA,131433.273,3554.9687,N,01430.2546,E,1,5,1,0, M,0, M,0,*73,35.9161349499136,14.504248535414,35.9161451446,14.5042431528,2,0.00,,3/13/2013 2:14:33 PM
$GPGGA,131434.283,3554.9681,N,01430.2549,E,1,5,1,0, M,0, M,0,*72,$GPGGA,131434.283,3554.9687,N,01430.2546,E,1,5,1,0, M,0, M,0,*7B,35.9161349499136,14.504248535414,35.9161454368,14.5042441437,2,0.00,,3/13/2013 2:14:34 PM
$GPGGA,131435.293,3554.9681,N,01430.2549,E,1,5,1,0, M,0, M,0,*72,$GPGGA,131435.293,3554.9687,N,01430.2548,E,1,5,1,0, M,0, M,0,*75,35.9161349499136,14.504248535414,35.9161457466,14.5042460965,2,0.00,,3/13/2013 2:14:35 PM
$GPGGA,131436.313,3554.9681,N,01430.2549,E,1,5,1,0, M,0, M,0,*78,$GPGGA,131436.313,3554.9687,N,01430.2548,E,1,5,1,0, M,0, M,0,*7F,35.9161349499136,14.504248535414,35.9161455771,14.504247204,2,0.00,,3/13/2013 2:14:36 PM
$GPGGA,131437.323,3554.9681,N,01430.2549,E,1,5,1,0, M,0, M,0,*7A,$GPGGA,131437.323,3554.9687,N,01430.2547,E,1,5,1,0, M,0, M,0,*72,35.9161349499136,14.504248535414,35.9161451843,14.5042454114,2,0.00,,3/13/2013 2:14:37 PM
$GPGGA,131438.343,3554.9681,N,01430.2549,E,1,5,1,0, M,0, M,0,*73,$GPGGA,131438.343,3554.9687,N,01430.2546,E,1,5,1,0, M,0, M,0,*7A,35.9161349499136,14.504248535414,35.9161447118,14.5042438494,2,0.00,,3/13/2013 2:14:38 PM
$GPGGA,131439.353,3554.9681,N,01430.2549,E,1,5,1,0, M,0, M,0,*73,$GPGGA,131439.353,3554.9687,N,01430.2546,E,1,5,1,0, M,0, M,0,*7A,35.9161349499136,14.504248535414,35.9161443912,14.5042430557,2,0.00,,3/13/2013 2:14:39 PM
$GPGGA,131440.363,3554.9681,N,01430.2549,E,1,5,1,0, M,0, M,0,*7E,$GPGGA,131440.363,3554.9686,N,01430.2546,E,1,5,1,0, M,0, M,0,*76,35.9161349499136,14.504248535414,35.9161440845,14.5042434167,2,0.00,,3/13/2013 2:14:40 PM
$GPGGA,131441.383,3554.9681,N,01430.2549,E,1,5,1,0, M,0, M,0,*71,$GPGGA,131441.383,3554.9686,N,01430.2547,E,1,5,1,0, M,0, M,0,*78,35.9161349499136,14.504248535414,35.9161431251,14.5042451089,2,0.00,,3/13/2013 2:14:41 PM
$GPGGA,131442.393,3554.9681,N,01430.2549,E,1,5,1,0, M,0, M,0,*73,$GPGGA,131442.393,3554.9686,N,01430.2548,E,1,5,1,0, M,0, M,0,*75,35.9161349499136,14.504248535414,35.9161425203,14.5042466842,2,0.00,,3/13/2013 2:14:42 PM
$GPGGA,131443.413,3554.9681,N,01430.2549,E,1,5,1,0, M,0, M,0,*7D,$GPGGA,131443.413,3554.9686,N,01430.2548,E,1,5,1,0, M,0, M,0,*7B,35.9161349499136,14.504248535414,35.9161425401,14.5042463928,2,0.00,,3/13/2013 2:14:43 PM
$GPGGA,131444.423,3554.9681,N,01430.2549,E,1,5,1,0, M,0, M,0,*79,$GPGGA,131444.423,3554.9686,N,01430.2547,E,1,5,1,0, M,0, M,0,*70,35.9161349499136,14.504248535414,35.9161427867,14.5042448807,2,0.00,,3/13/2013 2:14:44 PM
$GPGGA,131445.433,3554.9681,N,01430.2549,E,1,5,1,0, M,0, M,0,*79,$GPGGA,131445.433,3554.9686,N,01430.2547,E,1,5,1,0, M,0, M,0,*70,35.9161349499136,14.504248535414,35.916142662,14.5042453397,2,0.00,,3/13/2013 2:14:45 PM
$GPGGA,131446.453,3554.9681,N,01430.2549,E,1,5,1,0, M,0, M,0,*7C,$GPGGA,131446.453,3554.9686,N,01430.2547,E,1,5,1,0, M,0, M,0,*75,35.9161349499136,14.504248535414,35.9161425049,14.5042456219,2,0.00,,3/13/2013 2:14:46 PM
$GPGGA,131447.463,3554.9681,N,01430.2549,E,1,5,1,0, M,0, M,0,*7E,$GPGGA,131447.463,3554.9685,N,01430.2548,E,1,5,1,0, M,0, M,0,*7B,35.9161349499136,14.504248535414,35.9161423841,14.5042458496,2,0.00,,3/13/2013 2:14:47 PM
$GPGGA,131448.483,3554.9681,N,01430.2549,E,1,5,1,0, M,0, M,0,*7F,$GPGGA,131448.483,3554.9685,N,01430.2548,E,1,5,1,0, M,0, M,0,*7A,35.9161349499136,14.504248535414,35.9161418801,14.504246733,2,0.00,,3/13/2013 2:14:48 PM
$GPGGA,131449.493,3554.9681,N,01430.2549,E,1,5,1,0, M,0, M,0,*7F,$GPGGA,131449.493,3554.9685,N,01430.2549,E,1,5,1,0, M,0, M,0,*7B,35.9161349499136,14.504248535414,35.9161417179,14.504247839,2,0.00,,3/13/2013 2:14:49 PM
$GPGGA,131450.503,3554.9681,N,01430.2549,E,1,5,1,0, M,0, M,0,*7F,$GPGGA,131450.503,3554.9684,N,01430.2548,E,1,5,1,0, M,0, M,0,*7B,35.9161349499136,14.504248535414,35.9161406962,14.5042468543,2,0.00,,3/13/2013 2:14:50 PM
$GPGGA,131451.523,3554.9681,N,01430.2549,E,1,5,1,0, M,0, M,0,*7C,$GPGGA,131451.523,3554.9684,N,01430.2549,E,1,5,1,0, M,0, M,0,*79,35.9161349499136,14.504248535414,35.916140298,14.5042475366,2,0.00,,3/13/2013 2:14:51 PM
$GPGGA,131452.533,3554.9681,N,01430.2549,E,1,5,1,0, M,0, M,0,*7E,$GPGGA,131452.533,3554.9685,N,01430.2548,E,1,5,1,0, M,0, M,0,*7B,35.9161349499136,14.504248535414,35.9161409113,14.5042466358,2,0.00,,3/13/2013 2:14:52 PM
$GPGGA,131453.553,3554.9681,N,01430.2549,E,1,5,1,0, M,0, M,0,*79,$GPGGA,131453.553,3554.9685,N,01430.2547,E,1,5,1,0, M,0, M,0,*73,35.9161349499136,14.504248535414,35.9161413653,14.5042456002,2,0.00,,3/13/2013 2:14:53 PM
$GPGGA,131454.558,3554.9681,N,01430.2549,E,1,5,1,0, M,0, M,0,*75,$GPGGA,131454.558,3554.9685,N,01430.2547,E,1,5,1,0, M,0, M,0,*7F,35.9161349499136,14.504248535414,35.916141638,14.5042448502,2,0.00,,3/13/2013 2:14:54 PM
$GPGGA,131455.572,3554.9681,N,01430.2549,E,1,5,1,0, M,0, M,0,*7C,$GPGGA,131455.572,3554.9685,N,01430.2547,E,1,5,1,0, M,0, M,0,*76,35.9161349499136,14.504248535414,35.9161419507,14.5042446088,2,0.00,,3/13/2013 2:14:55 PM
$GPGGA,131456.590,3554.9681,N,01430.2549,E,1,5,1,0, M,0, M,0,*73,$GPGGA,131456.590,3554.9713,N,01430.2539,E,1,5,1,0, M,0, M,0,*7E,35.9161349499136,14.504248535414,35.916188035,14.5042311483,3,0.00,,3/13/2013 2:14:56 PM
$GPGGA,131457.600,3554.9681,N,01430.2549,E,1,5,1,0, M,0, M,0,*78,$GPGGA,131457.600,3554.9704,N,01430.2543,E,1,5,1,0, M,0, M,0,*7E,35.9161349499136,14.504248535414,35.9161731559,14.5042385351,3,0.00,,3/13/2013 2:14:57 PM
$GPGGA,131458.620,3554.9681,N,01430.2549,E,1,5,1,0, M,0, M,0,*75,$GPGGA,131458.620,3554.9704,N,01430.2544,E,1,5,1,0, M,0, M,0,*74,35.9161349499136,14.504248535414,35.9161725045,14.5042394663,3,0.00,,3/13/2013 2:14:58 PM
$GPGGA,131459.630,3554.9681,N,01430.2549,E,1,5,1,0, M,0, M,0,*75,$GPGGA,131459.630,3554.9703,N,01430.2546,E,1,5,1,0, M,0, M,0,*71,35.9161349499136,14.504248535414,35.916172407,14.5042434766,3,0.00,,3/13/2013 2:14:59 PM
$GPGGA,131500.650,3554.9681,N,01430.2549,E,1,5,1,0, M,0, M,0,*7E,$GPGGA,131500.650,3554.9703,N,01430.2547,E,1,5,1,0, M,0, M,0,*7B,35.9161349499136,14.504248535414,35.9161723318,14.5042450838,3,0.00,,3/13/2013 2:15:00 PM
$GPGGA,131501.660,3554.9681,N,01430.2549,E,1,5,1,0, M,0, M,0,*7C,$GPGGA,131501.660,3554.9703,N,01430.2549,E,1,5,1,0, M,0, M,0,*77,35.9161349499136,14.504248535414,35.9161717357,14.5042478416,3,0.00,,3/13/2013 2:15:01 PM
$GPGGA,131502.670,3554.9681,N,01430.2549,E,1,5,1,0, M,0, M,0,*7E,$GPGGA,131502.670,3554.9703,N,01430.2547,E,1,5,1,0, M,0, M,0,*7B,35.9161349499136,14.504248535414,35.9161708794,14.5042452243,3,0.00,,3/13/2013 2:15:02 PM
$GPGGA,131503.690,3554.9681,N,01430.2549,E,1,5,1,0, M,0, M,0,*71,$GPGGA,131503.690,3554.9702,N,01430.2546,E,1,5,1,0, M,0, M,0,*74,35.9161349499136,14.504248535414,35.9161703632,14.5042434255,3,0.00,,3/13/2013 2:15:03 PM
$GPGGA,131504.700,3554.9681,N,01430.2549,E,1,5,1,0, M,0, M,0,*7E,$GPGGA,131504.700,3554.9700,N,01430.2536,E,1,5,1,0, M,0, M,0,*7E,35.9161349499136,14.504248535414,35.9161667796,14.5042268942,3,0.00,,3/13/2013 2:15:04 PM
$GPGGA,131505.720,3554.9681,N,01430.2549,E,1,5,1,0, M,0, M,0,*7D,$GPGGA,131505.720,3554.9700,N,01430.2538,E,1,5,1,0, M,0, M,0,*73,35.9161349499136,14.504248535414,35.9161672425,14.5042292779,3,0.00,,3/13/2013 2:15:05 PM
$GPGGA,131506.730,3554.9681,N,01430.2549,E,1,5,1,0, M,0, M,0,*7F,$GPGGA,131506.730,3554.9703,N,01430.2549,E,1,5,1,0, M,0, M,0,*74,35.9161349499136,14.504248535414,35.9161724212,14.5042488439,3,0.00,,3/13/2013 2:15:06 PM
$GPGGA,131507.740,3554.9681,N,01430.2549,E,1,5,1,0, M,0, M,0,*79,$GPGGA,131507.740,3554.9703,N,01430.2541,E,1,5,1,0, M,0, M,0,*7A,35.9161349499136,14.504248535414,35.9161711317,14.5042355178,3,0.00,,3/13/2013 2:15:07 PM
$GPGGA,131508.760,3554.9681,N,01430.2549,E,1,5,1,0, M,0, M,0,*74,$GPGGA,131508.760,3554.9702,N,01430.2537,E,1,5,1,0, M,0, M,0,*77,35.9161349499136,14.504248535414,35.9161699175,14.5042285644,3,0.00,,3/13/2013 2:15:08 PM
$GPGGA,131509.770,3554.9681,N,01430.2549,E,1,5,1,0, M,0, M,0,*74,$GPGGA,131509.770,3554.9703,N,01430.2541,E,1,5,1,0, M,0, M,0,*77,35.9161349499136,14.504248535414,35.9161718648,14.5042354317,3,0.00,,3/13/2013 2:15:09 PM
$GPGGA,131510.790,3554.9681,N,01430.2549,E,1,5,1,0, M,0, M,0,*72,$GPGGA,131510.790,3554.9705,N,01430.2550,E,1,5,1,0, M,0, M,0,*77,35.9161349499136,14.504248535414,35.9161742319,14.5042493036,3,0.00,,3/13/2013 2:15:10 PM
$GPGGA,131511.800,3554.9681,N,01430.2549,E,1,5,1,0, M,0, M,0,*75,$GPGGA,131511.800,3554.9703,N,01430.2557,E,1,5,1,0, M,0, M,0,*71,35.9161349499136,14.504248535414,35.9161717609,14.5042612237,3,0.00,,3/13/2013 2:15:11 PM
$GPGGA,131512.810,3554.9681,N,01430.2549,E,1,5,1,0, M,0, M,0,*77,$GPGGA,131512.810,3554.9700,N,01430.2559,E,1,5,1,0, M,0, M,0,*7E,35.9161349499136,14.504248535414,35.9161671733,14.5042643848,3,0.00,,3/13/2013 2:15:12 PM
$GPGGA,131513.830,3554.9681,N,01430.2549,E,1,5,1,0, M,0, M,0,*74,$GPGGA,131513.830,3554.9700,N,01430.2556,E,1,5,1,0, M,0, M,0,*72,35.9161349499136,14.504248535414,35.9161674662,14.5042600953,3,0.00,,3/13/2013 2:15:13 PM
$GPGGA,131514.840,3554.9681,N,01430.2549,E,1,5,1,0, M,0, M,0,*74,$GPGGA,131514.840,3554.9700,N,01430.2554,E,1,5,1,0, M,0, M,0,*70,35.9161349499136,14.504248535414,35.9161667348,14.5042574939,3,0.00,,3/13/2013 2:15:14 PM
$GPGGA,131515.860,3554.9681,N,01430.2549,E,1,5,1,0, M,0, M,0,*77,$GPGGA,131515.860,3554.9700,N,01430.2555,E,1,5,1,0, M,0, M,0,*72,35.9161349499136,14.504248535414,35.9161664372,14.5042579184,3,0.00,,3/13/2013 2:15:15 PM
$GPGGA,131516.870,3554.9681,N,01430.2549,E,1,5,1,0, M,0, M,0,*75,$GPGGA,131516.870,3554.9700,N,01430.2554,E,1,5,1,0, M,0, M,0,*71,35.9161349499136,14.504248535414,35.9161660555,14.5042563467,3,0.00,,3/13/2013 2:15:16 PM
$GPGGA,131517.880,3554.9681,N,01430.2549,E,1,5,1,0, M,0, M,0,*7B,$GPGGA,131517.880,3554.9698,N,01430.2554,E,1,5,1,0, M,0, M,0,*7F,35.9161349499136,14.504248535414,35.9161638956,14.5042569201,3,0.00,,3/13/2013 2:15:17 PM
$GPGGA,131518.900,3554.9681,N,01430.2549,E,1,5,1,0, M,0, M,0,*7D,$GPGGA,131518.900,3554.9698,N,01430.2556,E,1,5,1,0, M,0, M,0,*7B,35.9161349499136,14.504248535414,35.9161639722,14.5042597643,3,0.00,,3/13/2013 2:15:18 PM
$GPGGA,131519.910,3554.9681,N,01430.2549,E,1,5,1,0, M,0, M,0,*7D,$GPGGA,131519.910,3554.9699,N,01430.2557,E,1,5,1,0, M,0, M,0,*7B,35.9161349499136,14.504248535414,35.9161650963,14.5042619912,3,0.00,,3/13/2013 2:15:19 PM
$GPGGA,131520.930,3554.9681,N,01430.2549,E,1,5,1,0, M,0, M,0,*75,$GPGGA,131520.930,3554.9699,N,01430.2558,E,1,5,1,0, M,0, M,0,*7C,35.9161349499136,14.504248535414,35.9161654701,14.5042625374,3,0.00,,3/13/2013 2:15:20 PM
$GPGGA,131521.940,3554.9681,N,01430.2549,E,1,5,1,0, M,0, M,0,*73,$GPGGA,131521.940,3554.9700,N,01430.2554,E,1,5,1,0, M,0, M,0,*77,35.9161349499136,14.504248535414,35.9161672247,14.5042565993,3,0.00,,3/13/2013 2:15:21 PM
$GPGGA,131522.950,3554.9681,N,01430.2549,E,1,5,1,0, M,0, M,0,*71,$GPGGA,131522.950,3554.9700,N,01430.2543,E,1,5,1,0, M,0, M,0,*73,35.9161349499136,14.504248535414,35.9161662612,14.5042378733,3,0.00,,3/13/2013 2:15:22 PM
$GPGGA,131523.970,3554.9681,N,01430.2549,E,1,5,1,0, M,0, M,0,*72,$GPGGA,131523.970,3554.9699,N,01430.2540,E,1,5,1,0, M,0, M,0,*72,35.9161349499136,14.504248535414,35.9161646656,14.5042326636,3,0.00,,3/13/2013 2:15:23 PM
$GPGGA,131524.980,3554.9681,N,01430.2549,E,1,5,1,0, M,0, M,0,*7A,$GPGGA,131524.980,3554.9699,N,01430.2541,E,1,5,1,0, M,0, M,0,*7B,35.9161349499136,14.504248535414,35.9161656523,14.5042342462,3,0.00,,3/13/2013 2:15:24 PM
$GPGGA,131526.001,3554.9681,N,01430.2549,E,1,5,1,0, M,0, M,0,*78,$GPGGA,131526.001,3554.9700,N,01430.2543,E,1,5,1,0, M,0, M,0,*7A,35.9161349499136,14.504248535414,35.9161672212,14.5042389554,3,0.00,,3/13/2013 2:15:26 PM
$GPGGA,131527.011,3554.9681,N,01430.2549,E,1,5,1,0, M,0, M,0,*78,$GPGGA,131527.011,3554.9698,N,01430.2543,E,1,5,1,0, M,0, M,0,*7A,35.9161349499136,14.504248535414,35.9161635886,14.5042380615,3,0.00,,3/13/2013 2:15:27 PM
$GPGGA,131528.021,3554.9681,N,01430.2549,E,1,5,1,0, M,0, M,0,*74,$GPGGA,131528.021,3554.9696,N,01430.2541,E,1,5,1,0, M,0, M,0,*7A,35.9161349499136,14.504248535414,35.9161602149,14.5042342896,3,0.00,,3/13/2013 2:15:28 PM
$GPGGA,131529.041,3554.9681,N,01430.2549,E,1,5,1,0, M,0, M,0,*73,$GPGGA,131529.041,3554.9695,N,01430.2545,E,1,5,1,0, M,0, M,0,*7A,35.9161349499136,14.504248535414,35.9161587612,14.5042417153,3,0.00,,3/13/2013 2:15:29 PM
$GPGGA,131530.051,3554.9681,N,01430.2549,E,1,5,1,0, M,0, M,0,*7A,$GPGGA,131530.051,3554.9695,N,01430.2551,E,1,5,1,0, M,0, M,0,*76,35.9161349499136,14.504248535414,35.9161589274,14.5042508592,3,0.00,,3/13/2013 2:15:30 PM
$GPGGA,131531.071,3554.9681,N,01430.2549,E,1,5,1,0, M,0, M,0,*79,$GPGGA,131531.071,3554.9696,N,01430.2548,E,1,5,1,0, M,0, M,0,*7E,35.9161349499136,14.504248535414,35.9161607338,14.5042474443,3,0.00,,3/13/2013 2:15:31 PM
$GPGGA,131532.081,3554.9681,N,01430.2549,E,1,5,1,0, M,0, M,0,*75,$GPGGA,131532.081,3554.9699,N,01430.2549,E,1,5,1,0, M,0, M,0,*7C,35.9161349499136,14.504248535414,35.9161656079,14.5042482657,3,0.00,,3/13/2013 2:15:32 PM
$GPGGA,131533.091,3554.9681,N,01430.2549,E,1,5,1,0, M,0, M,0,*75,$GPGGA,131533.091,3554.9700,N,01430.2553,E,1,5,1,0, M,0, M,0,*76,35.9161349499136,14.504248535414,35.9161673251,14.5042555453,3,0.00,,3/13/2013 2:15:33 PM
$GPGGA,131534.111,3554.9681,N,01430.2549,E,1,5,1,0, M,0, M,0,*7B,$GPGGA,131534.111,3554.9700,N,01430.2554,E,1,5,1,0, M,0, M,0,*7F,35.9161349499136,14.504248535414,35.9161671983,14.5042566283,3,0.00,,3/13/2013 2:15:34 PM
$GPGGA,131535.121,3554.9681,N,01430.2549,E,1,5,1,0, M,0, M,0,*79,$GPGGA,131535.121,3554.9702,N,01430.2555,E,1,5,1,0, M,0, M,0,*7E,35.9161349499136,14.504248535414,35.916169496,14.5042579734,3,0.00,,3/13/2013 2:15:35 PM
$GPGGA,131536.141,3554.9681,N,01430.2549,E,1,5,1,0, M,0, M,0,*7C,$GPGGA,131536.141,3554.9702,N,01430.2555,E,1,5,1,0, M,0, M,0,*7B,35.9161349499136,14.504248535414,35.9161707699,14.5042583833,3,0.00,,3/13/2013 2:15:36 PM
$GPGGA,131537.151,3554.9681,N,01430.2549,E,1,5,1,0, M,0, M,0,*7C,$GPGGA,131537.151,3554.9703,N,01430.2551,E,1,5,1,0, M,0, M,0,*7E,35.9161349499136,14.504248535414,35.9161717668,14.5042508426,3,0.00,,3/13/2013 2:15:37 PM
$GPGGA,131538.161,3554.9681,N,01430.2549,E,1,5,1,0, M,0, M,0,*70,$GPGGA,131538.161,3554.9704,N,01430.2544,E,1,5,1,0, M,0, M,0,*71,35.9161349499136,14.504248535414,35.9161730471,14.5042397937,3,0.00,,3/13/2013 2:15:38 PM
$GPGGA,131539.181,3554.9681,N,01430.2549,E,1,5,1,0, M,0, M,0,*7F,$GPGGA,131539.181,3554.9705,N,01430.2542,E,1,5,1,0, M,0, M,0,*79,35.9161349499136,14.504248535414,35.9161756809,14.5042361654,3,0.00,,3/13/2013 2:15:39 PM
$GPGGA,131540.191,3554.9681,N,01430.2549,E,1,5,1,0, M,0, M,0,*70,$GPGGA,131540.191,3554.9705,N,01430.2542,E,1,5,1,0, M,0, M,0,*76,35.9161349499136,14.504248535414,35.9161752653,14.5042360138,3,0.00,,3/13/2013 2:15:40 PM
$GPGGA,131541.211,3554.9681,N,01430.2549,E,1,5,1,0, M,0, M,0,*7A,$GPGGA,131541.211,3554.9704,N,01430.2543,E,1,5,1,0, M,0, M,0,*7C,35.9161349499136,14.504248535414,35.9161725402,14.5042388976,3,0.00,,3/13/2013 2:15:41 PM
$GPGGA,131542.221,3554.9681,N,01430.2549,E,1,5,1,0, M,0, M,0,*7A,$GPGGA,131542.221,3554.9703,N,01430.2546,E,1,5,1,0, M,0, M,0,*7E,35.9161349499136,14.504248535414,35.9161714774,14.5042432326,3,0.00,,3/13/2013 2:15:42 PM
$GPGGA,131543.231,3554.9681,N,01430.2549,E,1,5,1,0, M,0, M,0,*7A,$GPGGA,131543.231,3554.9703,N,01430.2545,E,1,5,1,0, M,0, M,0,*7D,35.9161349499136,14.504248535414,35.9161716031,14.5042416196,3,0.00,,3/13/2013 2:15:43 PM
$GPGGA,131544.251,3554.9681,N,01430.2549,E,1,5,1,0, M,0, M,0,*7B,$GPGGA,131544.251,3554.9705,N,01430.2544,E,1,5,1,0, M,0, M,0,*7B,35.9161349499136,14.504248535414,35.9161755594,14.5042393291,3,0.00,,3/13/2013 2:15:44 PM
$GPGGA,131545.261,3554.9681,N,01430.2549,E,1,5,1,0, M,0, M,0,*79,$GPGGA,131545.261,3554.9707,N,01430.2544,E,1,5,1,0, M,0, M,0,*7B,35.9161349499136,14.504248535414,35.9161786487,14.5042396711,3,0.00,,3/13/2013 2:15:45 PM
$GPGGA,131546.281,3554.9681,N,01430.2549,E,1,5,1,0, M,0, M,0,*74,$GPGGA,131546.281,3554.9708,N,01430.2545,E,1,5,1,0, M,0, M,0,*78,35.9161349499136,14.504248535414,35.9161804184,14.5042413327,3,0.00,,3/13/2013 2:15:46 PM
$GPGGA,131547.291,3554.9681,N,01430.2549,E,1,5,1,0, M,0, M,0,*74,$GPGGA,131547.291,3554.9709,N,01430.2544,E,1,5,1,0, M,0, M,0,*78,35.9161349499136,14.504248535414,35.9161811716,14.5042393393,3,0.00,,3/13/2013 2:15:47 PM
$GPGGA,131548.301,3554.9681,N,01430.2549,E,1,5,1,0, M,0, M,0,*73,$GPGGA,131548.301,3554.9709,N,01430.2543,E,1,5,1,0, M,0, M,0,*78,35.9161349499136,14.504248535414,35.9161815526,14.5042375641,3,0.00,,3/13/2013 2:15:48 PM
$GPGGA,131549.321,3554.9681,N,01430.2549,E,1,5,1,0, M,0, M,0,*70,$GPGGA,131549.321,3554.9709,N,01430.2541,E,1,5,1,0, M,0, M,0,*79,35.9161349499136,14.504248535414,35.9161813917,14.5042353499,3,0.00,,3/13/2013 2:15:49 PM
$GPGGA,131550.331,3554.9681,N,01430.2549,E,1,5,1,0, M,0, M,0,*79,$GPGGA,131550.331,3554.9709,N,01430.2541,E,1,5,1,0, M,0, M,0,*70,35.9161349499136,14.504248535414,35.9161815667,14.5042348039,3,0.00,,3/13/2013 2:15:50 PM
$GPGGA,131551.351,3554.9681,N,01430.2549,E,1,5,1,0, M,0, M,0,*7E,$GPGGA,131551.351,3554.9709,N,01430.2541,E,1,5,1,0, M,0, M,0,*77,35.9161349499136,14.504248535414,35.9161815935,14.5042354285,3,0.00,,3/13/2013 2:15:51 PM
