GPGGA Base Position,,,,,,,,,,,,,,,GPGGA End Position,,,,,,,,,,,,,,,Base Latitude,Base Longitude,End Latitude,End Longitude,Node Count, Extra Tether Length,Node Address,X,Y,Z,Unscaled Pressure,Depth,Node Address,X,Y,Z,Unscaled Pressure,Depth,,Time
$GPGGA,113815.663,3554.0000,N,01430.0000,E,1,5,1,0, M,0, M,0,*7B,$GPGGA,113815.673,3554.0000,N,01430.0000,E,1,5,1,0, M,0, M,0,*7A,35.9,14.5,35.9,14.5,1,0.00,,3/13/2013 12:38:15 PM
$GPGGA,113816.673,3554.0000,N,01430.0000,E,1,5,1,0, M,0, M,0,*79,$GPGGA,113816.673,3554.0000,N,01430.0000,E,1,5,1,0, M,0, M,0,*79,35.9,14.5,35.9,14.5,1,0.00,,3/13/2013 12:38:16 PM
$GPGGA,113817.693,3554.0000,N,01430.0000,E,1,5,1,0, M,0, M,0,*76,$GPGGA,113817.693,3554.0000,N,01430.0000,E,1,5,1,0, M,0, M,0,*76,35.9,14.5,35.9,14.5,1,0.00,,3/13/2013 12:38:17 PM
$GPGGA,113818.703,3554.0000,N,01430.0000,E,1,5,1,0, M,0, M,0,*71,$GPGGA,113818.703,3554.0000,N,01430.0000,E,1,5,1,0, M,0, M,0,*71,35.9,14.5,35.9,14.5,1,0.00,,3/13/2013 12:38:18 PM
$GPGGA,113819.723,3554.0000,N,01430.0000,E,1,5,1,0, M,0, M,0,*72,$GPGGA,113819.723,3554.0000,N,01430.0000,E,1,5,1,0, M,0, M,0,*72,35.9,14.5,35.9,14.5,1,0.00,,3/13/2013 12:38:19 PM
$GPGGA,113820.733,3554.0000,N,01430.0000,E,1,5,1,0, M,0, M,0,*79,$GPGGA,113820.733,3554.0000,N,01430.0000,E,1,5,1,0, M,0, M,0,*79,35.9,14.5,35.9,14.5,1,0.00,,3/13/2013 12:38:20 PM
$GPGGA,113821.743,3554.0000,N,01430.0000,E,1,5,1,0, M,0, M,0,*7F,$GPGGA,113821.743,3554.0000,N,01430.0000,E,1,5,1,0, M,0, M,0,*7F,35.9,14.5,35.9,14.5,1,0.00,,3/13/2013 12:38:21 PM
$GPGGA,113822.763,3554.0000,N,01430.0000,E,1,5,1,0, M,0, M,0,*7E,$GPGGA,113822.763,3554.0000,N,01430.0000,E,1,5,1,0, M,0, M,0,*7E,35.9,14.5,35.9,14.5,1,0.00,,3/13/2013 12:38:22 PM
$GPGGA,113823.773,3554.0000,N,01430.0000,E,1,5,1,0, M,0, M,0,*7E,$GPGGA,113823.773,3554.0000,N,01430.0000,E,1,5,1,0, M,0, M,0,*7E,35.9,14.5,35.9,14.5,1,0.00,,3/13/2013 12:38:23 PM
$GPGGA,113824.793,3554.0000,N,01430.0000,E,1,5,1,0, M,0, M,0,*77,$GPGGA,113824.793,3554.0000,N,01430.0000,E,1,5,1,0, M,0, M,0,*77,35.9,14.5,35.9,14.5,1,0.00,,3/13/2013 12:38:24 PM
$GPGGA,113825.803,3554.0000,N,01430.0000,E,1,5,1,0, M,0, M,0,*70,$GPGGA,113825.803,3554.0000,N,01430.0000,E,1,5,1,0, M,0, M,0,*70,35.9,14.5,35.9,14.5,1,0.00,,3/13/2013 12:38:25 PM
$GPGGA,113826.813,3554.0000,N,01430.0000,E,1,5,1,0, M,0, M,0,*72,$GPGGA,113826.813,3554.0000,N,01430.0000,E,1,5,1,0, M,0, M,0,*72,35.9,14.5,35.9,14.5,1,0.00,,3/13/2013 12:38:26 PM
$GPGGA,113827.833,3554.0000,N,01430.0000,E,1,5,1,0, M,0, M,0,*71,$GPGGA,113827.833,3554.0000,N,01430.0000,E,1,5,1,0, M,0, M,0,*71,35.9,14.5,35.9,14.5,1,0.00,,3/13/2013 12:38:27 PM
$GPGGA,113828.843,3554.0000,N,01430.0000,E,1,5,1,0, M,0, M,0,*79,$GPGGA,113828.843,3554.0000,N,01430.0000,E,1,5,1,0, M,0, M,0,*79,35.9,14.5,35.9,14.5,1,0.00,,3/13/2013 12:38:28 PM
$GPGGA,113829.863,3554.0000,N,01430.0000,E,1,5,1,0, M,0, M,0,*7A,$GPGGA,113829.863,3554.0000,N,01430.0000,E,1,5,1,0, M,0, M,0,*7A,35.9,14.5,35.9,14.5,1,0.00,,3/13/2013 12:38:29 PM
$GPGGA,113830.873,3554.0000,N,01430.0000,E,1,5,1,0, M,0, M,0,*73,$GPGGA,113830.873,3554.0000,N,01430.0000,E,1,5,1,0, M,0, M,0,*73,35.9,14.5,35.9,14.5,1,0.00,,3/13/2013 12:38:30 PM
$GPGGA,113831.883,3554.0000,N,01430.0000,E,1,5,1,0, M,0, M,0,*7D,$GPGGA,113831.883,3554.0000,N,01430.0000,E,1,5,1,0, M,0, M,0,*7D,35.9,14.5,35.9,14.5,1,0.00,,3/13/2013 12:38:31 PM
$GPGGA,113832.903,3554.0000,N,01430.0000,E,1,5,1,0, M,0, M,0,*77,$GPGGA,113832.903,3554.0000,N,01430.0000,E,1,5,1,0, M,0, M,0,*77,35.9,14.5,35.9,14.5,1,0.00,,3/13/2013 12:38:32 PM
$GPGGA,113833.913,3554.0000,N,01430.0000,E,1,5,1,0, M,0, M,0,*77,$GPGGA,113833.913,3554.0000,N,01430.0000,E,1,5,1,0, M,0, M,0,*77,35.9,14.5,35.9,14.5,1,0.00,,3/13/2013 12:38:33 PM
$GPGGA,113834.933,3554.0000,N,01430.0000,E,1,5,1,0, M,0, M,0,*72,$GPGGA,113834.933,3554.0000,N,01430.0000,E,1,5,1,0, M,0, M,0,*72,35.9,14.5,35.9,14.5,1,0.00,,3/13/2013 12:38:34 PM
$GPGGA,113835.943,3554.0000,N,01430.0000,E,1,5,1,0, M,0, M,0,*74,$GPGGA,113835.943,3554.0000,N,01430.0000,E,1,5,1,0, M,0, M,0,*74,35.9,14.5,35.9,14.5,1,0.00,,3/13/2013 12:38:35 PM
$GPGGA,113836.953,3554.0000,N,01430.0000,E,1,5,1,0, M,0, M,0,*76,$GPGGA,113836.953,3554.0000,N,01430.0000,E,1,5,1,0, M,0, M,0,*76,35.9,14.5,35.9,14.5,1,0.00,,3/13/2013 12:38:36 PM
$GPGGA,113837.973,3554.0000,N,01430.0000,E,1,5,1,0, M,0, M,0,*75,$GPGGA,113837.973,3554.0000,N,01430.0000,E,1,5,1,0, M,0, M,0,*75,35.9,14.5,35.9,14.5,1,0.00,,3/13/2013 12:38:37 PM
$GPGGA,113838.983,3554.0000,N,01430.0000,E,1,5,1,0, M,0, M,0,*75,$GPGGA,113838.983,3554.0000,N,01430.0000,E,1,5,1,0, M,0, M,0,*75,35.9,14.5,35.9,14.5,1,0.00,,3/13/2013 12:38:38 PM
$GPGGA,113840.003,3554.0000,N,01430.0000,E,1,5,1,0, M,0, M,0,*7B,$GPGGA,113840.003,3554.0000,N,01430.0000,E,1,5,1,0, M,0, M,0,*7B,35.9,14.5,35.9,14.5,1,0.00,,3/13/2013 12:38:40 PM
$GPGGA,113841.013,3554.0000,N,01430.0000,E,1,5,1,0, M,0, M,0,*7B,$GPGGA,113841.013,3554.0000,N,01430.0000,E,1,5,1,0, M,0, M,0,*7B,35.9,14.5,35.9,14.5,1,0.00,,3/13/2013 12:38:41 PM
$GPGGA,113842.023,3554.0000,N,01430.0000,E,1,5,1,0, M,0, M,0,*7B,$GPGGA,113842.023,3554.0000,N,01430.0000,E,1,5,1,0, M,0, M,0,*7B,35.9,14.5,35.9,14.5,1,0.00,,3/13/2013 12:38:42 PM
$GPGGA,113843.043,3554.0000,N,01430.0000,E,1,5,1,0, M,0, M,0,*7C,$GPGGA,113843.043,3554.0000,N,01430.0000,E,1,5,1,0, M,0, M,0,*7C,35.9,14.5,35.9,14.5,1,0.00,,3/13/2013 12:38:43 PM
$GPGGA,113844.053,3554.0000,N,01430.0000,E,1,5,1,0, M,0, M,0,*7A,$GPGGA,113844.053,3554.0000,N,01430.0000,E,1,5,1,0, M,0, M,0,*7A,35.9,14.5,35.9,14.5,1,0.00,,3/13/2013 12:38:44 PM
$GPGGA,113845.073,3554.0000,N,01430.0000,E,1,5,1,0, M,0, M,0,*79,$GPGGA,113845.073,3554.0000,N,01430.0000,E,1,5,1,0, M,0, M,0,*79,35.9,14.5,35.9,14.5,1,0.00,,3/13/2013 12:38:45 PM
$GPGGA,113846.083,3554.0000,N,01430.0000,E,1,5,1,0, M,0, M,0,*75,$GPGGA,113846.083,3554.0000,N,01430.0000,E,1,5,1,0, M,0, M,0,*75,35.9,14.5,35.9,14.5,1,0.00,,3/13/2013 12:38:46 PM
$GPGGA,113847.092,3554.0000,N,01430.0000,E,1,5,1,0, M,0, M,0,*74,$GPGGA,113847.092,3554.0000,N,01430.0000,E,1,5,1,0, M,0, M,0,*74,35.9,14.5,35.9,14.5,1,0.00,,3/13/2013 12:38:47 PM
$GPGGA,113848.109,3554.0000,N,01430.0000,E,1,5,1,0, M,0, M,0,*78,$GPGGA,113848.109,3554.0000,N,01430.0000,E,1,5,1,0, M,0, M,0,*78,35.9,14.5,35.9,14.5,2,0.00,,3/13/2013 12:38:48 PM
$GPGGA,113849.129,3554.0000,N,01430.0000,E,1,5,1,0, M,0, M,0,*7B,$GPGGA,113849.129,3554.0003,N,01429.9996,E,1,5,1,0, M,0, M,0,*7F,35.9,14.5,35.9000058094,14.4999929141,2,0.00,,3/13/2013 12:38:49 PM
$GPGGA,113850.139,3554.0000,N,01430.0000,E,1,5,1,0, M,0, M,0,*72,$GPGGA,113850.139,3554.0004,N,01429.9999,E,1,5,1,0, M,0, M,0,*7E,35.9,14.5,35.9000063336,14.4999980926,2,0.00,,3/13/2013 12:38:50 PM
$GPGGA,113851.149,3554.0000,N,01430.0000,E,1,5,1,0, M,0, M,0,*74,$GPGGA,113851.149,3554.0007,N,01429.9999,E,1,5,1,0, M,0, M,0,*7B,35.9,14.5,35.900010909,14.4999984617,2,0.00,,3/13/2013 12:38:51 PM
$GPGGA,113852.169,3554.0000,N,01430.0000,E,1,5,1,0, M,0, M,0,*75,$GPGGA,113852.169,3554.0007,N,01430.0000,E,1,5,1,0, M,0, M,0,*72,35.9,14.5,35.900012295,14.4999992491,2,0.00,,3/13/2013 12:38:52 PM
$GPGGA,113853.179,3554.0000,N,01430.0000,E,1,5,1,0, M,0, M,0,*75,$GPGGA,113853.179,3554.0008,N,01430.0000,E,1,5,1,0, M,0, M,0,*7D,35.9,14.5,35.9000128051,14.4999995543,2,0.00,,3/13/2013 12:38:53 PM
$GPGGA,113854.199,3554.0000,N,01430.0000,E,1,5,1,0, M,0, M,0,*7C,$GPGGA,113854.199,3554.0008,N,01429.9998,E,1,5,1,0, M,0, M,0,*7D,35.9,14.5,35.9000126502,14.4999961883,2,0.00,,3/13/2013 12:38:54 PM
$GPGGA,113855.209,3554.0000,N,01430.0000,E,1,5,1,0, M,0, M,0,*77,$GPGGA,113855.209,3554.0007,N,01429.9996,E,1,5,1,0, M,0, M,0,*77,35.9,14.5,35.9000115306,14.4999929816,2,0.00,,3/13/2013 12:38:55 PM
$GPGGA,113856.219,3554.0000,N,01430.0000,E,1,5,1,0, M,0, M,0,*75,$GPGGA,113856.219,3554.0007,N,01429.9996,E,1,5,1,0, M,0, M,0,*75,35.9,14.5,35.9000108704,14.499993448,2,0.00,,3/13/2013 12:38:56 PM
$GPGGA,113857.239,3554.0000,N,01430.0000,E,1,5,1,0, M,0, M,0,*76,$GPGGA,113857.239,3554.0004,N,01429.9997,E,1,5,1,0, M,0, M,0,*74,35.9,14.5,35.9000064056,14.4999944654,2,0.00,,3/13/2013 12:38:57 PM
$GPGGA,113858.249,3554.0000,N,01430.0000,E,1,5,1,0, M,0, M,0,*7E,$GPGGA,113858.249,3554.0003,N,01429.9998,E,1,5,1,0, M,0, M,0,*74,35.9,14.5,35.9000047603,14.4999960656,2,0.00,,3/13/2013 12:38:58 PM
$GPGGA,113859.269,3554.0000,N,01430.0000,E,1,5,1,0, M,0, M,0,*7D,$GPGGA,113859.269,3554.0002,N,01429.9999,E,1,5,1,0, M,0, M,0,*77,35.9,14.5,35.9000034107,14.4999975097,2,0.00,,3/13/2013 12:38:59 PM
$GPGGA,113900.279,3554.0000,N,01430.0000,E,1,5,1,0, M,0, M,0,*71,$GPGGA,113900.279,3554.0003,N,01430.0000,E,1,5,1,0, M,0, M,0,*72,35.9,14.5,35.9000051344,14.5000002963,2,0.00,,3/13/2013 12:39:00 PM
$GPGGA,113901.289,3554.0000,N,01430.0000,E,1,5,1,0, M,0, M,0,*7F,$GPGGA,113901.289,3554.0004,N,01429.9998,E,1,5,1,0, M,0, M,0,*72,35.9,14.5,35.9000064845,14.4999969533,2,0.00,,3/13/2013 12:39:01 PM
$GPGGA,113902.309,3554.0000,N,01430.0000,E,1,5,1,0, M,0, M,0,*75,$GPGGA,113902.309,3554.0006,N,01429.9998,E,1,5,1,0, M,0, M,0,*7A,35.9,14.5,35.900009937,14.499996581,2,0.00,,3/13/2013 12:39:02 PM
$GPGGA,113903.319,3554.0000,N,01430.0000,E,1,5,1,0, M,0, M,0,*75,$GPGGA,113903.319,3554.0006,N,01430.0000,E,1,5,1,0, M,0, M,0,*73,35.9,14.5,35.9000092894,14.5000001978,2,0.00,,3/13/2013 12:39:03 PM
$GPGGA,113904.339,3554.0000,N,01430.0000,E,1,5,1,0, M,0, M,0,*70,$GPGGA,113904.339,3554.0007,N,01430.0000,E,1,5,1,0, M,0, M,0,*77,35.9,14.5,35.9000112282,14.499999303,2,0.00,,3/13/2013 12:39:04 PM
$GPGGA,113905.349,3554.0000,N,01430.0000,E,1,5,1,0, M,0, M,0,*76,$GPGGA,113905.349,3554.0004,N,01429.9998,E,1,5,1,0, M,0, M,0,*7B,35.9,14.5,35.9000073505,14.499995962,2,0.00,,3/13/2013 12:39:05 PM
$GPGGA,113906.359,3554.0000,N,01430.0000,E,1,5,1,0, M,0, M,0,*74,$GPGGA,113906.359,3554.0002,N,01429.9997,E,1,5,1,0, M,0, M,0,*70,35.9,14.5,35.9000040341,14.4999953979,2,0.00,,3/13/2013 12:39:06 PM
$GPGGA,113907.379,3554.0000,N,01430.0000,E,1,5,1,0, M,0, M,0,*77,$GPGGA,113907.379,3554.0001,N,01429.9998,E,1,5,1,0, M,0, M,0,*7F,35.9,14.5,35.9000017357,14.4999966236,2,0.00,,3/13/2013 12:39:07 PM
$GPGGA,113908.389,3554.0000,N,01430.0000,E,1,5,1,0, M,0, M,0,*77,$GPGGA,113908.389,3553.9993,N,01430.0002,E,1,5,1,0, M,0, M,0,*78,35.9,14.5,35.8999891259,14.5000030413,2,0.00,,3/13/2013 12:39:08 PM
$GPGGA,113909.409,3554.0000,N,01430.0000,E,1,5,1,0, M,0, M,0,*79,$GPGGA,113909.409,3553.9994,N,01429.9999,E,1,5,1,0, M,0, M,0,*7B,35.9,14.5,35.8999899623,14.4999979574,2,0.00,,3/13/2013 12:39:09 PM
$GPGGA,113910.419,3554.0000,N,01430.0000,E,1,5,1,0, M,0, M,0,*70,$GPGGA,113910.419,3553.9998,N,01429.9995,E,1,5,1,0, M,0, M,0,*72,35.9,14.5,35.8999967846,14.4999915136,2,0.00,,3/13/2013 12:39:10 PM
$GPGGA,113911.429,3554.0000,N,01430.0000,E,1,5,1,0, M,0, M,0,*72,$GPGGA,113911.429,3554.0002,N,01429.9995,E,1,5,1,0, M,0, M,0,*74,35.9,14.5,35.900003339,14.4999911702,2,0.00,,3/13/2013 12:39:11 PM
$GPGGA,113912.449,3554.0000,N,01430.0000,E,1,5,1,0, M,0, M,0,*77,$GPGGA,113912.449,3554.0004,N,01429.9997,E,1,5,1,0, M,0, M,0,*75,35.9,14.5,35.9000062085,14.4999955465,2,0.00,,3/13/2013 12:39:12 PM
$GPGGA,113913.459,3554.0000,N,01430.0000,E,1,5,1,0, M,0, M,0,*77,$GPGGA,113913.459,3554.0003,N,01429.9998,E,1,5,1,0, M,0, M,0,*7D,35.9,14.5,35.9000053215,14.4999959027,2,0.00,,3/13/2013 12:39:13 PM
$GPGGA,113914.479,3554.0000,N,01430.0000,E,1,5,1,0, M,0, M,0,*72,$GPGGA,113914.479,3554.0005,N,01430.0000,E,1,5,1,0, M,0, M,0,*77,35.9,14.5,35.9000078825,14.5000004499,2,0.00,,3/13/2013 12:39:14 PM
$GPGGA,113915.489,3554.0000,N,01430.0000,E,1,5,1,0, M,0, M,0,*7C,$GPGGA,113915.489,3554.0006,N,01430.0000,E,1,5,1,0, M,0, M,0,*7A,35.9,14.5,35.9000095352,14.5000006475,2,0.00,,3/13/2013 12:39:15 PM
$GPGGA,113916.499,3554.0000,N,01430.0000,E,1,5,1,0, M,0, M,0,*7E,$GPGGA,113916.499,3554.0007,N,01429.9999,E,1,5,1,0, M,0, M,0,*71,35.9,14.5,35.9000112164,14.4999986588,2,0.00,,3/13/2013 12:39:16 PM
$GPGGA,113917.519,3554.0000,N,01430.0000,E,1,5,1,0, M,0, M,0,*76,$GPGGA,113917.519,3554.0005,N,01429.9997,E,1,5,1,0, M,0, M,0,*75,35.9,14.5,35.9000075373,14.4999952782,2,0.00,,3/13/2013 12:39:17 PM
$GPGGA,113918.529,3554.0000,N,01430.0000,E,1,5,1,0, M,0, M,0,*7A,$GPGGA,113918.529,3554.0004,N,01429.9997,E,1,5,1,0, M,0, M,0,*78,35.9,14.5,35.9000058879,14.4999954988,2,0.00,,3/13/2013 12:39:18 PM
$GPGGA,113919.549,3554.0000,N,01430.0000,E,1,5,1,0, M,0, M,0,*7D,$GPGGA,113919.549,3554.0000,N,01429.9997,E,1,5,1,0, M,0, M,0,*7B,35.9,14.5,35.8999996132,14.4999947876,2,0.00,,3/13/2013 12:39:19 PM
$GPGGA,113920.559,3554.0000,N,01430.0000,E,1,5,1,0, M,0, M,0,*76,$GPGGA,113920.559,3553.9997,N,01429.9998,E,1,5,1,0, M,0, M,0,*76,35.9,14.5,35.8999958007,14.4999958931,2,0.00,,3/13/2013 12:39:20 PM
$GPGGA,113921.569,3554.0000,N,01430.0000,E,1,5,1,0, M,0, M,0,*74,$GPGGA,113921.569,3553.9997,N,01429.9998,E,1,5,1,0, M,0, M,0,*74,35.9,14.5,35.8999951166,14.4999960671,2,0.00,,3/13/2013 12:39:21 PM
$GPGGA,113922.589,3554.0000,N,01430.0000,E,1,5,1,0, M,0, M,0,*79,$GPGGA,113922.589,3553.9999,N,01429.9997,E,1,5,1,0, M,0, M,0,*78,35.9,14.5,35.8999985113,14.4999946517,2,0.00,,3/13/2013 12:39:22 PM
$GPGGA,113923.599,3554.0000,N,01430.0000,E,1,5,1,0, M,0, M,0,*79,$GPGGA,113923.599,3554.0001,N,01429.9998,E,1,5,1,0, M,0, M,0,*71,35.9,14.5,35.9000015214,14.4999963546,2,0.00,,3/13/2013 12:39:23 PM
$GPGGA,113924.619,3554.0000,N,01430.0000,E,1,5,1,0, M,0, M,0,*75,$GPGGA,113924.619,3554.0002,N,01429.9998,E,1,5,1,0, M,0, M,0,*7E,35.9,14.5,35.9000027954,14.4999970374,2,0.00,,3/13/2013 12:39:24 PM
$GPGGA,113925.629,3554.0000,N,01430.0000,E,1,5,1,0, M,0, M,0,*77,$GPGGA,113925.629,3554.0001,N,01430.0000,E,1,5,1,0, M,0, M,0,*76,35.9,14.5,35.9000022051,14.4999999246,2,0.00,,3/13/2013 12:39:25 PM
$GPGGA,113926.639,3554.0000,N,01430.0000,E,1,5,1,0, M,0, M,0,*75,$GPGGA,113926.639,3554.0001,N,01429.9999,E,1,5,1,0, M,0, M,0,*7C,35.9,14.5,35.9000024355,14.4999988793,2,0.00,,3/13/2013 12:39:26 PM
$GPGGA,113927.659,3554.0000,N,01430.0000,E,1,5,1,0, M,0, M,0,*72,$GPGGA,113927.659,3554.0003,N,01429.9997,E,1,5,1,0, M,0, M,0,*77,35.9,14.5,35.9000046929,14.4999942784,2,0.00,,3/13/2013 12:39:27 PM
$GPGGA,113928.669,3554.0000,N,01430.0000,E,1,5,1,0, M,0, M,0,*7E,$GPGGA,113928.669,3554.0003,N,01429.9998,E,1,5,1,0, M,0, M,0,*74,35.9,14.5,35.9000045339,14.4999964739,2,0.00,,3/13/2013 12:39:28 PM
$GPGGA,113929.689,3554.0000,N,01430.0000,E,1,5,1,0, M,0, M,0,*71,$GPGGA,113929.689,3554.0007,N,01429.9998,E,1,5,1,0, M,0, M,0,*7F,35.9,14.5,35.9000115233,14.4999968568,2,0.00,,3/13/2013 12:39:29 PM
$GPGGA,113930.699,3554.0000,N,01430.0000,E,1,5,1,0, M,0, M,0,*78,$GPGGA,113930.699,3554.0006,N,01429.9999,E,1,5,1,0, M,0, M,0,*76,35.9,14.5,35.9000107629,14.4999985263,2,0.00,,3/13/2013 12:39:30 PM
$GPGGA,113931.709,3554.0000,N,01430.0000,E,1,5,1,0, M,0, M,0,*71,$GPGGA,113931.709,3554.0006,N,01430.0000,E,1,5,1,0, M,0, M,0,*77,35.9,14.5,35.9000098783,14.4999997428,2,0.00,,3/13/2013 12:39:31 PM
$GPGGA,113932.729,3554.0000,N,01430.0000,E,1,5,1,0, M,0, M,0,*70,$GPGGA,113932.729,3554.0005,N,01429.9997,E,1,5,1,0, M,0, M,0,*73,35.9,14.5,35.9000083259,14.4999943285,2,0.00,,3/13/2013 12:39:32 PM
$GPGGA,113933.739,3554.0000,N,01430.0000,E,1,5,1,0, M,0, M,0,*70,$GPGGA,113933.739,3554.0002,N,01429.9996,E,1,5,1,0, M,0, M,0,*75,35.9,14.5,35.9000037638,14.4999940374,2,0.00,,3/13/2013 12:39:33 PM
$GPGGA,113934.759,3554.0000,N,01430.0000,E,1,5,1,0, M,0, M,0,*71,$GPGGA,113934.759,3554.0000,N,01429.9997,E,1,5,1,0, M,0, M,0,*77,35.9,14.5,35.9000004764,14.499994727,2,0.00,,3/13/2013 12:39:34 PM
$GPGGA,113935.769,3554.0000,N,01430.0000,E,1,5,1,0, M,0, M,0,*73,$GPGGA,113935.769,3553.9999,N,01429.9997,E,1,5,1,0, M,0, M,0,*72,35.9,14.5,35.8999977507,14.4999958247,2,0.00,,3/13/2013 12:39:35 PM
$GPGGA,113936.779,3554.0000,N,01430.0000,E,1,5,1,0, M,0, M,0,*71,$GPGGA,113936.779,3553.9998,N,01429.9998,E,1,5,1,0, M,0, M,0,*7E,35.9,14.5,35.8999971036,14.4999958757,2,0.00,,3/13/2013 12:39:36 PM
$GPGGA,113937.799,3554.0000,N,01430.0000,E,1,5,1,0, M,0, M,0,*7E,$GPGGA,113937.799,3553.9998,N,01429.9998,E,1,5,1,0, M,0, M,0,*71,35.9,14.5,35.8999969487,14.4999959714,2,0.00,,3/13/2013 12:39:37 PM
$GPGGA,113938.809,3554.0000,N,01430.0000,E,1,5,1,0, M,0, M,0,*77,$GPGGA,113938.809,3554.0000,N,01429.9997,E,1,5,1,0, M,0, M,0,*71,35.9,14.5,35.8999992819,14.4999954837,2,0.00,,3/13/2013 12:39:38 PM
$GPGGA,113939.829,3554.0000,N,01430.0000,E,1,5,1,0, M,0, M,0,*74,$GPGGA,113939.829,3553.9996,N,01430.0005,E,1,5,1,0, M,0, M,0,*79,35.9,14.5,35.8999936263,14.500008119,2,0.00,,3/13/2013 12:39:39 PM
$GPGGA,113940.839,3554.0000,N,01430.0000,E,1,5,1,0, M,0, M,0,*7B,$GPGGA,113940.839,3554.0002,N,01430.0004,E,1,5,1,0, M,0, M,0,*7D,35.9,14.5,35.9000033671,14.5000068215,2,0.00,,3/13/2013 12:39:40 PM
$GPGGA,113941.849,3554.0000,N,01430.0000,E,1,5,1,0, M,0, M,0,*7D,$GPGGA,113941.849,3554.0001,N,01430.0006,E,1,5,1,0, M,0, M,0,*7A,35.9,14.5,35.9000017471,14.500010074,2,0.00,,3/13/2013 12:39:41 PM
$GPGGA,113942.869,3554.0000,N,01430.0000,E,1,5,1,0, M,0, M,0,*7C,$GPGGA,113942.869,3554.0001,N,01430.0006,E,1,5,1,0, M,0, M,0,*7B,35.9,14.5,35.9000014248,14.5000102041,2,0.00,,3/13/2013 12:39:42 PM
$GPGGA,113943.879,3554.0000,N,01430.0000,E,1,5,1,0, M,0, M,0,*7C,$GPGGA,113943.879,3554.0002,N,01429.9998,E,1,5,1,0, M,0, M,0,*77,35.9,14.5,35.9000035311,14.4999971783,2,0.00,,3/13/2013 12:39:43 PM
$GPGGA,113944.899,3554.0000,N,01430.0000,E,1,5,1,0, M,0, M,0,*75,$GPGGA,113944.899,3554.0000,N,01429.9995,E,1,5,1,0, M,0, M,0,*71,35.9,14.5,35.900000237,14.4999914979,2,0.00,,3/13/2013 12:39:44 PM
$GPGGA,113945.909,3554.0000,N,01430.0000,E,1,5,1,0, M,0, M,0,*7C,$GPGGA,113945.909,3554.0001,N,01429.9996,E,1,5,1,0, M,0, M,0,*7A,35.9,14.5,35.9000013022,14.4999934072,2,0.00,,3/13/2013 12:39:45 PM
$GPGGA,113946.919,3554.0000,N,01430.0000,E,1,5,1,0, M,0, M,0,*7E,$GPGGA,113946.919,3554.0003,N,01429.9998,E,1,5,1,0, M,0, M,0,*74,35.9,14.5,35.9000049166,14.4999964592,2,0.00,,3/13/2013 12:39:46 PM
$GPGGA,113947.939,3554.0000,N,01430.0000,E,1,5,1,0, M,0, M,0,*7D,$GPGGA,113947.939,3554.0004,N,01429.9998,E,1,5,1,0, M,0, M,0,*70,35.9,14.5,35.9000062603,14.4999967355,2,0.00,,3/13/2013 12:39:47 PM
$GPGGA,113948.949,3554.0000,N,01430.0000,E,1,5,1,0, M,0, M,0,*75,$GPGGA,113948.949,3554.0005,N,01429.9997,E,1,5,1,0, M,0, M,0,*76,35.9,14.5,35.9000088832,14.4999955689,2,0.00,,3/13/2013 12:39:48 PM
$GPGGA,113949.969,3554.0000,N,01430.0000,E,1,5,1,0, M,0, M,0,*76,$GPGGA,113949.969,3554.0005,N,01429.9998,E,1,5,1,0, M,0, M,0,*7A,35.9,14.5,35.9000081465,14.4999972461,2,0.00,,3/13/2013 12:39:49 PM
$GPGGA,113950.979,3554.0000,N,01430.0000,E,1,5,1,0, M,0, M,0,*7F,$GPGGA,113950.979,3554.0006,N,01429.9998,E,1,5,1,0, M,0, M,0,*70,35.9,14.5,35.9000103816,14.4999964342,2,0.00,,3/13/2013 12:39:50 PM
$GPGGA,113951.989,3554.0000,N,01430.0000,E,1,5,1,0, M,0, M,0,*71,$GPGGA,113951.989,3554.0006,N,01429.9998,E,1,5,1,0, M,0, M,0,*7E,35.9,14.5,35.9000105901,14.4999961882,2,0.00,,3/13/2013 12:39:51 PM
$GPGGA,113953.009,3554.0000,N,01430.0000,E,1,5,1,0, M,0, M,0,*72,$GPGGA,113953.009,3554.0007,N,01429.9998,E,1,5,1,0, M,0, M,0,*7C,35.9,14.5,35.9000119595,14.4999969684,2,0.00,,3/13/2013 12:39:53 PM
$GPGGA,113954.019,3554.0000,N,01430.0000,E,1,5,1,0, M,0, M,0,*74,$GPGGA,113954.019,3554.0008,N,01429.9999,E,1,5,1,0, M,0, M,0,*74,35.9,14.5,35.9000125214,14.4999983285,2,0.00,,3/13/2013 12:39:54 PM
$GPGGA,113955.039,3554.0000,N,01430.0000,E,1,5,1,0, M,0, M,0,*77,$GPGGA,113955.039,3554.0007,N,01430.0000,E,1,5,1,0, M,0, M,0,*70,35.9,14.5,35.9000123484,14.4999992147,2,0.00,,3/13/2013 12:39:55 PM
$GPGGA,113956.049,3554.0000,N,01430.0000,E,1,5,1,0, M,0, M,0,*73,$GPGGA,113956.049,3554.0006,N,01429.9998,E,1,5,1,0, M,0, M,0,*7C,35.9,14.5,35.9000105605,14.4999962293,2,0.00,,3/13/2013 12:39:56 PM
$GPGGA,113957.059,3554.0000,N,01430.0000,E,1,5,1,0, M,0, M,0,*73,$GPGGA,113957.059,3554.0003,N,01429.9997,E,1,5,1,0, M,0, M,0,*76,35.9,14.5,35.9000056398,14.4999945257,2,0.00,,3/13/2013 12:39:57 PM
$GPGGA,113958.079,3554.0000,N,01430.0000,E,1,5,1,0, M,0, M,0,*7E,$GPGGA,113958.079,3554.0001,N,01429.9997,E,1,5,1,0, M,0, M,0,*79,35.9,14.5,35.9000024751,14.4999956156,2,0.00,,3/13/2013 12:39:58 PM
$GPGGA,113959.089,3554.0000,N,01430.0000,E,1,5,1,0, M,0, M,0,*70,$GPGGA,113959.089,3554.0001,N,01429.9998,E,1,5,1,0, M,0, M,0,*78,35.9,14.5,35.9000018045,14.4999960439,2,0.00,,3/13/2013 12:39:59 PM
$GPGGA,114000.109,3554.0000,N,01430.0000,E,1,5,1,0, M,0, M,0,*7B,$GPGGA,114000.109,3554.0001,N,01429.9998,E,1,5,1,0, M,0, M,0,*73,35.9,14.5,35.9000017037,14.4999958703,2,0.00,,3/13/2013 12:40:00 PM
$GPGGA,114001.119,3554.0000,N,01430.0000,E,1,5,1,0, M,0, M,0,*7B,$GPGGA,114001.119,3554.0001,N,01429.9997,E,1,5,1,0, M,0, M,0,*7C,35.9,14.5,35.9000019712,14.4999956791,2,0.00,,3/13/2013 12:40:01 PM
$GPGGA,114002.129,3554.0000,N,01430.0000,E,1,5,1,0, M,0, M,0,*7B,$GPGGA,114002.129,3554.0001,N,01429.9997,E,1,5,1,0, M,0, M,0,*7C,35.9,14.5,35.9000024085,14.4999958245,2,0.00,,3/13/2013 12:40:02 PM
$GPGGA,114003.149,3554.0000,N,01430.0000,E,1,5,1,0, M,0, M,0,*7C,$GPGGA,114003.149,3554.0002,N,01429.9998,E,1,5,1,0, M,0, M,0,*77,35.9,14.5,35.9000029741,14.4999960547,2,0.00,,3/13/2013 12:40:03 PM
$GPGGA,114004.159,3554.0000,N,01430.0000,E,1,5,1,0, M,0, M,0,*7A,$GPGGA,114004.159,3554.0002,N,01429.9998,E,1,5,1,0, M,0, M,0,*71,35.9,14.5,35.9000030771,14.4999967398,2,0.00,,3/13/2013 12:40:04 PM
$GPGGA,114005.179,3554.0000,N,01430.0000,E,1,5,1,0, M,0, M,0,*79,$GPGGA,114005.179,3554.0003,N,01429.9999,E,1,5,1,0, M,0, M,0,*72,35.9,14.5,35.9000046085,14.4999975456,2,0.00,,3/13/2013 12:40:05 PM
$GPGGA,114006.189,3554.0000,N,01430.0000,E,1,5,1,0, M,0, M,0,*75,$GPGGA,114006.189,3554.0004,N,01429.9999,E,1,5,1,0, M,0, M,0,*79,35.9,14.5,35.9000066457,14.4999979857,2,0.00,,3/13/2013 12:40:06 PM
$GPGGA,114007.199,3554.0000,N,01430.0000,E,1,5,1,0, M,0, M,0,*75,$GPGGA,114007.199,3554.0004,N,01429.9999,E,1,5,1,0, M,0, M,0,*79,35.9,14.5,35.9000074491,14.4999983759,2,0.00,,3/13/2013 12:40:07 PM
$GPGGA,114008.219,3554.0000,N,01430.0000,E,1,5,1,0, M,0, M,0,*71,$GPGGA,114008.219,3554.0005,N,01429.9999,E,1,5,1,0, M,0, M,0,*7C,35.9,14.5,35.900007632,14.4999985265,2,0.00,,3/13/2013 12:40:08 PM
$GPGGA,114009.229,3554.0000,N,01430.0000,E,1,5,1,0, M,0, M,0,*73,$GPGGA,114009.229,3554.0005,N,01429.9999,E,1,5,1,0, M,0, M,0,*7E,35.9,14.5,35.9000076519,14.4999985611,2,0.00,,3/13/2013 12:40:09 PM
$GPGGA,114010.249,3554.0000,N,01430.0000,E,1,5,1,0, M,0, M,0,*7D,$GPGGA,114010.249,3554.0005,N,01429.9999,E,1,5,1,0, M,0, M,0,*70,35.9,14.5,35.9000079316,14.4999975845,2,0.00,,3/13/2013 12:40:10 PM
$GPGGA,114011.259,3554.0000,N,01430.0000,E,1,5,1,0, M,0, M,0,*7D,$GPGGA,114011.259,3554.0005,N,01429.9998,E,1,5,1,0, M,0, M,0,*71,35.9,14.5,35.9000079929,14.4999972611,2,0.00,,3/13/2013 12:40:11 PM
$GPGGA,114012.269,3554.0000,N,01430.0000,E,1,5,1,0, M,0, M,0,*7D,$GPGGA,114012.269,3554.0005,N,01429.9998,E,1,5,1,0, M,0, M,0,*71,35.9,14.5,35.9000078952,14.4999970682,2,0.00,,3/13/2013 12:40:12 PM
$GPGGA,114013.289,3554.0000,N,01430.0000,E,1,5,1,0, M,0, M,0,*72,$GPGGA,114013.289,3554.0005,N,01429.9998,E,1,5,1,0, M,0, M,0,*7E,35.9,14.5,35.9000076193,14.4999969239,2,0.00,,3/13/2013 12:40:13 PM
$GPGGA,114014.299,3554.0000,N,01430.0000,E,1,5,1,0, M,0, M,0,*74,$GPGGA,114014.299,3554.0004,N,01429.9997,E,1,5,1,0, M,0, M,0,*76,35.9,14.5,35.9000074087,14.4999958278,2,0.00,,3/13/2013 12:40:14 PM
$GPGGA,114015.319,3554.0000,N,01430.0000,E,1,5,1,0, M,0, M,0,*7C,$GPGGA,114015.319,3554.0004,N,01429.9997,E,1,5,1,0, M,0, M,0,*7E,35.9,14.5,35.9000074555,14.499994446,2,0.00,,3/13/2013 12:40:15 PM
$GPGGA,114016.329,3554.0000,N,01430.0000,E,1,5,1,0, M,0, M,0,*7C,$GPGGA,114016.329,3554.0005,N,01429.9996,E,1,5,1,0, M,0, M,0,*7E,35.9,14.5,35.9000089727,14.4999932234,2,0.00,,3/13/2013 12:40:16 PM
$GPGGA,114017.339,3554.0000,N,01430.0000,E,1,5,1,0, M,0, M,0,*7C,$GPGGA,114017.339,3554.0006,N,01429.9996,E,1,5,1,0, M,0, M,0,*7D,35.9,14.5,35.900010672,14.4999932476,2,0.00,,3/13/2013 12:40:17 PM
$GPGGA,114018.359,3554.0000,N,01430.0000,E,1,5,1,0, M,0, M,0,*75,$GPGGA,114018.359,3554.0007,N,01429.9996,E,1,5,1,0, M,0, M,0,*75,35.9,14.5,35.9000110493,14.4999931485,2,0.00,,3/13/2013 12:40:18 PM
$GPGGA,114019.369,3554.0000,N,01430.0000,E,1,5,1,0, M,0, M,0,*77,$GPGGA,114019.369,3554.0006,N,01429.9996,E,1,5,1,0, M,0, M,0,*76,35.9,14.5,35.9000103343,14.4999936926,2,0.00,,3/13/2013 12:40:19 PM
$GPGGA,114020.389,3554.0000,N,01430.0000,E,1,5,1,0, M,0, M,0,*73,$GPGGA,114020.389,3554.0005,N,01429.9997,E,1,5,1,0, M,0, M,0,*70,35.9,14.5,35.9000082549,14.4999943428,2,0.00,,3/13/2013 12:40:20 PM
$GPGGA,114021.399,3554.0000,N,01430.0000,E,1,5,1,0, M,0, M,0,*73,$GPGGA,114021.399,3554.0004,N,01429.9997,E,1,5,1,0, M,0, M,0,*71,35.9,14.5,35.9000060176,14.4999946698,2,0.00,,3/13/2013 12:40:21 PM
$GPGGA,114022.409,3554.0000,N,01430.0000,E,1,5,1,0, M,0, M,0,*7E,$GPGGA,114022.409,3554.0003,N,01429.9997,E,1,5,1,0, M,0, M,0,*7B,35.9,14.5,35.9000050501,14.4999946781,2,0.00,,3/13/2013 12:40:22 PM
$GPGGA,114023.429,3554.0000,N,01430.0000,E,1,5,1,0, M,0, M,0,*7D,$GPGGA,114023.429,3554.0001,N,01429.9995,E,1,5,1,0, M,0, M,0,*78,35.9,14.5,35.9000015281,14.4999924329,2,0.00,,3/13/2013 12:40:23 PM
$GPGGA,114024.439,3554.0000,N,01430.0000,E,1,5,1,0, M,0, M,0,*7B,$GPGGA,114024.439,3554.0001,N,01429.9996,E,1,5,1,0, M,0, M,0,*7D,35.9,14.5,35.9000018777,14.4999927776,2,0.00,,3/13/2013 12:40:24 PM
$GPGGA,114025.459,3554.0000,N,01430.0000,E,1,5,1,0, M,0, M,0,*7C,$GPGGA,114025.459,3554.0001,N,01429.9996,E,1,5,1,0, M,0, M,0,*7A,35.9,14.5,35.9000021527,14.4999927588,2,0.00,,3/13/2013 12:40:25 PM
$GPGGA,114026.469,3554.0000,N,01430.0000,E,1,5,1,0, M,0, M,0,*7C,$GPGGA,114026.469,3554.0004,N,01429.9996,E,1,5,1,0, M,0, M,0,*7F,35.9,14.5,35.9000059008,14.4999932939,2,0.00,,3/13/2013 12:40:26 PM
$GPGGA,114027.479,3554.0000,N,01430.0000,E,1,5,1,0, M,0, M,0,*7C,$GPGGA,114027.479,3554.0007,N,01429.9998,E,1,5,1,0, M,0, M,0,*72,35.9,14.5,35.9000118367,14.4999959197,2,0.00,,3/13/2013 12:40:27 PM
$GPGGA,114028.499,3554.0000,N,01430.0000,E,1,5,1,0, M,0, M,0,*7D,$GPGGA,114028.499,3554.0007,N,01429.9999,E,1,5,1,0, M,0, M,0,*72,35.9,14.5,35.9000114573,14.4999978753,2,0.00,,3/13/2013 12:40:28 PM
$GPGGA,114029.509,3554.0000,N,01430.0000,E,1,5,1,0, M,0, M,0,*74,$GPGGA,114029.509,3554.0007,N,01429.9999,E,1,5,1,0, M,0, M,0,*7B,35.9,14.5,35.900011909,14.4999981819,2,0.00,,3/13/2013 12:40:29 PM
$GPGGA,114030.529,3554.0000,N,01430.0000,E,1,5,1,0, M,0, M,0,*7E,$GPGGA,114030.529,3554.0006,N,01429.9997,E,1,5,1,0, M,0, M,0,*7E,35.9,14.5,35.9000106621,14.4999943852,2,0.00,,3/13/2013 12:40:30 PM
$GPGGA,114031.539,3554.0000,N,01430.0000,E,1,5,1,0, M,0, M,0,*7E,$GPGGA,114031.539,3554.0003,N,01429.9995,E,1,5,1,0, M,0, M,0,*79,35.9,14.5,35.9000053394,14.4999921163,2,0.00,,3/13/2013 12:40:31 PM
$GPGGA,114032.549,3554.0000,N,01430.0000,E,1,5,1,0, M,0, M,0,*7A,$GPGGA,114032.549,3554.0001,N,01429.9996,E,1,5,1,0, M,0, M,0,*7C,35.9,14.5,35.9000015155,14.4999927962,2,0.00,,3/13/2013 12:40:32 PM
$GPGGA,114033.569,3554.0000,N,01430.0000,E,1,5,1,0, M,0, M,0,*79,$GPGGA,114033.569,3554.0000,N,01429.9996,E,1,5,1,0, M,0, M,0,*7E,35.9,14.5,35.8999999805,14.4999927241,2,0.00,,3/13/2013 12:40:33 PM
$GPGGA,114034.579,3554.0000,N,01430.0000,E,1,5,1,0, M,0, M,0,*7F,$GPGGA,114034.579,3554.0000,N,01429.9996,E,1,5,1,0, M,0, M,0,*78,35.9,14.5,35.9000001785,14.4999925467,2,0.00,,3/13/2013 12:40:34 PM
$GPGGA,114035.599,3554.0000,N,01430.0000,E,1,5,1,0, M,0, M,0,*70,$GPGGA,114035.599,3554.0000,N,01429.9996,E,1,5,1,0, M,0, M,0,*77,35.9,14.5,35.9000006164,14.4999925183,2,0.00,,3/13/2013 12:40:35 PM
$GPGGA,114036.609,3554.0000,N,01430.0000,E,1,5,1,0, M,0, M,0,*79,$GPGGA,114036.609,3554.0000,N,01429.9995,E,1,5,1,0, M,0, M,0,*7D,35.9,14.5,35.9000007276,14.4999923881,2,0.00,,3/13/2013 12:40:36 PM
$GPGGA,114037.619,3554.0000,N,01430.0000,E,1,5,1,0, M,0, M,0,*79,$GPGGA,114037.619,3554.0001,N,01429.9995,E,1,5,1,0, M,0, M,0,*7C,35.9,14.5,35.900000858,14.499992033,2,0.00,,3/13/2013 12:40:37 PM
$GPGGA,114038.639,3554.0000,N,01430.0000,E,1,5,1,0, M,0, M,0,*74,$GPGGA,114038.639,3554.0001,N,01429.9995,E,1,5,1,0, M,0, M,0,*71,35.9,14.5,35.9000008836,14.4999918488,2,0.00,,3/13/2013 12:40:38 PM
$GPGGA,114039.649,3554.0000,N,01430.0000,E,1,5,1,0, M,0, M,0,*72,$GPGGA,114039.649,3554.0001,N,01429.9995,E,1,5,1,0, M,0, M,0,*77,35.9,14.5,35.9000008838,14.4999918491,2,0.00,,3/13/2013 12:40:39 PM
$GPGGA,114040.669,3554.0000,N,01430.0000,E,1,5,1,0, M,0, M,0,*7E,$GPGGA,114040.669,3554.0000,N,01429.9995,E,1,5,1,0, M,0, M,0,*7A,35.9,14.5,35.9000005898,14.4999917356,2,0.00,,3/13/2013 12:40:40 PM
$GPGGA,114041.679,3554.0000,N,01430.0000,E,1,5,1,0, M,0, M,0,*7E,$GPGGA,114041.679,3554.0000,N,01429.9995,E,1,5,1,0, M,0, M,0,*7A,35.9,14.5,35.9000000922,14.4999917465,2,0.00,,3/13/2013 12:40:41 PM
$GPGGA,114042.689,3554.0000,N,01430.0000,E,1,5,1,0, M,0, M,0,*72,$GPGGA,114042.689,3554.0001,N,01429.9995,E,1,5,1,0, M,0, M,0,*77,35.9,14.5,35.9000012439,14.4999917967,2,0.00,,3/13/2013 12:40:42 PM
$GPGGA,114043.709,3554.0000,N,01430.0000,E,1,5,1,0, M,0, M,0,*7A,$GPGGA,114043.709,3554.0006,N,01429.9996,E,1,5,1,0, M,0, M,0,*7B,35.9,14.5,35.9000091864,14.4999931658,2,0.00,,3/13/2013 12:40:43 PM
$GPGGA,114044.719,3554.0000,N,01430.0000,E,1,5,1,0, M,0, M,0,*7C,$GPGGA,114044.719,3554.0008,N,01429.9999,E,1,5,1,0, M,0, M,0,*7C,35.9,14.5,35.9000127801,14.4999976225,2,0.00,,3/13/2013 12:40:44 PM
$GPGGA,114045.739,3554.0000,N,01430.0000,E,1,5,1,0, M,0, M,0,*7F,$GPGGA,114045.739,3554.0008,N,01429.9999,E,1,5,1,0, M,0, M,0,*7F,35.9,14.5,35.9000126834,14.4999975422,2,0.00,,3/13/2013 12:40:45 PM
$GPGGA,114046.749,3554.0000,N,01430.0000,E,1,5,1,0, M,0, M,0,*7B,$GPGGA,114046.749,3554.0006,N,01429.9998,E,1,5,1,0, M,0, M,0,*74,35.9,14.5,35.900010539,14.4999972138,2,0.00,,3/13/2013 12:40:46 PM
$GPGGA,114047.759,3554.0000,N,01430.0000,E,1,5,1,0, M,0, M,0,*7B,$GPGGA,114047.759,3554.0007,N,01429.9998,E,1,5,1,0, M,0, M,0,*75,35.9,14.5,35.900011141,14.499997288,2,0.00,,3/13/2013 12:40:47 PM
$GPGGA,114048.779,3554.0000,N,01430.0000,E,1,5,1,0, M,0, M,0,*76,$GPGGA,114048.779,3554.0007,N,01430.0000,E,1,5,1,0, M,0, M,0,*71,35.9,14.5,35.9000124782,14.4999992782,2,0.00,,3/13/2013 12:40:48 PM
$GPGGA,114049.789,3554.0000,N,01430.0000,E,1,5,1,0, M,0, M,0,*78,$GPGGA,114049.789,3554.0008,N,01429.9998,E,1,5,1,0, M,0, M,0,*79,35.9,14.5,35.9000127715,14.4999974596,2,0.00,,3/13/2013 12:40:49 PM
$GPGGA,114050.809,3554.0000,N,01430.0000,E,1,5,1,0, M,0, M,0,*77,$GPGGA,114050.809,3554.0005,N,01429.9996,E,1,5,1,0, M,0, M,0,*75,35.9,14.5,35.9000084781,14.499992686,2,0.00,,3/13/2013 12:40:50 PM
$GPGGA,114051.819,3554.0000,N,01430.0000,E,1,5,1,0, M,0, M,0,*77,$GPGGA,114051.819,3554.0001,N,01429.9995,E,1,5,1,0, M,0, M,0,*72,35.9,14.5,35.9000022776,14.4999918516,2,0.00,,3/13/2013 12:40:51 PM
$GPGGA,114052.829,3554.0000,N,01430.0000,E,1,5,1,0, M,0, M,0,*77,$GPGGA,114052.829,3554.0000,N,01429.9995,E,1,5,1,0, M,0, M,0,*73,35.9,14.5,35.9000001125,14.4999923145,2,0.00,,3/13/2013 12:40:52 PM
$GPGGA,114053.849,3554.0000,N,01430.0000,E,1,5,1,0, M,0, M,0,*70,$GPGGA,114053.849,3554.0000,N,01429.9995,E,1,5,1,0, M,0, M,0,*74,35.9,14.5,35.8999994095,14.499992215,2,0.00,,3/13/2013 12:40:53 PM
$GPGGA,114054.859,3554.0000,N,01430.0000,E,1,5,1,0, M,0, M,0,*76,$GPGGA,114054.859,3554.0000,N,01429.9995,E,1,5,1,0, M,0, M,0,*72,35.9,14.5,35.8999992119,14.4999921238,2,0.00,,3/13/2013 12:40:54 PM
$GPGGA,114055.879,3554.0000,N,01430.0000,E,1,5,1,0, M,0, M,0,*75,$GPGGA,114055.879,3553.9999,N,01429.9995,E,1,5,1,0, M,0, M,0,*76,35.9,14.5,35.8999990185,14.4999919406,2,0.00,,3/13/2013 12:40:55 PM
$GPGGA,114056.889,3554.0000,N,01430.0000,E,1,5,1,0, M,0, M,0,*79,$GPGGA,114056.889,3554.0000,N,01429.9995,E,1,5,1,0, M,0, M,0,*7D,35.9,14.5,35.8999993113,14.4999919419,2,0.00,,3/13/2013 12:40:56 PM
$GPGGA,114057.899,3554.0000,N,01430.0000,E,1,5,1,0, M,0, M,0,*79,$GPGGA,114057.899,3554.0000,N,01429.9995,E,1,5,1,0, M,0, M,0,*7D,35.9,14.5,35.8999992559,14.4999919125,2,0.00,,3/13/2013 12:40:57 PM
$GPGGA,114058.919,3554.0000,N,01430.0000,E,1,5,1,0, M,0, M,0,*7F,$GPGGA,114058.919,3554.0001,N,01429.9997,E,1,5,1,0, M,0, M,0,*78,35.9,14.5,35.9000012345,14.4999941961,2,0.00,,3/13/2013 12:40:58 PM
$GPGGA,114059.929,3554.0000,N,01430.0000,E,1,5,1,0, M,0, M,0,*7D,$GPGGA,114059.929,3554.0000,N,01430.0002,E,1,5,1,0, M,0, M,0,*7F,35.9,14.5,35.8999995987,14.5000036438,2,0.00,,3/13/2013 12:40:59 PM
$GPGGA,114100.949,3554.0000,N,01430.0000,E,1,5,1,0, M,0, M,0,*76,$GPGGA,114100.949,3553.9996,N,01430.0005,E,1,5,1,0, M,0, M,0,*7B,35.9,14.5,35.8999929668,14.5000081133,2,0.00,,3/13/2013 12:41:00 PM
$GPGGA,114101.959,3554.0000,N,01430.0000,E,1,5,1,0, M,0, M,0,*76,$GPGGA,114101.959,3554.0002,N,01430.0002,E,1,5,1,0, M,0, M,0,*76,35.9,14.5,35.900003914,14.5000041212,2,0.00,,3/13/2013 12:41:01 PM
$GPGGA,114102.969,3554.0000,N,01430.0000,E,1,5,1,0, M,0, M,0,*76,$GPGGA,114102.969,3554.0003,N,01430.0005,E,1,5,1,0, M,0, M,0,*70,35.9,14.5,35.9000053886,14.5000082006,2,0.00,,3/13/2013 12:41:02 PM
$GPGGA,114103.989,3554.0000,N,01430.0000,E,1,5,1,0, M,0, M,0,*79,$GPGGA,114103.989,3554.0005,N,01430.0000,E,1,5,1,0, M,0, M,0,*7C,35.9,14.5,35.9000084952,14.4999998674,2,0.00,,3/13/2013 12:41:03 PM
$GPGGA,114104.999,3554.0000,N,01430.0000,E,1,5,1,0, M,0, M,0,*7F,$GPGGA,114104.999,3554.0006,N,01429.9998,E,1,5,1,0, M,0, M,0,*70,35.9,14.5,35.900009566,14.4999963283,2,0.00,,3/13/2013 12:41:04 PM
$GPGGA,114106.019,3554.0000,N,01430.0000,E,1,5,1,0, M,0, M,0,*7C,$GPGGA,114106.019,3554.0005,N,01429.9997,E,1,5,1,0, M,0, M,0,*7F,35.9,14.5,35.9000083433,14.4999944391,2,0.00,,3/13/2013 12:41:06 PM
$GPGGA,114107.025,3554.0000,N,01430.0000,E,1,5,1,0, M,0, M,0,*72,$GPGGA,114107.025,3554.0005,N,01429.9998,E,1,5,1,0, M,0, M,0,*7E,35.9,14.5,35.9000084617,14.4999969465,2,0.00,,3/13/2013 12:41:07 PM
$GPGGA,114108.048,3554.0000,N,01430.0000,E,1,5,1,0, M,0, M,0,*76,$GPGGA,114108.048,3554.0005,N,01429.9999,E,1,5,1,0, M,0, M,0,*7B,35.9,14.5,35.9000085645,14.4999977303,2,0.00,,3/13/2013 12:41:08 PM
$GPGGA,114109.054,3554.0000,N,01430.0000,E,1,5,1,0, M,0, M,0,*7A,$GPGGA,114109.054,3554.0000,N,01430.0000,E,1,5,1,0, M,0, M,0,*7A,35.9,14.5,35.9,14.5,1,0.00,,3/13/2013 12:41:09 PM
$GPGGA,114110.074,3554.0000,N,01430.0000,E,1,5,1,0, M,0, M,0,*70,$GPGGA,114110.074,3554.0000,N,01430.0000,E,1,5,1,0, M,0, M,0,*70,35.9,14.5,35.9,14.5,1,0.00,,3/13/2013 12:41:10 PM
$GPGGA,114111.084,3554.0000,N,01430.0000,E,1,5,1,0, M,0, M,0,*7E,$GPGGA,114111.084,3554.0000,N,01430.0000,E,1,5,1,0, M,0, M,0,*7E,35.9,14.5,35.9,14.5,1,0.00,,3/13/2013 12:41:11 PM
$GPGGA,114112.104,3554.0000,N,01430.0000,E,1,5,1,0, M,0, M,0,*74,$GPGGA,114112.104,3554.0000,N,01430.0000,E,1,5,1,0, M,0, M,0,*74,35.9,14.5,35.9,14.5,1,0.00,,3/13/2013 12:41:12 PM
$GPGGA,114113.114,3554.0000,N,01430.0000,E,1,5,1,0, M,0, M,0,*74,$GPGGA,114113.114,3554.0000,N,01430.0000,E,1,5,1,0, M,0, M,0,*74,35.9,14.5,35.9,14.5,1,0.00,,3/13/2013 12:41:13 PM
$GPGGA,114115.784,3554.0000,N,01430.0000,E,1,5,1,0, M,0, M,0,*7D,$GPGGA,114115.784,3554.0000,N,01430.0000,E,1,5,1,0, M,0, M,0,*7D,35.9,14.5,35.9,14.5,1,0.00,,3/13/2013 12:41:15 PM
