GPGGA Base Position,,,,,,,,,,,,,,,GPGGA End Position,,,,,,,,,,,,,,,Base Latitude,Base Longitude,End Latitude,End Longitude,Node Count, Extra Tether Length,Node Address,X,Y,Z,Unscaled Pressure,Depth,Node Address,X,Y,Z,Unscaled Pressure,Depth,,Time
$GPGGA,133840.993,3601.4511,N,01415.4698,E,1,5,1,0, M,0, M,0,*7F,$GPGGA,133840.993,3601.4511,N,01415.4698,E,1,5,1,0, M,0, M,0,*7F,36.0241848421812,14.2578298721404,36.0241848422,14.2578298721,1,0.00,,3/6/2013 2:38:40 PM
$GPGGA,133842.011,3601.4511,N,01415.4698,E,1,5,1,0, M,0, M,0,*7E,$GPGGA,133842.011,3601.4511,N,01415.4698,E,1,5,1,0, M,0, M,0,*7E,36.0241849175243,14.2578299337299,36.0241849175,14.2578299337,1,0.00,,3/6/2013 2:38:42 PM
$GPGGA,133843.025,3601.4511,N,01415.4698,E,1,5,1,0, M,0, M,0,*78,$GPGGA,133843.025,3601.4511,N,01415.4698,E,1,5,1,0, M,0, M,0,*78,36.0241849463684,14.2578293868298,36.0241849464,14.2578293868,1,0.00,,3/6/2013 2:38:43 PM
$GPGGA,133844.039,3601.4511,N,01415.4697,E,1,5,1,0, M,0, M,0,*7D,$GPGGA,133844.039,3601.4511,N,01415.4697,E,1,5,1,0, M,0, M,0,*7D,36.0241849604193,14.2578291567756,36.0241849604,14.2578291568,1,0.00,,3/6/2013 2:38:44 PM
$GPGGA,133845.053,3601.4511,N,01415.4697,E,1,5,1,0, M,0, M,0,*70,$GPGGA,133845.053,3601.4511,N,01415.4697,E,1,5,1,0, M,0, M,0,*70,36.0241849651773,14.2578290695465,36.0241849652,14.2578290695,1,0.00,,3/6/2013 2:38:45 PM
$GPGGA,133846.067,3601.4511,N,01415.4698,E,1,5,1,0, M,0, M,0,*7B,$GPGGA,133846.067,3601.4511,N,01415.4698,E,1,5,1,0, M,0, M,0,*7B,36.0241852375699,14.2578291758742,36.0241852376,14.2578291759,1,0.00,,3/6/2013 2:38:46 PM
$GPGGA,133847.081,3601.4511,N,01415.4698,E,1,5,1,0, M,0, M,0,*72,$GPGGA,133847.081,3601.4511,N,01415.4698,E,1,5,1,0, M,0, M,0,*72,36.0241854666905,14.2578293160593,36.0241854667,14.2578293161,1,0.00,,3/6/2013 2:38:47 PM
$GPGGA,133848.095,3601.4511,N,01415.4698,E,1,5,1,0, M,0, M,0,*78,$GPGGA,133848.095,3601.4511,N,01415.4698,E,1,5,1,0, M,0, M,0,*78,36.0241853932273,14.2578294280882,36.0241853932,14.2578294281,1,0.00,,3/6/2013 2:38:48 PM
$GPGGA,133849.109,3601.4511,N,01415.4698,E,1,5,1,0, M,0, M,0,*7D,$GPGGA,133849.109,3601.4511,N,01415.4698,E,1,5,1,0, M,0, M,0,*7D,36.0241853359555,14.2578295242425,36.024185336,14.2578295242,1,0.00,,3/6/2013 2:38:49 PM
$GPGGA,133850.123,3601.4511,N,01415.4698,E,1,5,1,0, M,0, M,0,*7D,$GPGGA,133850.123,3601.4511,N,01415.4698,E,1,5,1,0, M,0, M,0,*7D,36.0241854307526,14.2578295627391,36.0241854308,14.2578295627,1,0.00,,3/6/2013 2:38:50 PM
$GPGGA,133851.137,3601.4511,N,01415.4698,E,1,5,1,0, M,0, M,0,*79,$GPGGA,133851.137,3601.4511,N,01415.4698,E,1,5,1,0, M,0, M,0,*79,36.0241856813535,14.2578296560253,36.0241856814,14.257829656,1,0.00,,3/6/2013 2:38:51 PM
$GPGGA,133852.151,3601.4512,N,01415.4698,E,1,5,1,0, M,0, M,0,*79,$GPGGA,133852.151,3601.4512,N,01415.4698,E,1,5,1,0, M,0, M,0,*79,36.0241858603435,14.2578300427489,36.0241858603,14.2578300427,1,0.00,,3/6/2013 2:38:52 PM
$GPGGA,133853.165,3601.4512,N,01415.4699,E,1,5,1,0, M,0, M,0,*7E,$GPGGA,133853.165,3601.4512,N,01415.4699,E,1,5,1,0, M,0, M,0,*7E,36.0241863972667,14.2578313425992,36.0241863973,14.2578313426,1,0.00,,3/6/2013 2:38:53 PM
$GPGGA,133854.179,3601.4513,N,01415.4700,E,1,5,1,0, M,0, M,0,*74,$GPGGA,133854.179,3601.4513,N,01415.4700,E,1,5,1,0, M,0, M,0,*74,36.0241877976821,14.2578336915875,36.0241877977,14.2578336916,1,0.00,,3/6/2013 2:38:54 PM
$GPGGA,133855.193,3601.4513,N,01415.4701,E,1,5,1,0, M,0, M,0,*70,$GPGGA,133855.193,3601.4513,N,01415.4701,E,1,5,1,0, M,0, M,0,*70,36.0241887178104,14.2578356520499,36.0241887178,14.257835652,1,0.00,,3/6/2013 2:38:55 PM
$GPGGA,133856.207,3601.4515,N,01415.4706,E,1,5,1,0, M,0, M,0,*7C,$GPGGA,133856.207,3601.4515,N,01415.4706,E,1,5,1,0, M,0, M,0,*7C,36.0241913626042,14.2578427140415,36.0241913626,14.257842714,1,0.00,,3/6/2013 2:38:56 PM
$GPGGA,133857.221,3601.4516,N,01415.4708,E,1,5,1,0, M,0, M,0,*74,$GPGGA,133857.221,3601.4516,N,01415.4708,E,1,5,1,0, M,0, M,0,*74,36.024193171487,14.2578473860947,36.0241931715,14.2578473861,1,0.00,,3/6/2013 2:38:57 PM
$GPGGA,133858.235,3601.4517,N,01415.4710,E,1,5,1,0, M,0, M,0,*76,$GPGGA,133858.235,3601.4517,N,01415.4710,E,1,5,1,0, M,0, M,0,*76,36.0241949247944,14.2578498482376,36.0241949248,14.2578498482,1,0.00,,3/6/2013 2:38:58 PM
$GPGGA,133859.249,3601.4518,N,01415.4711,E,1,5,1,0, M,0, M,0,*72,$GPGGA,133859.249,3601.4518,N,01415.4711,E,1,5,1,0, M,0, M,0,*72,36.0241965794844,14.2578510805595,36.0241965795,14.2578510806,1,0.00,,3/6/2013 2:38:59 PM
$GPGGA,133900.263,3601.4519,N,01415.4711,E,1,5,1,0, M,0, M,0,*76,$GPGGA,133900.263,3601.4519,N,01415.4711,E,1,5,1,0, M,0, M,0,*76,36.024197654898,14.2578522976227,36.0241976549,14.2578522976,1,0.00,,3/6/2013 2:39:00 PM
$GPGGA,133901.277,3601.4519,N,01415.4712,E,1,5,1,0, M,0, M,0,*71,$GPGGA,133901.277,3601.4519,N,01415.4712,E,1,5,1,0, M,0, M,0,*71,36.0241983506445,14.2578530716625,36.0241983506,14.2578530717,1,0.00,,3/6/2013 2:39:01 PM
$GPGGA,133902.291,3601.4519,N,01415.4712,E,1,5,1,0, M,0, M,0,*7A,$GPGGA,133902.291,3601.4519,N,01415.4712,E,1,5,1,0, M,0, M,0,*7A,36.0241987860533,14.2578536006918,36.0241987861,14.2578536007,1,0.00,,3/6/2013 2:39:02 PM
$GPGGA,133903.305,3601.4520,N,01415.4713,E,1,5,1,0, M,0, M,0,*7C,$GPGGA,133903.305,3601.4520,N,01415.4713,E,1,5,1,0, M,0, M,0,*7C,36.0241994961489,14.2578544148381,36.0241994961,14.2578544148,1,0.00,,3/6/2013 2:39:03 PM
$GPGGA,133904.313,3601.4520,N,01415.4713,E,1,5,1,0, M,0, M,0,*7C,$GPGGA,133904.313,3601.4520,N,01415.4713,E,1,5,1,0, M,0, M,0,*7C,36.0242000438008,14.2578554806129,36.0242000438,14.2578554806,2,0.00,,3/6/2013 2:39:04 PM
$GPGGA,133905.338,3601.4520,N,01415.4713,E,1,5,1,0, M,0, M,0,*74,$GPGGA,133905.338,3601.4526,N,01415.4712,E,1,5,1,0, M,0, M,0,*73,36.024200434015,14.2578558049888,36.0242096603,14.2578525503,2,0.00,,3/6/2013 2:39:05 PM
$GPGGA,133906.352,3601.4520,N,01415.4713,E,1,5,1,0, M,0, M,0,*7B,$GPGGA,133906.352,3601.4526,N,01415.4711,E,1,5,1,0, M,0, M,0,*7F,36.0242007077166,14.257855599587,36.0242097808,14.2578515566,2,0.00,,3/6/2013 2:39:06 PM
$GPGGA,133907.366,3601.4521,N,01415.4714,E,1,5,1,0, M,0, M,0,*7B,$GPGGA,133907.366,3601.4526,N,01415.4710,E,1,5,1,0, M,0, M,0,*78,36.024200906164,14.2578558391734,36.0242096292,14.2578505115,2,0.00,,3/6/2013 2:39:07 PM
$GPGGA,133908.380,3601.4521,N,01415.4714,E,1,5,1,0, M,0, M,0,*7C,$GPGGA,133908.380,3601.4526,N,01415.4710,E,1,5,1,0, M,0, M,0,*7F,36.0242013794785,14.2578563437271,36.0242102279,14.2578507739,2,0.00,,3/6/2013 2:39:08 PM
$GPGGA,133909.394,3601.4521,N,01415.4714,E,1,5,1,0, M,0, M,0,*78,$GPGGA,133909.394,3601.4527,N,01415.4711,E,1,5,1,0, M,0, M,0,*7B,36.0242017747796,14.2578567576088,36.0242111975,14.2578524622,2,0.00,,3/6/2013 2:39:09 PM
$GPGGA,133910.405,3601.4521,N,01415.4714,E,1,5,1,0, M,0, M,0,*7F,$GPGGA,133910.405,3601.4526,N,01415.4711,E,1,5,1,0, M,0, M,0,*7D,36.0242020813494,14.2578570785476,36.0242108151,14.2578513151,2,0.00,,3/6/2013 2:39:10 PM
$GPGGA,133911.419,3601.4521,N,01415.4714,E,1,5,1,0, M,0, M,0,*73,$GPGGA,133911.419,3601.4526,N,01415.4709,E,1,5,1,0, M,0, M,0,*78,36.0242023102522,14.2578573099457,36.0242092278,14.2578488267,2,0.00,,3/6/2013 2:39:11 PM
$GPGGA,133912.433,3601.4522,N,01415.4715,E,1,5,1,0, M,0, M,0,*7A,$GPGGA,133912.433,3601.4524,N,01415.4708,E,1,5,1,0, M,0, M,0,*70,36.0242025122513,14.2578575149785,36.0242060065,14.2578462634,2,0.00,,3/6/2013 2:39:12 PM
$GPGGA,133913.447,3601.4522,N,01415.4715,E,1,5,1,0, M,0, M,0,*78,$GPGGA,133913.447,3601.4521,N,01415.4708,E,1,5,1,0, M,0, M,0,*77,36.0242026746555,14.2578576830024,36.0242020502,14.2578459507,2,0.00,,3/6/2013 2:39:13 PM
$GPGGA,133914.461,3601.4521,N,01415.4714,E,1,5,1,0, M,0, M,0,*79,$GPGGA,133914.461,3601.4519,N,01415.4708,E,1,5,1,0, M,0, M,0,*7F,36.0242022418905,14.2578572428805,36.0241980549,14.2578469521,2,0.00,,3/6/2013 2:39:14 PM
$GPGGA,133915.475,3601.4521,N,01415.4714,E,1,5,1,0, M,0, M,0,*7D,$GPGGA,133915.475,3601.4518,N,01415.4708,E,1,5,1,0, M,0, M,0,*7A,36.0242015809292,14.2578566297087,36.024196937,14.2578466049,2,0.00,,3/6/2013 2:39:15 PM
$GPGGA,133916.489,3601.4520,N,01415.4713,E,1,5,1,0, M,0, M,0,*7B,$GPGGA,133916.489,3601.4517,N,01415.4709,E,1,5,1,0, M,0, M,0,*74,36.0242007311495,14.2578555520564,36.0241945174,14.2578479149,2,0.00,,3/6/2013 2:39:16 PM
$GPGGA,133917.503,3601.4520,N,01415.4712,E,1,5,1,0, M,0, M,0,*78,$GPGGA,133917.503,3601.4515,N,01415.4713,E,1,5,1,0, M,0, M,0,*7F,36.0241998040839,14.2578540843115,36.0241919029,14.257854696,2,0.00,,3/6/2013 2:39:17 PM
$GPGGA,133918.517,3601.4519,N,01415.4712,E,1,5,1,0, M,0, M,0,*78,$GPGGA,133918.517,3601.4514,N,01415.4712,E,1,5,1,0, M,0, M,0,*75,36.0241986647496,14.2578527844386,36.0241907484,14.2578527442,2,0.00,,3/6/2013 2:39:18 PM
$GPGGA,133919.531,3601.4518,N,01415.4711,E,1,5,1,0, M,0, M,0,*7F,$GPGGA,133919.531,3601.4514,N,01415.4708,E,1,5,1,0, M,0, M,0,*7B,36.0241973196204,14.2578516341273,36.0241904274,14.2578459711,2,0.00,,3/6/2013 2:39:19 PM
$GPGGA,133920.545,3601.4518,N,01415.4710,E,1,5,1,0, M,0, M,0,*77,$GPGGA,133920.545,3601.4518,N,01415.4703,E,1,5,1,0, M,0, M,0,*75,36.0241960836515,14.257850096313,36.0241960712,14.2578391603,2,0.00,,3/6/2013 2:39:20 PM
$GPGGA,133921.559,3601.4517,N,01415.4709,E,1,5,1,0, M,0, M,0,*7C,$GPGGA,133921.559,3601.4520,N,01415.4703,E,1,5,1,0, M,0, M,0,*72,36.0241952607409,14.2578487305268,36.0242004898,14.2578389904,2,0.00,,3/6/2013 2:39:21 PM
$GPGGA,133922.573,3601.4517,N,01415.4709,E,1,5,1,0, M,0, M,0,*77,$GPGGA,133922.573,3601.4522,N,01415.4705,E,1,5,1,0, M,0, M,0,*7D,36.0241947474034,14.2578481339423,36.0242026798,14.257841521,2,0.00,,3/6/2013 2:39:22 PM
$GPGGA,133923.587,3601.4517,N,01415.4709,E,1,5,1,0, M,0, M,0,*7D,$GPGGA,133923.587,3601.4522,N,01415.4706,E,1,5,1,0, M,0, M,0,*74,36.0241943989437,14.25784774299,36.0242032399,14.2578435072,2,0.00,,3/6/2013 2:39:23 PM
$GPGGA,133924.601,3601.4516,N,01415.4708,E,1,5,1,0, M,0, M,0,*77,$GPGGA,133924.601,3601.4522,N,01415.4706,E,1,5,1,0, M,0, M,0,*7E,36.0241941488751,14.2578474835945,36.0242030905,14.2578430288,2,0.00,,3/6/2013 2:39:24 PM
$GPGGA,133925.615,3601.4516,N,01415.4708,E,1,5,1,0, M,0, M,0,*73,$GPGGA,133925.615,3601.4522,N,01415.4706,E,1,5,1,0, M,0, M,0,*7A,36.0241937898268,14.2578471157629,36.0242027022,14.2578429129,2,0.00,,3/6/2013 2:39:25 PM
$GPGGA,133926.629,3601.4516,N,01415.4708,E,1,5,1,0, M,0, M,0,*7F,$GPGGA,133926.629,3601.4521,N,01415.4706,E,1,5,1,0, M,0, M,0,*75,36.0241931189606,14.2578466251476,36.0242022954,14.2578431971,2,0.00,,3/6/2013 2:39:26 PM
$GPGGA,133927.643,3601.4516,N,01415.4708,E,1,5,1,0, M,0, M,0,*72,$GPGGA,133927.643,3601.4521,N,01415.4707,E,1,5,1,0, M,0, M,0,*79,36.0241925771461,14.2578464447286,36.0242019308,14.2578450456,2,0.00,,3/6/2013 2:39:27 PM
$GPGGA,133928.657,3601.4515,N,01415.4708,E,1,5,1,0, M,0, M,0,*7B,$GPGGA,133928.657,3601.4521,N,01415.4707,E,1,5,1,0, M,0, M,0,*73,36.0241921865996,14.2578464830368,36.0242014079,14.2578442026,2,0.00,,3/6/2013 2:39:28 PM
$GPGGA,133929.671,3601.4515,N,01415.4708,E,1,5,1,0, M,0, M,0,*7E,$GPGGA,133929.671,3601.4520,N,01415.4705,E,1,5,1,0, M,0, M,0,*75,36.024191700202,14.2578463413197,36.024200213,14.2578410832,2,0.00,,3/6/2013 2:39:29 PM
$GPGGA,133930.685,3601.4515,N,01415.4708,E,1,5,1,0, M,0, M,0,*7D,$GPGGA,133930.685,3601.4520,N,01415.4704,E,1,5,1,0, M,0, M,0,*77,36.0241913268542,14.2578460922624,36.0241993227,14.2578398428,2,0.00,,3/6/2013 2:39:30 PM
$GPGGA,133931.699,3601.4515,N,01415.4708,E,1,5,1,0, M,0, M,0,*71,$GPGGA,133931.699,3601.4519,N,01415.4704,E,1,5,1,0, M,0, M,0,*71,36.0241912359837,14.2578462122615,36.0241991246,14.2578396799,2,0.00,,3/6/2013 2:39:31 PM
$GPGGA,133932.713,3601.4515,N,01415.4708,E,1,5,1,0, M,0, M,0,*71,$GPGGA,133932.713,3601.4520,N,01415.4705,E,1,5,1,0, M,0, M,0,*7A,36.024191320938,14.2578466409172,36.0242003531,14.257842289,2,0.00,,3/6/2013 2:39:32 PM
$GPGGA,133933.727,3601.4515,N,01415.4708,E,1,5,1,0, M,0, M,0,*77,$GPGGA,133933.727,3601.4521,N,01415.4707,E,1,5,1,0, M,0, M,0,*7F,36.0241913828264,14.2578468053773,36.0242009035,14.257844604,2,0.00,,3/6/2013 2:39:33 PM
$GPGGA,133934.741,3601.4515,N,01415.4708,E,1,5,1,0, M,0, M,0,*70,$GPGGA,133934.741,3601.4521,N,01415.4709,E,1,5,1,0, M,0, M,0,*76,36.0241914315723,14.2578466220255,36.0242010809,14.2578482331,2,0.00,,3/6/2013 2:39:34 PM
$GPGGA,133935.755,3601.4515,N,01415.4708,E,1,5,1,0, M,0, M,0,*74,$GPGGA,133935.755,3601.4521,N,01415.4709,E,1,5,1,0, M,0, M,0,*72,36.0241914992934,14.257845839589,36.0242010109,14.2578481336,2,0.00,,3/6/2013 2:39:35 PM
$GPGGA,133936.769,3601.4515,N,01415.4707,E,1,5,1,0, M,0, M,0,*77,$GPGGA,133936.769,3601.4520,N,01415.4708,E,1,5,1,0, M,0, M,0,*7E,36.0241912823076,14.2578452600788,36.0242006424,14.2578474842,2,0.00,,3/6/2013 2:39:36 PM
$GPGGA,133937.783,3601.4515,N,01415.4706,E,1,5,1,0, M,0, M,0,*73,$GPGGA,133937.783,3601.4520,N,01415.4708,E,1,5,1,0, M,0, M,0,*7B,36.0241911062855,14.2578439131485,36.0242001988,14.2578466505,2,0.00,,3/6/2013 2:39:37 PM
$GPGGA,133938.797,3601.4515,N,01415.4706,E,1,5,1,0, M,0, M,0,*79,$GPGGA,133938.797,3601.4520,N,01415.4707,E,1,5,1,0, M,0, M,0,*7E,36.0241909352677,14.2578427839522,36.0242001641,14.2578447555,2,0.00,,3/6/2013 2:39:38 PM
$GPGGA,133939.811,3601.4515,N,01415.4705,E,1,5,1,0, M,0, M,0,*7A,$GPGGA,133939.811,3601.4520,N,01415.4707,E,1,5,1,0, M,0, M,0,*7E,36.0241908532726,14.2578423460832,36.0242000168,14.2578448784,2,0.00,,3/6/2013 2:39:39 PM
$GPGGA,133940.825,3601.4514,N,01415.4705,E,1,5,1,0, M,0, M,0,*72,$GPGGA,133940.825,3601.4520,N,01415.4705,E,1,5,1,0, M,0, M,0,*75,36.0241906652534,14.2578408958071,36.0241997915,14.2578424068,2,0.00,,3/6/2013 2:39:40 PM
$GPGGA,133941.839,3601.4514,N,01415.4704,E,1,5,1,0, M,0, M,0,*7F,$GPGGA,133941.839,3601.4520,N,01415.4705,E,1,5,1,0, M,0, M,0,*79,36.0241905504321,14.2578406347314,36.024199752,14.2578409356,2,0.00,,3/6/2013 2:39:41 PM
$GPGGA,133942.853,3601.4514,N,01415.4704,E,1,5,1,0, M,0, M,0,*70,$GPGGA,133942.853,3601.4520,N,01415.4704,E,1,5,1,0, M,0, M,0,*77,36.0241907491653,14.2578404518448,36.0242000736,14.2578394285,2,0.00,,3/6/2013 2:39:42 PM
$GPGGA,133943.867,3601.4515,N,01415.4704,E,1,5,1,0, M,0, M,0,*77,$GPGGA,133943.867,3601.4520,N,01415.4704,E,1,5,1,0, M,0, M,0,*71,36.0241909035025,14.2578403327396,36.0242002773,14.2578393009,2,0.00,,3/6/2013 2:39:43 PM
$GPGGA,133944.881,3601.4515,N,01415.4704,E,1,5,1,0, M,0, M,0,*78,$GPGGA,133944.881,3601.4520,N,01415.4703,E,1,5,1,0, M,0, M,0,*79,36.0241909685663,14.2578402899204,36.0242002781,14.2578382753,2,0.00,,3/6/2013 2:39:44 PM
$GPGGA,133945.895,3601.4515,N,01415.4704,E,1,5,1,0, M,0, M,0,*7C,$GPGGA,133945.895,3601.4520,N,01415.4704,E,1,5,1,0, M,0, M,0,*7A,36.0241911363627,14.2578402047155,36.0242005665,14.2578393519,2,0.00,,3/6/2013 2:39:45 PM
$GPGGA,133946.909,3601.4515,N,01415.4704,E,1,5,1,0, M,0, M,0,*7B,$GPGGA,133946.909,3601.4521,N,01415.4704,E,1,5,1,0, M,0, M,0,*7C,36.0241915356894,14.2578404682705,36.0242012273,14.2578401027,2,0.00,,3/6/2013 2:39:46 PM
$GPGGA,133947.923,3601.4515,N,01415.4704,E,1,5,1,0, M,0, M,0,*72,$GPGGA,133947.923,3601.4521,N,01415.4704,E,1,5,1,0, M,0, M,0,*75,36.0241919279671,14.2578407182492,36.0242017756,14.2578400967,2,0.00,,3/6/2013 2:39:47 PM
$GPGGA,133948.937,3601.4515,N,01415.4705,E,1,5,1,0, M,0, M,0,*79,$GPGGA,133948.937,3601.4521,N,01415.4703,E,1,5,1,0, M,0, M,0,*78,36.0241922612078,14.2578412849188,36.0242014816,14.2578390098,2,0.00,,3/6/2013 2:39:48 PM
$GPGGA,133949.951,3601.4516,N,01415.4705,E,1,5,1,0, M,0, M,0,*7B,$GPGGA,133949.951,3601.4520,N,01415.4702,E,1,5,1,0, M,0, M,0,*79,36.0241925908537,14.2578417461905,36.0242007283,14.2578367527,2,0.00,,3/6/2013 2:39:49 PM
$GPGGA,133950.965,3601.4516,N,01415.4706,E,1,5,1,0, M,0, M,0,*77,$GPGGA,133950.965,3601.4521,N,01415.4703,E,1,5,1,0, M,0, M,0,*76,36.0241934013904,14.2578429376107,36.0242019377,14.2578388663,2,0.00,,3/6/2013 2:39:50 PM
$GPGGA,133951.979,3601.4517,N,01415.4706,E,1,5,1,0, M,0, M,0,*7A,$GPGGA,133951.979,3601.4522,N,01415.4704,E,1,5,1,0, M,0, M,0,*7E,36.0241942315246,14.2578440318399,36.0242027439,14.257839798,2,0.00,,3/6/2013 2:39:51 PM
$GPGGA,133952.993,3601.4517,N,01415.4707,E,1,5,1,0, M,0, M,0,*7C,$GPGGA,133952.993,3601.4522,N,01415.4704,E,1,5,1,0, M,0, M,0,*79,36.0241948907329,14.2578443112734,36.0242035722,14.257839974,2,0.00,,3/6/2013 2:39:52 PM
$GPGGA,133954.007,3601.4517,N,01415.4707,E,1,5,1,0, M,0, M,0,*7E,$GPGGA,133954.007,3601.4523,N,01415.4705,E,1,5,1,0, M,0, M,0,*7B,36.0241953507003,14.2578449176217,36.0242044512,14.2578423107,2,0.00,,3/6/2013 2:39:54 PM
$GPGGA,133955.021,3601.4517,N,01415.4707,E,1,5,1,0, M,0, M,0,*7B,$GPGGA,133955.021,3601.4523,N,01415.4706,E,1,5,1,0, M,0, M,0,*7D,36.0241955225502,14.2578451638298,36.0242045444,14.2578441454,2,0.00,,3/6/2013 2:39:55 PM
$GPGGA,133956.035,3601.4518,N,01415.4707,E,1,5,1,0, M,0, M,0,*72,$GPGGA,133956.035,3601.4523,N,01415.4706,E,1,5,1,0, M,0, M,0,*7B,36.024195883152,14.2578456728668,36.0242049259,14.2578436118,2,0.00,,3/6/2013 2:39:56 PM
$GPGGA,133957.049,3601.4517,N,01415.4707,E,1,5,1,0, M,0, M,0,*77,$GPGGA,133957.049,3601.4523,N,01415.4705,E,1,5,1,0, M,0, M,0,*72,36.0241957029202,14.257845526555,36.0242046971,14.257841469,2,0.00,,3/6/2013 2:39:57 PM
$GPGGA,133958.063,3601.4517,N,01415.4707,E,1,5,1,0, M,0, M,0,*70,$GPGGA,133958.063,3601.4522,N,01415.4704,E,1,5,1,0, M,0, M,0,*75,36.024195261373,14.2578451007675,36.0242035174,14.2578394837,2,0.00,,3/6/2013 2:39:58 PM
$GPGGA,133959.077,3601.4517,N,01415.4707,E,1,5,1,0, M,0, M,0,*74,$GPGGA,133959.077,3601.4522,N,01415.4703,E,1,5,1,0, M,0, M,0,*76,36.0241945175434,14.2578443894339,36.0242026442,14.2578384081,2,0.00,,3/6/2013 2:39:59 PM
$GPGGA,134000.091,3601.4516,N,01415.4706,E,1,5,1,0, M,0, M,0,*7E,$GPGGA,134000.091,3601.4521,N,01415.4703,E,1,5,1,0, M,0, M,0,*7F,36.0241941584708,14.2578438592959,36.024202122,14.2578376596,2,0.00,,3/6/2013 2:40:00 PM
$GPGGA,134001.105,3601.4516,N,01415.4705,E,1,5,1,0, M,0, M,0,*70,$GPGGA,134001.105,3601.4521,N,01415.4703,E,1,5,1,0, M,0, M,0,*72,36.0241933183338,14.2578419687079,36.0242022925,14.2578382777,2,0.00,,3/6/2013 2:40:01 PM
$GPGGA,134002.119,3601.4516,N,01415.4705,E,1,5,1,0, M,0, M,0,*7E,$GPGGA,134002.119,3601.4521,N,01415.4706,E,1,5,1,0, M,0, M,0,*79,36.0241929184807,14.2578408478516,36.0242016128,14.2578438454,2,0.00,,3/6/2013 2:40:02 PM
$GPGGA,134003.133,3601.4516,N,01415.4704,E,1,5,1,0, M,0, M,0,*76,$GPGGA,134003.133,3601.4520,N,01415.4707,E,1,5,1,0, M,0, M,0,*70,36.0241926804047,14.2578402695316,36.0242005925,14.2578455341,2,0.00,,3/6/2013 2:40:03 PM
$GPGGA,134004.147,3601.4515,N,01415.4704,E,1,5,1,0, M,0, M,0,*71,$GPGGA,134004.147,3601.4517,N,01415.4710,E,1,5,1,0, M,0, M,0,*76,36.024192199754,14.2578398411292,36.0241952702,14.2578494273,2,0.00,,3/6/2013 2:40:04 PM
$GPGGA,134005.161,3601.4515,N,01415.4704,E,1,5,1,0, M,0, M,0,*74,$GPGGA,134005.161,3601.4518,N,01415.4710,E,1,5,1,0, M,0, M,0,*7C,36.024191973106,14.257839481226,36.0241960027,14.257849423,2,0.00,,3/6/2013 2:40:05 PM
$GPGGA,134006.175,3601.4515,N,01415.4703,E,1,5,1,0, M,0, M,0,*75,$GPGGA,134006.175,3601.4519,N,01415.4708,E,1,5,1,0, M,0, M,0,*72,36.024191425625,14.2578385879343,36.0241984185,14.2578460717,2,0.00,,3/6/2013 2:40:06 PM
$GPGGA,134007.189,3601.4515,N,01415.4703,E,1,5,1,0, M,0, M,0,*77,$GPGGA,134007.189,3601.4519,N,01415.4707,E,1,5,1,0, M,0, M,0,*7F,36.0241911601605,14.2578381627092,36.0241982498,14.2578452145,2,0.00,,3/6/2013 2:40:07 PM
$GPGGA,134008.203,3601.4514,N,01415.4703,E,1,5,1,0, M,0, M,0,*78,$GPGGA,134008.203,3601.4516,N,01415.4709,E,1,5,1,0, M,0, M,0,*70,36.024190521152,14.2578377656907,36.0241937279,14.2578475326,2,0.00,,3/6/2013 2:40:08 PM
$GPGGA,134009.217,3601.4514,N,01415.4703,E,1,5,1,0, M,0, M,0,*7C,$GPGGA,134009.217,3601.4518,N,01415.4707,E,1,5,1,0, M,0, M,0,*74,36.0241899828062,14.2578375096738,36.024196414,14.2578453915,2,0.00,,3/6/2013 2:40:09 PM
$GPGGA,134010.231,3601.4514,N,01415.4702,E,1,5,1,0, M,0, M,0,*71,$GPGGA,134010.231,3601.4518,N,01415.4706,E,1,5,1,0, M,0, M,0,*79,36.024189598617,14.2578373287905,36.0241973325,14.257842788,2,0.00,,3/6/2013 2:40:10 PM
$GPGGA,134011.245,3601.4514,N,01415.4702,E,1,5,1,0, M,0, M,0,*73,$GPGGA,134011.245,3601.4519,N,01415.4704,E,1,5,1,0, M,0, M,0,*78,36.024189330249,14.2578372023093,36.0241979357,14.2578401233,2,0.00,,3/6/2013 2:40:11 PM
$GPGGA,134012.259,3601.4513,N,01415.4702,E,1,5,1,0, M,0, M,0,*7A,$GPGGA,134012.259,3601.4519,N,01415.4703,E,1,5,1,0, M,0, M,0,*71,36.0241891371757,14.2578374007808,36.0241979699,14.2578380571,2,0.00,,3/6/2013 2:40:12 PM
$GPGGA,134013.273,3601.4514,N,01415.4703,E,1,5,1,0, M,0, M,0,*75,$GPGGA,134013.273,3601.4519,N,01415.4702,E,1,5,1,0, M,0, M,0,*79,36.0241892942173,14.2578375668152,36.0241978774,14.2578365215,2,0.00,,3/6/2013 2:40:13 PM
$GPGGA,134014.287,3601.4514,N,01415.4703,E,1,5,1,0, M,0, M,0,*79,$GPGGA,134014.287,3601.4519,N,01415.4703,E,1,5,1,0, M,0, M,0,*74,36.0241894159577,14.2578383859109,36.0241981962,14.2578378501,2,0.00,,3/6/2013 2:40:14 PM
$GPGGA,134015.301,3601.4514,N,01415.4704,E,1,5,1,0, M,0, M,0,*70,$GPGGA,134015.301,3601.4519,N,01415.4704,E,1,5,1,0, M,0, M,0,*7D,36.0241895024211,14.2578392447043,36.0241986912,14.2578393272,2,0.00,,3/6/2013 2:40:15 PM
$GPGGA,134016.315,3601.4514,N,01415.4704,E,1,5,1,0, M,0, M,0,*76,$GPGGA,134016.315,3601.4520,N,01415.4704,E,1,5,1,0, M,0, M,0,*71,36.024189910972,14.2578399090303,36.0241993459,14.2578400189,2,0.00,,3/6/2013 2:40:16 PM
$GPGGA,134017.329,3601.4514,N,01415.4704,E,1,5,1,0, M,0, M,0,*78,$GPGGA,134017.329,3601.4520,N,01415.4703,E,1,5,1,0, M,0, M,0,*78,36.0241902657378,14.2578408034072,36.0241997891,14.257838673,2,0.00,,3/6/2013 2:40:17 PM
$GPGGA,134018.343,3601.4514,N,01415.4705,E,1,5,1,0, M,0, M,0,*7A,$GPGGA,134018.343,3601.4520,N,01415.4704,E,1,5,1,0, M,0, M,0,*7C,36.0241905552525,14.2578414941431,36.0241998812,14.2578407022,2,0.00,,3/6/2013 2:40:18 PM
$GPGGA,134019.357,3601.4514,N,01415.4705,E,1,5,1,0, M,0, M,0,*7E,$GPGGA,134019.357,3601.4520,N,01415.4704,E,1,5,1,0, M,0, M,0,*78,36.0241907959383,14.2578420118741,36.0241999536,14.2578401796,2,0.00,,3/6/2013 2:40:19 PM
$GPGGA,134020.371,3601.4515,N,01415.4705,E,1,5,1,0, M,0, M,0,*71,$GPGGA,134020.371,3601.4520,N,01415.4703,E,1,5,1,0, M,0, M,0,*71,36.0241909707778,14.2578423506971,36.0241996527,14.257838404,2,0.00,,3/6/2013 2:40:20 PM
$GPGGA,134021.385,3601.4515,N,01415.4706,E,1,5,1,0, M,0, M,0,*78,$GPGGA,134021.385,3601.4520,N,01415.4702,E,1,5,1,0, M,0, M,0,*7A,36.0241914336258,14.2578425729609,36.0241993821,14.2578365368,2,0.00,,3/6/2013 2:40:21 PM
$GPGGA,134022.399,3601.4515,N,01415.4706,E,1,5,1,0, M,0, M,0,*76,$GPGGA,134022.399,3601.4519,N,01415.4701,E,1,5,1,0, M,0, M,0,*7D,36.0241918421575,14.2578431137849,36.024198458,14.2578353808,2,0.00,,3/6/2013 2:40:22 PM
$GPGGA,134023.413,3601.4515,N,01415.4706,E,1,5,1,0, M,0, M,0,*72,$GPGGA,134023.413,3601.4519,N,01415.4702,E,1,5,1,0, M,0, M,0,*7A,36.0241921778594,14.2578435658769,36.0241982486,14.2578360977,2,0.00,,3/6/2013 2:40:23 PM
$GPGGA,134024.427,3601.4515,N,01415.4706,E,1,5,1,0, M,0, M,0,*72,$GPGGA,134024.427,3601.4520,N,01415.4702,E,1,5,1,0, M,0, M,0,*70,36.0241924300137,14.2578435128766,36.024199331,14.2578374308,2,0.00,,3/6/2013 2:40:24 PM
$GPGGA,134025.441,3601.4516,N,01415.4706,E,1,5,1,0, M,0, M,0,*70,$GPGGA,134025.441,3601.4520,N,01415.4703,E,1,5,1,0, M,0, M,0,*70,36.0241926168842,14.2578434789206,36.0242002413,14.25783852,2,0.00,,3/6/2013 2:40:25 PM
$GPGGA,134026.455,3601.4516,N,01415.4707,E,1,5,1,0, M,0, M,0,*77,$GPGGA,134026.455,3601.4520,N,01415.4703,E,1,5,1,0, M,0, M,0,*76,36.0241933811558,14.2578444386633,36.0242007625,14.2578379062,2,0.00,,3/6/2013 2:40:26 PM
$GPGGA,134027.469,3601.4516,N,01415.4707,E,1,5,1,0, M,0, M,0,*79,$GPGGA,134027.469,3601.4521,N,01415.4703,E,1,5,1,0, M,0, M,0,*79,36.0241939201293,14.2578451098182,36.0242020849,14.2578390263,2,0.00,,3/6/2013 2:40:27 PM
$GPGGA,134028.483,3601.4517,N,01415.4708,E,1,5,1,0, M,0, M,0,*7C,$GPGGA,134028.483,3601.4522,N,01415.4704,E,1,5,1,0, M,0, M,0,*76,36.0241945683709,14.2578458873423,36.02420308,14.2578396737,2,0.00,,3/6/2013 2:40:28 PM
$GPGGA,134029.497,3601.4517,N,01415.4708,E,1,5,1,0, M,0, M,0,*78,$GPGGA,134029.497,3601.4522,N,01415.4703,E,1,5,1,0, M,0, M,0,*75,36.0241950745609,14.2578464702558,36.0242028721,14.257838803,2,0.00,,3/6/2013 2:40:29 PM
$GPGGA,134030.511,3601.4517,N,01415.4708,E,1,5,1,0, M,0, M,0,*7F,$GPGGA,134030.511,3601.4522,N,01415.4704,E,1,5,1,0, M,0, M,0,*75,36.0241952450958,14.2578467076572,36.0242031527,14.2578396416,2,0.00,,3/6/2013 2:40:30 PM
$GPGGA,134031.525,3601.4517,N,01415.4708,E,1,5,1,0, M,0, M,0,*79,$GPGGA,134031.525,3601.4522,N,01415.4704,E,1,5,1,0, M,0, M,0,*73,36.0241948395474,14.2578461491418,36.0242031334,14.2578397838,2,0.00,,3/6/2013 2:40:31 PM
$GPGGA,134032.539,3601.4516,N,01415.4707,E,1,5,1,0, M,0, M,0,*79,$GPGGA,134032.539,3601.4521,N,01415.4703,E,1,5,1,0, M,0, M,0,*79,36.0241941130199,14.25784474603,36.0242022334,14.2578381639,2,0.00,,3/6/2013 2:40:32 PM
$GPGGA,134033.553,3601.4516,N,01415.4706,E,1,5,1,0, M,0, M,0,*75,$GPGGA,134033.553,3601.4520,N,01415.4701,E,1,5,1,0, M,0, M,0,*77,36.0241932990475,14.2578430225223,36.0242004088,14.257835411,2,0.00,,3/6/2013 2:40:33 PM
$GPGGA,134034.567,3601.4515,N,01415.4705,E,1,5,1,0, M,0, M,0,*75,$GPGGA,134034.567,3601.4520,N,01415.4701,E,1,5,1,0, M,0, M,0,*77,36.0241923994113,14.2578414032347,36.0241992696,14.2578352658,2,0.00,,3/6/2013 2:40:34 PM
$GPGGA,134035.581,3601.4515,N,01415.4704,E,1,5,1,0, M,0, M,0,*7D,$GPGGA,134035.581,3601.4519,N,01415.4702,E,1,5,1,0, M,0, M,0,*77,36.02419176321,14.2578401771633,36.0241987256,14.2578359238,2,0.00,,3/6/2013 2:40:35 PM
$GPGGA,134036.595,3601.4515,N,01415.4703,E,1,5,1,0, M,0, M,0,*7C,$GPGGA,134036.595,3601.4518,N,01415.4701,E,1,5,1,0, M,0, M,0,*73,36.0241913203524,14.2578388025722,36.0241972005,14.2578346364,2,0.00,,3/6/2013 2:40:36 PM
$GPGGA,134037.609,3601.4514,N,01415.4702,E,1,5,1,0, M,0, M,0,*7B,$GPGGA,134037.609,3601.4518,N,01415.4700,E,1,5,1,0, M,0, M,0,*75,36.0241908069851,14.2578373209343,36.0241968294,14.2578331206,2,0.00,,3/6/2013 2:40:37 PM
$GPGGA,134038.623,3601.4514,N,01415.4701,E,1,5,1,0, M,0, M,0,*7F,$GPGGA,134038.623,3601.4518,N,01415.4698,E,1,5,1,0, M,0, M,0,*72,36.0241902036132,14.2578357958129,36.0241962613,14.2578301925,2,0.00,,3/6/2013 2:40:38 PM
$GPGGA,134039.637,3601.4514,N,01415.4701,E,1,5,1,0, M,0, M,0,*7B,$GPGGA,134039.637,3601.4518,N,01415.4697,E,1,5,1,0, M,0, M,0,*79,36.0241899712919,14.257834468844,36.0241963656,14.2578277386,2,0.00,,3/6/2013 2:40:39 PM
$GPGGA,134040.651,3601.4514,N,01415.4700,E,1,5,1,0, M,0, M,0,*74,$GPGGA,134040.651,3601.4518,N,01415.4695,E,1,5,1,0, M,0, M,0,*75,36.0241899908152,14.2578338843,36.0241958593,14.2578257518,2,0.00,,3/6/2013 2:40:40 PM
$GPGGA,134041.665,3601.4514,N,01415.4700,E,1,5,1,0, M,0, M,0,*72,$GPGGA,134041.665,3601.4517,N,01415.4695,E,1,5,1,0, M,0, M,0,*7C,36.0241899961145,14.2578337419028,36.0241947628,14.2578247371,2,0.00,,3/6/2013 2:40:41 PM
$GPGGA,134042.679,3601.4514,N,01415.4700,E,1,5,1,0, M,0, M,0,*7C,$GPGGA,134042.679,3601.4517,N,01415.4696,E,1,5,1,0, M,0, M,0,*71,36.0241898535709,14.257833659732,36.0241946179,14.2578268826,2,0.00,,3/6/2013 2:40:42 PM
$GPGGA,134043.693,3601.4514,N,01415.4700,E,1,5,1,0, M,0, M,0,*79,$GPGGA,134043.693,3601.4516,N,01415.4696,E,1,5,1,0, M,0, M,0,*75,36.0241896021268,14.257833440589,36.0241936815,14.2578273958,2,0.00,,3/6/2013 2:40:43 PM
$GPGGA,134044.707,3601.4514,N,01415.4700,E,1,5,1,0, M,0, M,0,*72,$GPGGA,134044.707,3601.4515,N,01415.4696,E,1,5,1,0, M,0, M,0,*7D,36.0241893857157,14.2578332835291,36.0241923959,14.2578271916,2,0.00,,3/6/2013 2:40:44 PM
$GPGGA,134045.721,3601.4514,N,01415.4700,E,1,5,1,0, M,0, M,0,*77,$GPGGA,134045.721,3601.4515,N,01415.4696,E,1,5,1,0, M,0, M,0,*78,36.0241892180021,14.2578334564437,36.0241915295,14.2578272709,2,0.00,,3/6/2013 2:40:45 PM
$GPGGA,134046.735,3601.4513,N,01415.4700,E,1,5,1,0, M,0, M,0,*76,$GPGGA,134046.735,3601.4514,N,01415.4697,E,1,5,1,0, M,0, M,0,*7E,36.0241890751097,14.2578337813821,36.0241907052,14.2578277357,2,0.00,,3/6/2013 2:40:46 PM
$GPGGA,134047.749,3601.4513,N,01415.4701,E,1,5,1,0, M,0, M,0,*7D,$GPGGA,134047.749,3601.4514,N,01415.4697,E,1,5,1,0, M,0, M,0,*74,36.0241891113772,14.2578349724392,36.0241903188,14.2578290186,2,0.00,,3/6/2013 2:40:47 PM
$GPGGA,134048.763,3601.4514,N,01415.4702,E,1,5,1,0, M,0, M,0,*7E,$GPGGA,134048.763,3601.4514,N,01415.4698,E,1,5,1,0, M,0, M,0,*7C,36.0241895059069,14.2578363928108,36.0241899728,14.2578292381,2,0.00,,3/6/2013 2:40:48 PM
$GPGGA,134049.777,3601.4514,N,01415.4702,E,1,5,1,0, M,0, M,0,*7A,$GPGGA,134049.777,3601.4512,N,01415.4696,E,1,5,1,0, M,0, M,0,*70,36.0241897218509,14.2578372582829,36.0241874425,14.2578272165,2,0.00,,3/6/2013 2:40:49 PM
$GPGGA,134050.791,3601.4514,N,01415.4703,E,1,5,1,0, M,0, M,0,*7B,$GPGGA,134050.791,3601.4512,N,01415.4698,E,1,5,1,0, M,0, M,0,*7E,36.0241902919484,14.2578391543598,36.024185908,14.2578305938,2,0.00,,3/6/2013 2:40:50 PM
$GPGGA,134051.805,3601.4514,N,01415.4704,E,1,5,1,0, M,0, M,0,*7F,$GPGGA,134051.805,3601.4512,N,01415.4699,E,1,5,1,0, M,0, M,0,*7C,36.0241905981345,14.2578399550106,36.024186892,14.2578320567,2,0.00,,3/6/2013 2:40:51 PM
$GPGGA,134052.819,3601.4514,N,01415.4705,E,1,5,1,0, M,0, M,0,*70,$GPGGA,134052.819,3601.4512,N,01415.4700,E,1,5,1,0, M,0, M,0,*73,36.0241908230433,14.2578409497568,36.0241869232,14.2578331348,2,0.00,,3/6/2013 2:40:52 PM
$GPGGA,134053.833,3601.4515,N,01415.4705,E,1,5,1,0, M,0, M,0,*78,$GPGGA,134053.833,3601.4512,N,01415.4701,E,1,5,1,0, M,0, M,0,*7B,36.024190980658,14.257842115293,36.0241867064,14.2578347332,2,0.00,,3/6/2013 2:40:53 PM
$GPGGA,134054.847,3601.4515,N,01415.4705,E,1,5,1,0, M,0, M,0,*7C,$GPGGA,134054.847,3601.4512,N,01415.4700,E,1,5,1,0, M,0, M,0,*7E,36.0241910511255,14.2578423081565,36.0241871607,14.2578338106,2,0.00,,3/6/2013 2:40:54 PM
$GPGGA,134055.861,3601.4515,N,01415.4705,E,1,5,1,0, M,0, M,0,*79,$GPGGA,134055.861,3601.4513,N,01415.4700,E,1,5,1,0, M,0, M,0,*7A,36.0241912209455,14.2578422608217,36.0241875927,14.2578328752,2,0.00,,3/6/2013 2:40:55 PM
$GPGGA,134056.875,3601.4515,N,01415.4705,E,1,5,1,0, M,0, M,0,*7F,$GPGGA,134056.875,3601.4515,N,01415.4698,E,1,5,1,0, M,0, M,0,*7A,36.0241913188859,14.257841362975,36.0241909266,14.2578296582,2,0.00,,3/6/2013 2:40:56 PM
$GPGGA,134057.889,3601.4515,N,01415.4704,E,1,5,1,0, M,0, M,0,*7C,$GPGGA,134057.889,3601.4515,N,01415.4698,E,1,5,1,0, M,0, M,0,*78,36.0241914108497,14.257840560977,36.024191752,14.2578291816,2,0.00,,3/6/2013 2:40:57 PM
$GPGGA,134058.903,3601.4515,N,01415.4704,E,1,5,1,0, M,0, M,0,*70,$GPGGA,134058.903,3601.4515,N,01415.4697,E,1,5,1,0, M,0, M,0,*7B,36.0241914762932,14.2578399749143,36.0241915997,14.2578287188,2,0.00,,3/6/2013 2:40:58 PM
$GPGGA,134059.917,3601.4515,N,01415.4704,E,1,5,1,0, M,0, M,0,*74,$GPGGA,134059.917,3601.4516,N,01415.4697,E,1,5,1,0, M,0, M,0,*7C,36.0241913979317,14.257839317755,36.0241931463,14.257827512,2,0.00,,3/6/2013 2:40:59 PM
$GPGGA,134100.931,3601.4515,N,01415.4703,E,1,5,1,0, M,0, M,0,*7A,$GPGGA,134100.931,3601.4515,N,01415.4696,E,1,5,1,0, M,0, M,0,*77,36.0241911073972,14.2578376518769,36.0241923859,14.2578260348,2,0.00,,3/6/2013 2:41:00 PM
$GPGGA,134101.945,3601.4515,N,01415.4702,E,1,5,1,0, M,0, M,0,*79,$GPGGA,134101.945,3601.4515,N,01415.4696,E,1,5,1,0, M,0, M,0,*75,36.024190918512,14.2578373918082,36.024190846,14.257825991,2,0.00,,3/6/2013 2:41:01 PM
$GPGGA,134102.959,3601.4514,N,01415.4703,E,1,5,1,0, M,0, M,0,*77,$GPGGA,134102.959,3601.4516,N,01415.4696,E,1,5,1,0, M,0, M,0,*78,36.0241907585273,14.2578376267668,36.0241925778,14.2578258817,2,0.00,,3/6/2013 2:41:02 PM
$GPGGA,134103.973,3601.4515,N,01415.4703,E,1,5,1,0, M,0, M,0,*7F,$GPGGA,134103.973,3601.4513,N,01415.4696,E,1,5,1,0, M,0, M,0,*74,36.0241908986378,14.2578381534704,36.0241887576,14.2578271165,2,0.00,,3/6/2013 2:41:03 PM
$GPGGA,134104.987,3601.4515,N,01415.4703,E,1,5,1,0, M,0, M,0,*73,$GPGGA,134104.987,3601.4514,N,01415.4697,E,1,5,1,0, M,0, M,0,*7E,36.0241911112756,14.2578387866323,36.0241896373,14.2578277891,2,0.00,,3/6/2013 2:41:04 PM
$GPGGA,134106.001,3601.4515,N,01415.4705,E,1,5,1,0, M,0, M,0,*70,$GPGGA,134106.001,3601.4518,N,01415.4699,E,1,5,1,0, M,0, M,0,*79,36.024192146675,14.2578410970494,36.0241967559,14.2578312922,2,0.00,,3/6/2013 2:41:06 PM
$GPGGA,134107.015,3601.4516,N,01415.4705,E,1,5,1,0, M,0, M,0,*77,$GPGGA,134107.015,3601.4521,N,01415.4703,E,1,5,1,0, M,0, M,0,*75,36.0241928480433,14.2578423173459,36.0242014378,14.2578382534,2,0.00,,3/6/2013 2:41:07 PM
$GPGGA,134108.029,3601.4516,N,01415.4706,E,1,5,1,0, M,0, M,0,*74,$GPGGA,134108.029,3601.4521,N,01415.4703,E,1,5,1,0, M,0, M,0,*75,36.0241933828656,14.2578426160123,36.024201936,14.2578383656,2,0.00,,3/6/2013 2:41:08 PM
$GPGGA,134109.043,3601.4516,N,01415.4705,E,1,5,1,0, M,0, M,0,*7A,$GPGGA,134109.043,3601.4522,N,01415.4704,E,1,5,1,0, M,0, M,0,*7C,36.0241937752948,14.2578423655476,36.0242026296,14.2578393534,2,0.00,,3/6/2013 2:41:09 PM
$GPGGA,134110.057,3601.4516,N,01415.4705,E,1,5,1,0, M,0, M,0,*77,$GPGGA,134110.057,3601.4522,N,01415.4704,E,1,5,1,0, M,0, M,0,*71,36.0241941267452,14.2578422751026,36.0242031431,14.2578398991,2,0.00,,3/6/2013 2:41:10 PM
$GPGGA,134111.071,3601.4517,N,01415.4705,E,1,5,1,0, M,0, M,0,*73,$GPGGA,134111.071,3601.4523,N,01415.4704,E,1,5,1,0, M,0, M,0,*75,36.0241949488792,14.2578420763876,36.0242043198,14.2578404081,2,0.00,,3/6/2013 2:41:11 PM
$GPGGA,134112.085,3601.4517,N,01415.4705,E,1,5,1,0, M,0, M,0,*7B,$GPGGA,134112.085,3601.4523,N,01415.4705,E,1,5,1,0, M,0, M,0,*7C,36.0241957147434,14.2578419753625,36.0242050103,14.2578419879,2,0.00,,3/6/2013 2:41:12 PM
$GPGGA,134113.099,3601.4518,N,01415.4705,E,1,5,1,0, M,0, M,0,*78,$GPGGA,134113.099,3601.4523,N,01415.4705,E,1,5,1,0, M,0, M,0,*70,36.0241959396917,14.2578419090409,36.024205633,14.2578423585,2,0.00,,3/6/2013 2:41:13 PM
$GPGGA,134114.113,3601.4518,N,01415.4705,E,1,5,1,0, M,0, M,0,*7C,$GPGGA,134114.113,3601.4523,N,01415.4706,E,1,5,1,0, M,0, M,0,*77,36.0241964655065,14.2578418624862,36.0242058287,14.2578436841,2,0.00,,3/6/2013 2:41:14 PM
$GPGGA,134115.127,3601.4518,N,01415.4705,E,1,5,1,0, M,0, M,0,*7A,$GPGGA,134115.127,3601.4523,N,01415.4707,E,1,5,1,0, M,0, M,0,*70,36.0241966955707,14.2578420221531,36.0242054128,14.2578457537,2,0.00,,3/6/2013 2:41:15 PM
$GPGGA,134116.141,3601.4518,N,01415.4705,E,1,5,1,0, M,0, M,0,*79,$GPGGA,134116.141,3601.4524,N,01415.4707,E,1,5,1,0, M,0, M,0,*74,36.0241968547637,14.2578423842292,36.0242061333,14.2578450238,2,0.00,,3/6/2013 2:41:16 PM
$GPGGA,134117.155,3601.4518,N,01415.4705,E,1,5,1,0, M,0, M,0,*7D,$GPGGA,134117.155,3601.4524,N,01415.4704,E,1,5,1,0, M,0, M,0,*73,36.0241964902456,14.2578422451837,36.0242059625,14.2578398417,2,0.00,,3/6/2013 2:41:17 PM
$GPGGA,134118.169,3601.4518,N,01415.4705,E,1,5,1,0, M,0, M,0,*7D,$GPGGA,134118.169,3601.4523,N,01415.4704,E,1,5,1,0, M,0, M,0,*74,36.0241961870339,14.2578421368572,36.024205659,14.2578398363,2,0.00,,3/6/2013 2:41:18 PM
$GPGGA,134119.183,3601.4518,N,01415.4705,E,1,5,1,0, M,0, M,0,*78,$GPGGA,134119.183,3601.4523,N,01415.4704,E,1,5,1,0, M,0, M,0,*71,36.0241959462265,14.2578420496684,36.0242054588,14.2578402239,2,0.00,,3/6/2013 2:41:19 PM
$GPGGA,134120.197,3601.4518,N,01415.4705,E,1,5,1,0, M,0, M,0,*77,$GPGGA,134120.197,3601.4523,N,01415.4705,E,1,5,1,0, M,0, M,0,*7F,36.0241958484139,14.257842012776,36.0242053446,14.2578410881,2,0.00,,3/6/2013 2:41:20 PM
$GPGGA,134121.211,3601.4517,N,01415.4705,E,1,5,1,0, M,0, M,0,*74,$GPGGA,134121.211,3601.4523,N,01415.4705,E,1,5,1,0, M,0, M,0,*73,36.0241952955975,14.2578419116008,36.0242050839,14.2578418809,2,0.00,,3/6/2013 2:41:21 PM
$GPGGA,134122.225,3601.4517,N,01415.4705,E,1,5,1,0, M,0, M,0,*70,$GPGGA,134122.225,3601.4523,N,01415.4704,E,1,5,1,0, M,0, M,0,*76,36.0241948693488,14.2578412677574,36.024204467,14.2578399871,2,0.00,,3/6/2013 2:41:22 PM
$GPGGA,134123.239,3601.4517,N,01415.4704,E,1,5,1,0, M,0, M,0,*7D,$GPGGA,134123.239,3601.4522,N,01415.4705,E,1,5,1,0, M,0, M,0,*7A,36.0241945481611,14.2578405927756,36.0242039785,14.2578420295,2,0.00,,3/6/2013 2:41:23 PM
$GPGGA,134124.253,3601.4517,N,01415.4704,E,1,5,1,0, M,0, M,0,*76,$GPGGA,134124.253,3601.4522,N,01415.4705,E,1,5,1,0, M,0, M,0,*71,36.0241942885762,14.2578399973461,36.0242036361,14.2578421424,2,0.00,,3/6/2013 2:41:24 PM
$GPGGA,134125.267,3601.4516,N,01415.4704,E,1,5,1,0, M,0, M,0,*71,$GPGGA,134125.267,3601.4522,N,01415.4706,E,1,5,1,0, M,0, M,0,*74,36.0241940855214,14.2578400020256,36.0242030605,14.2578433079,2,0.00,,3/6/2013 2:41:25 PM
$GPGGA,134126.281,3601.4517,N,01415.4704,E,1,5,1,0, M,0, M,0,*7B,$GPGGA,134126.281,3601.4522,N,01415.4707,E,1,5,1,0, M,0, M,0,*7E,36.0241942689602,14.2578403973132,36.0242029581,14.2578445704,2,0.00,,3/6/2013 2:41:26 PM
$GPGGA,134127.295,3601.4517,N,01415.4704,E,1,5,1,0, M,0, M,0,*7F,$GPGGA,134127.295,3601.4522,N,01415.4706,E,1,5,1,0, M,0, M,0,*7B,36.0241944043783,14.2578406727003,36.024203642,14.257843481,2,0.00,,3/6/2013 2:41:27 PM
$GPGGA,134128.309,3601.4517,N,01415.4705,E,1,5,1,0, M,0, M,0,*75,$GPGGA,134128.309,3601.4522,N,01415.4705,E,1,5,1,0, M,0, M,0,*73,36.0241945053283,14.2578412278013,36.0242040001,14.2578423439,2,0.00,,3/6/2013 2:41:28 PM
$GPGGA,134129.323,3601.4517,N,01415.4705,E,1,5,1,0, M,0, M,0,*7C,$GPGGA,134129.323,3601.4522,N,01415.4705,E,1,5,1,0, M,0, M,0,*7A,36.0241945873122,14.2578413219858,36.0242039217,14.2578412744,2,0.00,,3/6/2013 2:41:29 PM
$GPGGA,134130.337,3601.4517,N,01415.4705,E,1,5,1,0, M,0, M,0,*71,$GPGGA,134130.337,3601.4522,N,01415.4705,E,1,5,1,0, M,0, M,0,*77,36.0241949114988,14.2578417076153,36.0242036783,14.2578424362,2,0.00,,3/6/2013 2:41:30 PM
$GPGGA,134131.351,3601.4517,N,01415.4705,E,1,5,1,0, M,0, M,0,*70,$GPGGA,134131.351,3601.4523,N,01415.4705,E,1,5,1,0, M,0, M,0,*77,36.0241952391702,14.2578420296944,36.02420418,14.2578423941,2,0.00,,3/6/2013 2:41:31 PM
$GPGGA,134132.365,3601.4517,N,01415.4705,E,1,5,1,0, M,0, M,0,*74,$GPGGA,134132.365,3601.4523,N,01415.4704,E,1,5,1,0, M,0, M,0,*72,36.0241955180086,14.2578422836932,36.0242047505,14.2578402132,2,0.00,,3/6/2013 2:41:32 PM
$GPGGA,134133.379,3601.4517,N,01415.4705,E,1,5,1,0, M,0, M,0,*78,$GPGGA,134133.379,3601.4523,N,01415.4706,E,1,5,1,0, M,0, M,0,*7C,36.0241957287386,14.2578421695699,36.024204827,14.2578426999,2,0.00,,3/6/2013 2:41:33 PM
$GPGGA,134134.393,3601.4518,N,01415.4705,E,1,5,1,0, M,0, M,0,*74,$GPGGA,134134.393,3601.4523,N,01415.4706,E,1,5,1,0, M,0, M,0,*7F,36.0241958958383,14.2578420788975,36.0242050277,14.257843943,2,0.00,,3/6/2013 2:41:34 PM
$GPGGA,134135.407,3601.4518,N,01415.4705,E,1,5,1,0, M,0, M,0,*7F,$GPGGA,134135.407,3601.4523,N,01415.4706,E,1,5,1,0, M,0, M,0,*74,36.0241960350411,14.2578420090564,36.0242050596,14.2578441089,2,0.00,,3/6/2013 2:41:35 PM
$GPGGA,134136.421,3601.4518,N,01415.4705,E,1,5,1,0, M,0, M,0,*78,$GPGGA,134136.421,3601.4523,N,01415.4706,E,1,5,1,0, M,0, M,0,*73,36.0241961430717,14.2578419503649,36.0242053621,14.2578436608,2,0.00,,3/6/2013 2:41:36 PM
$GPGGA,134137.435,3601.4518,N,01415.4705,E,1,5,1,0, M,0, M,0,*7C,$GPGGA,134137.435,3601.4523,N,01415.4706,E,1,5,1,0, M,0, M,0,*77,36.0241962248632,14.2578418988604,36.0242050897,14.2578438867,2,0.00,,3/6/2013 2:41:37 PM
$GPGGA,134138.449,3601.4518,N,01415.4705,E,1,5,1,0, M,0, M,0,*78,$GPGGA,134138.449,3601.4523,N,01415.4706,E,1,5,1,0, M,0, M,0,*73,36.0241960433992,14.2578415862999,36.0242052386,14.2578425471,2,0.00,,3/6/2013 2:41:38 PM
$GPGGA,134139.463,3601.4517,N,01415.4705,E,1,5,1,0, M,0, M,0,*7E,$GPGGA,134139.463,3601.4523,N,01415.4705,E,1,5,1,0, M,0, M,0,*79,36.0241956771203,14.2578411731453,36.0242048578,14.2578411807,2,0.00,,3/6/2013 2:41:39 PM
$GPGGA,134140.477,3601.4517,N,01415.4704,E,1,5,1,0, M,0, M,0,*74,$GPGGA,134140.477,3601.4523,N,01415.4705,E,1,5,1,0, M,0, M,0,*72,36.0241952474748,14.2578407424539,36.0242045611,14.2578419188,2,0.00,,3/6/2013 2:41:40 PM
$GPGGA,134141.491,3601.4517,N,01415.4704,E,1,5,1,0, M,0, M,0,*7D,$GPGGA,134141.491,3601.4523,N,01415.4705,E,1,5,1,0, M,0, M,0,*7B,36.024194843791,14.2578403851338,36.0242042649,14.2578417154,2,0.00,,3/6/2013 2:41:41 PM
$GPGGA,134142.505,3601.4517,N,01415.4704,E,1,5,1,0, M,0, M,0,*72,$GPGGA,134142.505,3601.4522,N,01415.4705,E,1,5,1,0, M,0, M,0,*75,36.0241945238926,14.2578404873307,36.024204104,14.2578417244,2,0.00,,3/6/2013 2:41:42 PM
$GPGGA,134143.519,3601.4517,N,01415.4704,E,1,5,1,0, M,0, M,0,*7E,$GPGGA,134143.519,3601.4522,N,01415.4705,E,1,5,1,0, M,0, M,0,*79,36.0241942829273,14.2578407248166,36.0242039357,14.2578420453,2,0.00,,3/6/2013 2:41:43 PM
$GPGGA,134144.533,3601.4516,N,01415.4704,E,1,5,1,0, M,0, M,0,*70,$GPGGA,134144.533,3601.4522,N,01415.4705,E,1,5,1,0, M,0, M,0,*76,36.0241940945415,14.2578405574317,36.024203717,14.2578424588,2,0.00,,3/6/2013 2:41:44 PM
$GPGGA,134145.547,3601.4516,N,01415.4704,E,1,5,1,0, M,0, M,0,*72,$GPGGA,134145.547,3601.4522,N,01415.4705,E,1,5,1,0, M,0, M,0,*74,36.0241937997373,14.2578397412717,36.0242035437,14.2578412784,2,0.00,,3/6/2013 2:41:45 PM
$GPGGA,134146.561,3601.4516,N,01415.4703,E,1,5,1,0, M,0, M,0,*72,$GPGGA,134146.561,3601.4522,N,01415.4704,E,1,5,1,0, M,0, M,0,*72,36.0241933718126,14.2578384384287,36.0242030817,14.2578392809,2,0.00,,3/6/2013 2:41:46 PM
$GPGGA,134147.575,3601.4516,N,01415.4702,E,1,5,1,0, M,0, M,0,*77,$GPGGA,134147.575,3601.4521,N,01415.4702,E,1,5,1,0, M,0, M,0,*73,36.0241928012895,14.2578371346579,36.0242021804,14.2578369372,2,0.00,,3/6/2013 2:41:47 PM
$GPGGA,134148.589,3601.4515,N,01415.4701,E,1,5,1,0, M,0, M,0,*7B,$GPGGA,134148.589,3601.4521,N,01415.4700,E,1,5,1,0, M,0, M,0,*7D,36.0241920951847,14.2578355918178,36.0242014578,14.2578337335,2,0.00,,3/6/2013 2:41:48 PM
$GPGGA,134149.603,3601.4515,N,01415.4700,E,1,5,1,0, M,0, M,0,*7A,$GPGGA,134149.603,3601.4520,N,01415.4698,E,1,5,1,0, M,0, M,0,*7C,36.0241912797798,14.2578339227423,36.0242003897,14.2578300232,2,0.00,,3/6/2013 2:41:49 PM
$GPGGA,134150.617,3601.4514,N,01415.4699,E,1,5,1,0, M,0, M,0,*77,$GPGGA,134150.617,3601.4519,N,01415.4696,E,1,5,1,0, M,0, M,0,*75,36.0241904695447,14.2578323201035,36.0241990979,14.2578271751,2,0.00,,3/6/2013 2:41:50 PM
$GPGGA,134151.631,3601.4514,N,01415.4699,E,1,5,1,0, M,0, M,0,*72,$GPGGA,134151.631,3601.4519,N,01415.4695,E,1,5,1,0, M,0, M,0,*73,36.0241896701381,14.2578309998675,36.0241978777,14.2578249494,2,0.00,,3/6/2013 2:41:51 PM
$GPGGA,134152.645,3601.4513,N,01415.4698,E,1,5,1,0, M,0, M,0,*74,$GPGGA,134152.645,3601.4518,N,01415.4695,E,1,5,1,0, M,0, M,0,*72,36.0241888437261,14.2578301584409,36.0241970983,14.2578247393,2,0.00,,3/6/2013 2:41:52 PM
$GPGGA,134153.659,3601.4513,N,01415.4698,E,1,5,1,0, M,0, M,0,*78,$GPGGA,134153.659,3601.4518,N,01415.4696,E,1,5,1,0, M,0, M,0,*7D,36.0241882475727,14.257829358038,36.0241967099,14.2578261524,2,0.00,,3/6/2013 2:41:53 PM
$GPGGA,134154.673,3601.4513,N,01415.4697,E,1,5,1,0, M,0, M,0,*78,$GPGGA,134154.673,3601.4518,N,01415.4698,E,1,5,1,0, M,0, M,0,*7C,36.0241878509978,14.2578286023543,36.0241970735,14.2578294884,2,0.00,,3/6/2013 2:41:54 PM
$GPGGA,134155.687,3601.4513,N,01415.4697,E,1,5,1,0, M,0, M,0,*72,$GPGGA,134155.687,3601.4518,N,01415.4699,E,1,5,1,0, M,0, M,0,*77,36.0241877820363,14.2578285642785,36.0241964614,14.2578319426,2,0.00,,3/6/2013 2:41:55 PM
$GPGGA,134156.701,3601.4513,N,01415.4697,E,1,5,1,0, M,0, M,0,*7E,$GPGGA,134156.701,3601.4518,N,01415.4698,E,1,5,1,0, M,0, M,0,*7A,36.0241877145076,14.2578289287083,36.0241970921,14.2578300599,2,0.00,,3/6/2013 2:41:56 PM
$GPGGA,134157.715,3601.4513,N,01415.4698,E,1,5,1,0, M,0, M,0,*75,$GPGGA,134157.715,3601.4518,N,01415.4697,E,1,5,1,0, M,0, M,0,*71,36.0241875050015,14.257829178284,36.0241969407,14.2578288118,2,0.00,,3/6/2013 2:41:57 PM
$GPGGA,134158.729,3601.4513,N,01415.4698,E,1,5,1,0, M,0, M,0,*75,$GPGGA,134158.729,3601.4518,N,01415.4697,E,1,5,1,0, M,0, M,0,*71,36.0241875070438,14.2578293658096,36.0241967829,14.2578287675,2,0.00,,3/6/2013 2:41:58 PM
$GPGGA,134159.743,3601.4512,N,01415.4698,E,1,5,1,0, M,0, M,0,*79,$GPGGA,134159.743,3601.4518,N,01415.4697,E,1,5,1,0, M,0, M,0,*7C,36.0241874986292,14.2578294906549,36.024196758,14.2578287104,2,0.00,,3/6/2013 2:41:59 PM
$GPGGA,134200.757,3601.4512,N,01415.4698,E,1,5,1,0, M,0, M,0,*73,$GPGGA,134200.757,3601.4518,N,01415.4697,E,1,5,1,0, M,0, M,0,*76,36.024187323748,14.2578296065714,36.0241964593,14.2578276188,2,0.00,,3/6/2013 2:42:00 PM
$GPGGA,134201.771,3601.4512,N,01415.4698,E,1,5,1,0, M,0, M,0,*76,$GPGGA,134201.771,3601.4518,N,01415.4696,E,1,5,1,0, M,0, M,0,*72,36.0241872491946,14.2578296621928,36.0241963633,14.2578270838,2,0.00,,3/6/2013 2:42:01 PM
$GPGGA,134202.785,3601.4512,N,01415.4698,E,1,5,1,0, M,0, M,0,*7E,$GPGGA,134202.785,3601.4518,N,01415.4696,E,1,5,1,0, M,0, M,0,*7A,36.0241871672047,14.2578297243789,36.0241964768,14.257827277,2,0.00,,3/6/2013 2:42:02 PM
$GPGGA,134203.799,3601.4512,N,01415.4698,E,1,5,1,0, M,0, M,0,*72,$GPGGA,134203.799,3601.4518,N,01415.4698,E,1,5,1,0, M,0, M,0,*78,36.0241870836597,14.2578300445893,36.0241966424,14.2578292129,2,0.00,,3/6/2013 2:42:03 PM
$GPGGA,134204.813,3601.4512,N,01415.4698,E,1,5,1,0, M,0, M,0,*78,$GPGGA,134204.813,3601.4518,N,01415.4697,E,1,5,1,0, M,0, M,0,*7D,36.0241871808327,14.2578301983513,36.0241967566,14.2578279145,2,0.00,,3/6/2013 2:42:04 PM
$GPGGA,134205.827,3601.4513,N,01415.4699,E,1,5,1,0, M,0, M,0,*7E,$GPGGA,134205.827,3601.4518,N,01415.4698,E,1,5,1,0, M,0, M,0,*74,36.0241877260469,14.2578309146945,36.024197214,14.2578296682,2,0.00,,3/6/2013 2:42:05 PM
$GPGGA,134206.841,3601.4513,N,01415.4699,E,1,5,1,0, M,0, M,0,*7D,$GPGGA,134206.841,3601.4518,N,01415.4700,E,1,5,1,0, M,0, M,0,*77,36.0241881975087,14.2578318861406,36.0241973129,14.2578336925,2,0.00,,3/6/2013 2:42:06 PM
$GPGGA,134207.855,3601.4513,N,01415.4700,E,1,5,1,0, M,0, M,0,*78,$GPGGA,134207.855,3601.4519,N,01415.4700,E,1,5,1,0, M,0, M,0,*72,36.024188602372,14.2578327409778,36.0241980009,14.2578339108,2,0.00,,3/6/2013 2:42:07 PM
$GPGGA,134208.869,3601.4514,N,01415.4700,E,1,5,1,0, M,0, M,0,*7F,$GPGGA,134208.869,3601.4519,N,01415.4700,E,1,5,1,0, M,0, M,0,*72,36.0241893432871,14.2578333656248,36.0241988351,14.2578336265,2,0.00,,3/6/2013 2:42:08 PM
$GPGGA,134209.883,3601.4514,N,01415.4700,E,1,5,1,0, M,0, M,0,*7A,$GPGGA,134209.883,3601.4519,N,01415.4701,E,1,5,1,0, M,0, M,0,*76,36.0241896698241,14.2578338342049,36.0241990965,14.2578347096,2,0.00,,3/6/2013 2:42:09 PM
$GPGGA,134210.897,3601.4514,N,01415.4701,E,1,5,1,0, M,0, M,0,*76,$GPGGA,134210.897,3601.4520,N,01415.4703,E,1,5,1,0, M,0, M,0,*73,36.0241899631894,14.257834438032,36.024199227,14.2578375298,2,0.00,,3/6/2013 2:42:10 PM
$GPGGA,134211.911,3601.4514,N,01415.4701,E,1,5,1,0, M,0, M,0,*78,$GPGGA,134211.911,3601.4519,N,01415.4702,E,1,5,1,0, M,0, M,0,*76,36.0241896114816,14.2578341868185,36.0241988987,14.2578369123,2,0.00,,3/6/2013 2:42:11 PM
$GPGGA,134212.925,3601.4513,N,01415.4700,E,1,5,1,0, M,0, M,0,*7A,$GPGGA,134212.925,3601.4519,N,01415.4702,E,1,5,1,0, M,0, M,0,*72,36.0241889985544,14.257833665646,36.0241979446,14.2578365843,2,0.00,,3/6/2013 2:42:12 PM
$GPGGA,134213.939,3601.4513,N,01415.4700,E,1,5,1,0, M,0, M,0,*76,$GPGGA,134213.939,3601.4518,N,01415.4702,E,1,5,1,0, M,0, M,0,*7F,36.0241884781253,14.2578332333649,36.024197499,14.2578362501,2,0.00,,3/6/2013 2:42:13 PM
$GPGGA,134214.953,3601.4513,N,01415.4700,E,1,5,1,0, M,0, M,0,*7D,$GPGGA,134214.953,3601.4518,N,01415.4701,E,1,5,1,0, M,0, M,0,*77,36.0241882594444,14.257832874125,36.0241972847,14.2578355885,2,0.00,,3/6/2013 2:42:14 PM
$GPGGA,134215.967,3601.4512,N,01415.4699,E,1,5,1,0, M,0, M,0,*7B,$GPGGA,134215.967,3601.4518,N,01415.4701,E,1,5,1,0, M,0, M,0,*71,36.0241874041976,14.2578323393236,36.0241964356,14.2578350927,2,0.00,,3/6/2013 2:42:15 PM
$GPGGA,134216.981,3601.4512,N,01415.4699,E,1,5,1,0, M,0, M,0,*70,$GPGGA,134216.981,3601.4518,N,01415.4700,E,1,5,1,0, M,0, M,0,*7B,36.024186835688,14.257831871122,36.024196025,14.257834012,2,0.00,,3/6/2013 2:42:16 PM
$GPGGA,134217.995,3601.4512,N,01415.4699,E,1,5,1,0, M,0, M,0,*74,$GPGGA,134217.995,3601.4517,N,01415.4701,E,1,5,1,0, M,0, M,0,*71,36.0241864091957,14.2578314879193,36.024195125,14.2578349737,2,0.00,,3/6/2013 2:42:17 PM
$GPGGA,134219.009,3601.4512,N,01415.4699,E,1,5,1,0, M,0, M,0,*76,$GPGGA,134219.009,3601.4516,N,01415.4702,E,1,5,1,0, M,0, M,0,*71,36.0241860936536,14.2578311956147,36.0241940703,14.2578361841,2,0.00,,3/6/2013 2:42:19 PM
$GPGGA,134220.023,3601.4512,N,01415.4699,E,1,5,1,0, M,0, M,0,*74,$GPGGA,134220.023,3601.4516,N,01415.4702,E,1,5,1,0, M,0, M,0,*73,36.0241859698696,14.2578310722848,36.0241935012,14.2578369172,2,0.00,,3/6/2013 2:42:20 PM
$GPGGA,134221.037,3601.4511,N,01415.4698,E,1,5,1,0, M,0, M,0,*72,$GPGGA,134221.037,3601.4516,N,01415.4701,E,1,5,1,0, M,0, M,0,*74,36.0241853389788,14.2578304059163,36.0241936628,14.2578347597,2,0.00,,3/6/2013 2:42:21 PM
$GPGGA,134222.051,3601.4511,N,01415.4698,E,1,5,1,0, M,0, M,0,*71,$GPGGA,134222.051,3601.4516,N,01415.4699,E,1,5,1,0, M,0, M,0,*77,36.0241848710181,14.2578295095629,36.0241938783,14.257831485,2,0.00,,3/6/2013 2:42:22 PM
$GPGGA,134223.065,3601.4511,N,01415.4697,E,1,5,1,0, M,0, M,0,*78,$GPGGA,134223.065,3601.4516,N,01415.4698,E,1,5,1,0, M,0, M,0,*70,36.0241845219094,14.2578283241558,36.0241936666,14.2578292363,2,0.00,,3/6/2013 2:42:23 PM
$GPGGA,134224.079,3601.4510,N,01415.4696,E,1,5,1,0, M,0, M,0,*72,$GPGGA,134224.079,3601.4516,N,01415.4697,E,1,5,1,0, M,0, M,0,*75,36.0241838576237,14.2578273742176,36.024193122,14.2578283465,2,0.00,,3/6/2013 2:42:24 PM
$GPGGA,134225.093,3601.4510,N,01415.4696,E,1,5,1,0, M,0, M,0,*77,$GPGGA,134225.093,3601.4516,N,01415.4698,E,1,5,1,0, M,0, M,0,*7F,36.0241835641894,14.2578270082523,36.0241925577,14.2578298622,2,0.00,,3/6/2013 2:42:25 PM
$GPGGA,134226.107,3601.4510,N,01415.4696,E,1,5,1,0, M,0, M,0,*78,$GPGGA,134226.107,3601.4516,N,01415.4697,E,1,5,1,0, M,0, M,0,*7F,36.0241833168137,14.2578267007482,36.024192595,14.257827747,2,0.00,,3/6/2013 2:42:26 PM
$GPGGA,134227.121,3601.4510,N,01415.4696,E,1,5,1,0, M,0, M,0,*7D,$GPGGA,134227.121,3601.4515,N,01415.4695,E,1,5,1,0, M,0, M,0,*7B,36.0241829789696,14.2578263181423,36.0241924262,14.2578254776,2,0.00,,3/6/2013 2:42:27 PM
$GPGGA,134228.135,3601.4509,N,01415.4696,E,1,5,1,0, M,0, M,0,*7F,$GPGGA,134228.135,3601.4515,N,01415.4694,E,1,5,1,0, M,0, M,0,*70,36.0241823588397,14.2578260262403,36.0241916371,14.2578227537,2,0.00,,3/6/2013 2:42:28 PM
$GPGGA,134229.149,3601.4509,N,01415.4696,E,1,5,1,0, M,0, M,0,*75,$GPGGA,134229.149,3601.4515,N,01415.4694,E,1,5,1,0, M,0, M,0,*7A,36.024181823455,14.2578261473838,36.0241909319,14.2578225333,2,0.00,,3/6/2013 2:42:29 PM
$GPGGA,134230.163,3601.4509,N,01415.4696,E,1,5,1,0, M,0, M,0,*75,$GPGGA,134230.163,3601.4514,N,01415.4694,E,1,5,1,0, M,0, M,0,*7B,36.0241815978909,14.2578261966183,36.0241906426,14.2578228678,2,0.00,,3/6/2013 2:42:30 PM
$GPGGA,134231.177,3601.4509,N,01415.4696,E,1,5,1,0, M,0, M,0,*71,$GPGGA,134231.177,3601.4514,N,01415.4695,E,1,5,1,0, M,0, M,0,*7E,36.0241810861194,14.2578266866564,36.0241900681,14.2578242962,2,0.00,,3/6/2013 2:42:31 PM
$GPGGA,134232.191,3601.4509,N,01415.4696,E,1,5,1,0, M,0, M,0,*7A,$GPGGA,134232.191,3601.4514,N,01415.4695,E,1,5,1,0, M,0, M,0,*75,36.0241808516949,14.2578270882479,36.0241898925,14.2578244377,2,0.00,,3/6/2013 2:42:32 PM
$GPGGA,134233.205,3601.4508,N,01415.4696,E,1,5,1,0, M,0, M,0,*74,$GPGGA,134233.205,3601.4514,N,01415.4694,E,1,5,1,0, M,0, M,0,*7B,36.0241806774274,14.2578273894361,36.0241897036,14.2578234251,2,0.00,,3/6/2013 2:42:33 PM
$GPGGA,134234.219,3601.4508,N,01415.4697,E,1,5,1,0, M,0, M,0,*7F,$GPGGA,134234.219,3601.4513,N,01415.4693,E,1,5,1,0, M,0, M,0,*71,36.0241805463476,14.2578276056748,36.0241888019,14.2578221733,2,0.00,,3/6/2013 2:42:34 PM
$GPGGA,134235.233,3601.4508,N,01415.4697,E,1,5,1,0, M,0, M,0,*76,$GPGGA,134235.233,3601.4514,N,01415.4695,E,1,5,1,0, M,0, M,0,*79,36.0241807290217,14.2578281160698,36.0241895171,14.2578243849,2,0.00,,3/6/2013 2:42:35 PM
$GPGGA,134236.247,3601.4509,N,01415.4697,E,1,5,1,0, M,0, M,0,*77,$GPGGA,134236.247,3601.4514,N,01415.4696,E,1,5,1,0, M,0, M,0,*7A,36.0241812250607,14.2578289972998,36.024190663,14.2578260896,2,0.00,,3/6/2013 2:42:36 PM
$GPGGA,134237.261,3601.4509,N,01415.4698,E,1,5,1,0, M,0, M,0,*7D,$GPGGA,134237.261,3601.4515,N,01415.4697,E,1,5,1,0, M,0, M,0,*7F,36.0241816799182,14.2578301918624,36.0241909747,14.2578279944,2,0.00,,3/6/2013 2:42:37 PM
$GPGGA,134238.275,3601.4509,N,01415.4698,E,1,5,1,0, M,0, M,0,*77,$GPGGA,134238.275,3601.4514,N,01415.4697,E,1,5,1,0, M,0, M,0,*74,36.0241816688311,14.257830633547,36.0241908064,14.2578279169,2,0.00,,3/6/2013 2:42:38 PM
$GPGGA,134239.289,3601.4509,N,01415.4699,E,1,5,1,0, M,0, M,0,*74,$GPGGA,134239.289,3601.4514,N,01415.4697,E,1,5,1,0, M,0, M,0,*76,36.0241816624841,14.2578309193989,36.0241908312,14.2578275502,2,0.00,,3/6/2013 2:42:39 PM
$GPGGA,134240.303,3601.4509,N,01415.4699,E,1,5,1,0, M,0, M,0,*79,$GPGGA,134240.303,3601.4515,N,01415.4697,E,1,5,1,0, M,0, M,0,*7A,36.0241819535096,14.2578315083189,36.0241913731,14.2578287436,2,0.00,,3/6/2013 2:42:40 PM
$GPGGA,134241.317,3601.4509,N,01415.4699,E,1,5,1,0, M,0, M,0,*7D,$GPGGA,134241.317,3601.4515,N,01415.4698,E,1,5,1,0, M,0, M,0,*71,36.0241822305203,14.2578319468121,36.0241919615,14.2578297902,2,0.00,,3/6/2013 2:42:41 PM
$GPGGA,134242.331,3601.4509,N,01415.4700,E,1,5,1,0, M,0, M,0,*7B,$GPGGA,134242.331,3601.4515,N,01415.4699,E,1,5,1,0, M,0, M,0,*77,36.0241824522275,14.2578326958621,36.0241922651,14.2578318741,2,0.00,,3/6/2013 2:42:42 PM
$GPGGA,134243.345,3601.4509,N,01415.4700,E,1,5,1,0, M,0, M,0,*79,$GPGGA,134243.345,3601.4515,N,01415.4700,E,1,5,1,0, M,0, M,0,*74,36.0241822913247,14.2578328680068,36.0241918762,14.2578329478,2,0.00,,3/6/2013 2:42:43 PM
$GPGGA,134244.359,3601.4509,N,01415.4700,E,1,5,1,0, M,0, M,0,*73,$GPGGA,134244.359,3601.4515,N,01415.4701,E,1,5,1,0, M,0, M,0,*7F,36.0241821711084,14.2578333705877,36.0241916438,14.25783529,2,0.00,,3/6/2013 2:42:44 PM
$GPGGA,134245.373,3601.4509,N,01415.4700,E,1,5,1,0, M,0, M,0,*7A,$GPGGA,134245.373,3601.4514,N,01415.4703,E,1,5,1,0, M,0, M,0,*75,36.0241820764918,14.2578337517305,36.0241907203,14.2578384889,2,0.00,,3/6/2013 2:42:45 PM
$GPGGA,134246.387,3601.4509,N,01415.4700,E,1,5,1,0, M,0, M,0,*72,$GPGGA,134246.387,3601.4514,N,01415.4704,E,1,5,1,0, M,0, M,0,*7A,36.0241820003704,14.2578340380436,36.0241905265,14.2578396135,2,0.00,,3/6/2013 2:42:46 PM
$GPGGA,134247.401,3601.4509,N,01415.4701,E,1,5,1,0, M,0, M,0,*7B,$GPGGA,134247.401,3601.4515,N,01415.4703,E,1,5,1,0, M,0, M,0,*74,36.0241819429115,14.2578342511527,36.0241910696,14.257838659,2,0.00,,3/6/2013 2:42:47 PM
$GPGGA,134248.415,3601.4509,N,01415.4701,E,1,5,1,0, M,0, M,0,*71,$GPGGA,134248.415,3601.4515,N,01415.4703,E,1,5,1,0, M,0, M,0,*7E,36.0241818981181,14.2578344129551,36.0241909589,14.2578386566,2,0.00,,3/6/2013 2:42:48 PM
$GPGGA,134249.429,3601.4509,N,01415.4701,E,1,5,1,0, M,0, M,0,*7F,$GPGGA,134249.429,3601.4514,N,01415.4704,E,1,5,1,0, M,0, M,0,*76,36.0241818500959,14.2578348475706,36.0241901656,14.2578395622,2,0.00,,3/6/2013 2:42:49 PM
$GPGGA,134250.443,3601.4509,N,01415.4701,E,1,5,1,0, M,0, M,0,*7B,$GPGGA,134250.443,3601.4514,N,01415.4704,E,1,5,1,0, M,0, M,0,*72,36.024182009908,14.2578355658624,36.0241906084,14.2578396938,2,0.00,,3/6/2013 2:42:50 PM
$GPGGA,134251.457,3601.4509,N,01415.4702,E,1,5,1,0, M,0, M,0,*7C,$GPGGA,134251.457,3601.4514,N,01415.4705,E,1,5,1,0, M,0, M,0,*77,36.0241823077245,14.2578364925394,36.0241906297,14.2578412114,2,0.00,,3/6/2013 2:42:51 PM
$GPGGA,134252.471,3601.4509,N,01415.4702,E,1,5,1,0, M,0, M,0,*7B,$GPGGA,134252.471,3601.4515,N,01415.4705,E,1,5,1,0, M,0, M,0,*71,36.0241824768961,14.2578367076557,36.0241909555,14.2578410368,2,0.00,,3/6/2013 2:42:52 PM
$GPGGA,134253.485,3601.4510,N,01415.4702,E,1,5,1,0, M,0, M,0,*79,$GPGGA,134253.485,3601.4515,N,01415.4704,E,1,5,1,0, M,0, M,0,*7A,36.024182752341,14.2578365172501,36.0241914506,14.2578399525,2,0.00,,3/6/2013 2:42:53 PM
$GPGGA,134254.499,3601.4510,N,01415.4702,E,1,5,1,0, M,0, M,0,*73,$GPGGA,134254.499,3601.4515,N,01415.4703,E,1,5,1,0, M,0, M,0,*77,36.0241831684895,14.2578359720019,36.0241921268,14.2578380437,2,0.00,,3/6/2013 2:42:54 PM
$GPGGA,134255.513,3601.4510,N,01415.4701,E,1,5,1,0, M,0, M,0,*72,$GPGGA,134255.513,3601.4515,N,01415.4703,E,1,5,1,0, M,0, M,0,*75,36.0241835390717,14.2578352609159,36.0241915114,14.2578376609,2,0.00,,3/6/2013 2:42:55 PM
$GPGGA,134256.527,3601.4510,N,01415.4701,E,1,5,1,0, M,0, M,0,*76,$GPGGA,134256.527,3601.4515,N,01415.4702,E,1,5,1,0, M,0, M,0,*70,36.0241838518705,14.2578344819203,36.024191751,14.2578372584,2,0.00,,3/6/2013 2:42:56 PM
$GPGGA,134257.541,3601.4510,N,01415.4700,E,1,5,1,0, M,0, M,0,*76,$GPGGA,134257.541,3601.4516,N,01415.4702,E,1,5,1,0, M,0, M,0,*72,36.0241841118526,14.2578336560316,36.0241928142,14.2578361636,2,0.00,,3/6/2013 2:42:57 PM
$GPGGA,134258.555,3601.4511,N,01415.4700,E,1,5,1,0, M,0, M,0,*7D,$GPGGA,134258.555,3601.4516,N,01415.4702,E,1,5,1,0, M,0, M,0,*78,36.024184309474,14.2578330738006,36.0241932213,14.2578361355,2,0.00,,3/6/2013 2:42:58 PM
$GPGGA,134259.569,3601.4511,N,01415.4700,E,1,5,1,0, M,0, M,0,*73,$GPGGA,134259.569,3601.4516,N,01415.4702,E,1,5,1,0, M,0, M,0,*76,36.0241842974386,14.2578327236611,36.0241929806,14.2578365094,2,0.00,,3/6/2013 2:42:59 PM
$GPGGA,134300.583,3601.4510,N,01415.4699,E,1,5,1,0, M,0, M,0,*7A,$GPGGA,134300.583,3601.4515,N,01415.4702,E,1,5,1,0, M,0, M,0,*7C,36.0241841448718,14.2578324985771,36.0241923615,14.2578371613,2,0.00,,3/6/2013 2:43:00 PM
$GPGGA,134301.597,3601.4510,N,01415.4699,E,1,5,1,0, M,0, M,0,*7E,$GPGGA,134301.597,3601.4515,N,01415.4702,E,1,5,1,0, M,0, M,0,*78,36.0241840156296,14.2578323274653,36.0241922737,14.257836751,2,0.00,,3/6/2013 2:43:01 PM
$GPGGA,134302.611,3601.4510,N,01415.4699,E,1,5,1,0, M,0, M,0,*70,$GPGGA,134302.611,3601.4515,N,01415.4703,E,1,5,1,0, M,0, M,0,*77,36.0241837638125,14.2578320080893,36.0241913637,14.257837539,2,0.00,,3/6/2013 2:43:02 PM
$GPGGA,134303.625,3601.4510,N,01415.4699,E,1,5,1,0, M,0, M,0,*76,$GPGGA,134303.625,3601.4515,N,01415.4700,E,1,5,1,0, M,0, M,0,*72,36.0241833669562,14.2578313349771,36.0241922604,14.2578341325,2,0.00,,3/6/2013 2:43:03 PM
$GPGGA,134304.639,3601.4510,N,01415.4698,E,1,5,1,0, M,0, M,0,*7D,$GPGGA,134304.639,3601.4515,N,01415.4699,E,1,5,1,0, M,0, M,0,*79,36.0241828141621,14.2578298263031,36.024191709,14.2578316514,2,0.00,,3/6/2013 2:43:04 PM
$GPGGA,134305.653,3601.4509,N,01415.4697,E,1,5,1,0, M,0, M,0,*77,$GPGGA,134305.653,3601.4513,N,01415.4701,E,1,5,1,0, M,0, M,0,*72,36.0241823527465,14.2578276489396,36.0241890419,14.257834258,2,0.00,,3/6/2013 2:43:05 PM
$GPGGA,134306.667,3601.4509,N,01415.4696,E,1,5,1,0, M,0, M,0,*72,$GPGGA,134306.667,3601.4513,N,01415.4700,E,1,5,1,0, M,0, M,0,*77,36.0241822179044,14.2578261442201,36.024189103,14.2578327886,2,0.00,,3/6/2013 2:43:06 PM
$GPGGA,134307.681,3601.4509,N,01415.4695,E,1,5,1,0, M,0, M,0,*78,$GPGGA,134307.681,3601.4514,N,01415.4698,E,1,5,1,0, M,0, M,0,*79,36.0241821138455,14.2578252129605,36.0241903072,14.2578295352,2,0.00,,3/6/2013 2:43:07 PM
$GPGGA,134308.695,3601.4509,N,01415.4695,E,1,5,1,0, M,0, M,0,*72,$GPGGA,134308.695,3601.4512,N,01415.4700,E,1,5,1,0, M,0, M,0,*75,36.0241822152618,14.257824618844,36.0241871403,14.2578332925,2,0.00,,3/6/2013 2:43:08 PM
$GPGGA,134309.709,3601.4509,N,01415.4695,E,1,5,1,0, M,0, M,0,*77,$GPGGA,134309.709,3601.4511,N,01415.4701,E,1,5,1,0, M,0, M,0,*72,36.0241824403793,14.2578244867147,36.0241854677,14.2578343449,2,0.00,,3/6/2013 2:43:09 PM
$GPGGA,134310.723,3601.4510,N,01415.4695,E,1,5,1,0, M,0, M,0,*7F,$GPGGA,134310.723,3601.4512,N,01415.4701,E,1,5,1,0, M,0, M,0,*71,36.0241826040608,14.2578246026345,36.0241861727,14.2578342767,2,0.00,,3/6/2013 2:43:10 PM
$GPGGA,134311.737,3601.4510,N,01415.4695,E,1,5,1,0, M,0, M,0,*7B,$GPGGA,134311.737,3601.4512,N,01415.4701,E,1,5,1,0, M,0, M,0,*75,36.0241825759399,14.257824681903,36.0241862929,14.257834712,2,0.00,,3/6/2013 2:43:11 PM
$GPGGA,134312.751,3601.4509,N,01415.4695,E,1,5,1,0, M,0, M,0,*70,$GPGGA,134312.751,3601.4511,N,01415.4701,E,1,5,1,0, M,0, M,0,*75,36.0241823610601,14.2578244595413,36.0241857108,14.2578345126,2,0.00,,3/6/2013 2:43:12 PM
$GPGGA,134313.765,3601.4509,N,01415.4694,E,1,5,1,0, M,0, M,0,*77,$GPGGA,134313.765,3601.4513,N,01415.4700,E,1,5,1,0, M,0, M,0,*70,36.0241822514724,14.2578238595703,36.0241877092,14.2578325116,2,0.00,,3/6/2013 2:43:13 PM
